[{"name":"辽宁省","code":"21","level":1,"mergeName":"辽宁省,辽宁省","lng":123.43559785683209,"lat":41.84146525120185,"info":"直接查询获得"},{"name":"沈阳市","code":"2101","level":2,"mergeName":"辽宁省,沈阳市","lng":123.47109664482264,"lat":41.68383006919066,"info":"直接查询获得"},{"name":"和平区","code":"210102","level":3,"mergeName":"辽宁省,沈阳市,和平区","lng":123.42664426615303,"lat":41.79523605290212,"info":"直接查询获得"},{"name":"浑河湾街道","code":"210102001","level":4,"mergeName":"辽宁省,沈阳市,和平区,浑河湾街道","lng":123.3905260066828,"lat":41.762955886439435,"info":"直接查询获得"},{"name":"新华街道","code":"210102002","level":4,"mergeName":"辽宁省,沈阳市,和平区,新华街道","lng":123.38991497927492,"lat":41.781011902672375,"info":"直接查询获得"},{"name":"马路湾街道","code":"210102016","level":4,"mergeName":"辽宁省,沈阳市,和平区,马路湾街道","lng":123.41329796153019,"lat":41.778564917520264,"info":"直接查询获得"},{"name":"南湖街道","code":"210102019","level":4,"mergeName":"辽宁省,沈阳市,和平区,南湖街道","lng":123.42466898216715,"lat":41.77842888522074,"info":"直接查询获得"},{"name":"长白街道","code":"210102021","level":4,"mergeName":"辽宁省,沈阳市,和平区,长白街道","lng":123.40845429822038,"lat":41.738648523677305,"info":"直接查询获得"},{"name":"太原街街道","code":"210102022","level":4,"mergeName":"辽宁省,沈阳市,和平区,太原街街道","lng":123.40843031346327,"lat":41.79630142847415,"info":"直接查询获得"},{"name":"北市场街道","code":"210102023","level":4,"mergeName":"辽宁省,沈阳市,和平区,北市场街道","lng":123.43394892723796,"lat":41.811719746733694,"info":"直接查询获得"},{"name":"南市场街道","code":"210102025","level":4,"mergeName":"辽宁省,沈阳市,和平区,南市场街道","lng":123.42502102809651,"lat":41.793799905384994,"info":"直接查询获得"},{"name":"沈水湾街道","code":"210102027","level":4,"mergeName":"辽宁省,沈阳市,和平区,沈水湾街道","lng":123.41730539224075,"lat":41.740516393490374,"info":"直接查询获得"},{"name":"浑河站西街道","code":"210102028","level":4,"mergeName":"辽宁省,沈阳市,和平区,浑河站西街道","lng":123.36956494591297,"lat":41.7261092804679,"info":"直接查询获得"},{"name":"沈河区","code":"210103","level":3,"mergeName":"辽宁省,沈阳市,沈河区","lng":123.46546103537524,"lat":41.80227413880463,"info":"直接查询获得"},{"name":"滨河街道","code":"210103005","level":4,"mergeName":"辽宁省,沈阳市,沈河区,滨河街道","lng":123.46597801019622,"lat":41.79034388918191,"info":"直接查询获得"},{"name":"万莲街道","code":"210103006","level":4,"mergeName":"辽宁省,沈阳市,沈河区,万莲街道","lng":123.4872937219814,"lat":41.791062106847214,"info":"直接查询获得"},{"name":"朱剪炉街道","code":"210103013","level":4,"mergeName":"辽宁省,沈阳市,沈河区,朱剪炉街道","lng":123.44476753220664,"lat":41.8114478912847,"info":"直接查询获得"},{"name":"北站街道","code":"210103014","level":4,"mergeName":"辽宁省,沈阳市,沈河区,北站街道","lng":123.46546103537524,"lat":41.80227413880463,"info":"直接查询获得"},{"name":"风雨坛街道","code":"210103015","level":4,"mergeName":"辽宁省,沈阳市,沈河区,风雨坛街道","lng":123.44346943852436,"lat":41.79449556334513,"info":"直接查询获得"},{"name":"皇城街道","code":"210103017","level":4,"mergeName":"辽宁省,沈阳市,沈河区,皇城街道","lng":123.46452302476173,"lat":41.802354867249136,"info":"直接查询获得"},{"name":"五里河街道","code":"210103018","level":4,"mergeName":"辽宁省,沈阳市,沈河区,五里河街道","lng":123.44938747702072,"lat":41.77136103281545,"info":"直接查询获得"},{"name":"南塔街道","code":"210103019","level":4,"mergeName":"辽宁省,沈阳市,沈河区,南塔街道","lng":123.45641132600663,"lat":41.76713618207144,"info":"直接查询获得"},{"name":"泉园街道","code":"210103020","level":4,"mergeName":"辽宁省,沈阳市,沈河区,泉园街道","lng":123.51531672168736,"lat":41.78119983875353,"info":"直接查询获得"},{"name":"马官桥街道","code":"210103022","level":4,"mergeName":"辽宁省,沈阳市,沈河区,马官桥街道","lng":123.56514887239511,"lat":41.827549635675105,"info":"直接查询获得"},{"name":"东陵街道","code":"210103023","level":4,"mergeName":"辽宁省,沈阳市,沈河区,东陵街道","lng":123.53712874726679,"lat":41.81897528270021,"info":"直接查询获得"},{"name":"大东区","code":"210104","level":3,"mergeName":"辽宁省,沈阳市,大东区","lng":123.47640473208111,"lat":41.811425174494424,"info":"直接查询获得"},{"name":"大北街道","code":"210104002","level":4,"mergeName":"辽宁省,沈阳市,大东区,大北街道","lng":123.46888537597928,"lat":41.81343076574965,"info":"直接查询获得"},{"name":"万泉街道","code":"210104003","level":4,"mergeName":"辽宁省,沈阳市,大东区,万泉街道","lng":123.48594347896935,"lat":41.80284730181982,"info":"直接查询获得"},{"name":"文官街道","code":"210104006","level":4,"mergeName":"辽宁省,沈阳市,大东区,文官街道","lng":123.49312498236887,"lat":41.87941489346989,"info":"直接查询获得"},{"name":"二台子街道","code":"210104007","level":4,"mergeName":"辽宁省,沈阳市,大东区,二台子街道","lng":123.49829598820651,"lat":41.84593090702129,"info":"直接查询获得"},{"name":"津桥街道","code":"210104008","level":4,"mergeName":"辽宁省,沈阳市,大东区,津桥街道","lng":123.47804655158711,"lat":41.812943497506915,"info":"直接查询获得"},{"name":"东站街道","code":"210104009","level":4,"mergeName":"辽宁省,沈阳市,大东区,东站街道","lng":123.51638301032771,"lat":41.84158986310447,"info":"直接查询获得"},{"name":"长安街道","code":"210104012","level":4,"mergeName":"辽宁省,沈阳市,大东区,长安街道","lng":123.49216667005082,"lat":41.80277309406954,"info":"直接查询获得"},{"name":"东塔街道","code":"210104015","level":4,"mergeName":"辽宁省,沈阳市,大东区,东塔街道","lng":123.51190882007417,"lat":41.814781321945624,"info":"直接查询获得"},{"name":"上园街道","code":"210104017","level":4,"mergeName":"辽宁省,沈阳市,大东区,上园街道","lng":123.46251263140327,"lat":41.8211783075801,"info":"直接查询获得"},{"name":"前进街道","code":"210104018","level":4,"mergeName":"辽宁省,沈阳市,大东区,前进街道","lng":123.51406196855103,"lat":41.86391186906696,"info":"直接查询获得"},{"name":"皇姑区","code":"210105","level":3,"mergeName":"辽宁省,沈阳市,皇姑区","lng":123.43162078884775,"lat":41.82604212027671,"info":"直接查询获得"},{"name":"三台子街道","code":"210105001","level":4,"mergeName":"辽宁省,沈阳市,皇姑区,三台子街道","lng":123.4295486675279,"lat":41.88713447536887,"info":"直接查询获得"},{"name":"黄河街道","code":"210105008","level":4,"mergeName":"辽宁省,沈阳市,皇姑区,黄河街道","lng":123.42965538622248,"lat":41.82711080966899,"info":"直接查询获得"},{"name":"华山街道","code":"210105013","level":4,"mergeName":"辽宁省,沈阳市,皇姑区,华山街道","lng":123.4009372777129,"lat":41.82403397036008,"info":"直接查询获得"},{"name":"明廉街道","code":"210105017","level":4,"mergeName":"辽宁省,沈阳市,皇姑区,明廉街道","lng":123.37155415363426,"lat":41.83690106263826,"info":"直接查询获得"},{"name":"新乐街道","code":"210105019","level":4,"mergeName":"辽宁省,沈阳市,皇姑区,新乐街道","lng":123.42117196864734,"lat":41.84064986011436,"info":"直接查询获得"},{"name":"舍利塔街道","code":"210105020","level":4,"mergeName":"辽宁省,沈阳市,皇姑区,舍利塔街道","lng":123.3930649773762,"lat":41.83819085988866,"info":"直接查询获得"},{"name":"北塔街道","code":"210105021","level":4,"mergeName":"辽宁省,沈阳市,皇姑区,北塔街道","lng":123.46316940591757,"lat":41.84389731777934,"info":"直接查询获得"},{"name":"陵东街道","code":"210105022","level":4,"mergeName":"辽宁省,沈阳市,皇姑区,陵东街道","lng":123.46914363881339,"lat":41.874997315980835,"info":"直接查询获得"},{"name":"鸭绿江街道","code":"210105023","level":4,"mergeName":"辽宁省,沈阳市,皇姑区,鸭绿江街道","lng":123.43162078884775,"lat":41.82604212027671,"info":"直接查询获得"},{"name":"四台子街道","code":"210105024","level":4,"mergeName":"辽宁省,沈阳市,皇姑区,四台子街道","lng":123.43162078884775,"lat":41.82604212027671,"info":"直接查询获得"},{"name":"铁西区","code":"210106","level":3,"mergeName":"辽宁省,沈阳市,铁西区","lng":123.3834359507842,"lat":41.809037832216724,"info":"直接查询获得"},{"name":"昆明湖街道","code":"210106001","level":4,"mergeName":"辽宁省,沈阳市,铁西区,昆明湖街道","lng":123.30704000784087,"lat":41.77164088759101,"info":"直接查询获得"},{"name":"工人村街道","code":"210106003","level":4,"mergeName":"辽宁省,沈阳市,铁西区,工人村街道","lng":123.33067667157216,"lat":41.797340972597226,"info":"直接查询获得"},{"name":"启工街道","code":"210106007","level":4,"mergeName":"辽宁省,沈阳市,铁西区,启工街道","lng":123.34623900605757,"lat":41.83129488660903,"info":"直接查询获得"},{"name":"笃工街道","code":"210106013","level":4,"mergeName":"辽宁省,沈阳市,铁西区,笃工街道","lng":123.38116970564361,"lat":41.81840555789526,"info":"直接查询获得"},{"name":"兴华街道","code":"210106015","level":4,"mergeName":"辽宁省,沈阳市,铁西区,兴华街道","lng":123.36829113432694,"lat":41.790858857247194,"info":"直接查询获得"},{"name":"霁虹街道","code":"210106019","level":4,"mergeName":"辽宁省,沈阳市,铁西区,霁虹街道","lng":123.39093527467314,"lat":41.818753118857856,"info":"直接查询获得"},{"name":"凌空街道","code":"210106020","level":4,"mergeName":"辽宁省,沈阳市,铁西区,凌空街道","lng":123.37655589984941,"lat":41.77737998829206,"info":"直接查询获得"},{"name":"重工街道","code":"210106021","level":4,"mergeName":"辽宁省,沈阳市,铁西区,重工街道","lng":123.33470818675177,"lat":41.8075010731836,"info":"直接查询获得"},{"name":"兴顺街道","code":"210106024","level":4,"mergeName":"辽宁省,沈阳市,铁西区,兴顺街道","lng":123.37032796661315,"lat":41.80266285775893,"info":"直接查询获得"},{"name":"大青中朝友谊街道","code":"210106026","level":4,"mergeName":"辽宁省,沈阳市,铁西区,大青中朝友谊街道","lng":123.23252615417832,"lat":41.76031535580189,"info":"直接查询获得"},{"name":"翟家街道","code":"210106027","level":4,"mergeName":"辽宁省,沈阳市,铁西区,翟家街道","lng":123.26380546195114,"lat":41.75215030579229,"info":"直接查询获得"},{"name":"大潘街道","code":"210106029","level":4,"mergeName":"辽宁省,沈阳市,铁西区,大潘街道","lng":123.15534639027072,"lat":41.702073449220805,"info":"直接查询获得"},{"name":"彰驿站街道","code":"210106030","level":4,"mergeName":"辽宁省,沈阳市,铁西区,彰驿站街道","lng":123.09618821141949,"lat":41.66542903554686,"info":"直接查询获得"},{"name":"高花街道","code":"210106031","level":4,"mergeName":"辽宁省,沈阳市,铁西区,高花街道","lng":123.09238730114568,"lat":41.694873800909704,"info":"直接查询获得"},{"name":"沈阳市经济技术开发区","code":"210106401","level":4,"mergeName":"辽宁省,沈阳市,铁西区,沈阳市经济技术开发区","lng":123.3834359507842,"lat":41.809037832216724,"info":"直接查询获得"},{"name":"苏家屯区","code":"210111","level":3,"mergeName":"辽宁省,沈阳市,苏家屯区","lng":123.35043463177249,"lat":41.671253644959464,"info":"直接查询获得"},{"name":"解放街道","code":"210111001","level":4,"mergeName":"辽宁省,沈阳市,苏家屯区,解放街道","lng":123.35039214192186,"lat":41.67136370463012,"info":"直接查询获得"},{"name":"民主街道","code":"210111003","level":4,"mergeName":"辽宁省,沈阳市,苏家屯区,民主街道","lng":123.36318133723013,"lat":41.659582937896296,"info":"直接查询获得"},{"name":"中兴街道","code":"210111005","level":4,"mergeName":"辽宁省,沈阳市,苏家屯区,中兴街道","lng":123.38476122090307,"lat":41.69178578594934,"info":"直接查询获得"},{"name":"林盛街道","code":"210111009","level":4,"mergeName":"辽宁省,沈阳市,苏家屯区,林盛街道","lng":123.35976578025738,"lat":41.60717342808645,"info":"直接查询获得"},{"name":"沙河街道","code":"210111010","level":4,"mergeName":"辽宁省,沈阳市,苏家屯区,沙河街道","lng":123.41087918411404,"lat":41.59164396831001,"info":"直接查询获得"},{"name":"十里河街道","code":"210111011","level":4,"mergeName":"辽宁省,沈阳市,苏家屯区,十里河街道","lng":123.38222296885407,"lat":41.52309790775799,"info":"直接查询获得"},{"name":"陈相街道","code":"210111012","level":4,"mergeName":"辽宁省,沈阳市,苏家屯区,陈相街道","lng":123.52047604955337,"lat":41.573448864334125,"info":"直接查询获得"},{"name":"永乐街道","code":"210111015","level":4,"mergeName":"辽宁省,沈阳市,苏家屯区,永乐街道","lng":123.14853256331645,"lat":41.59376613205511,"info":"直接查询获得"},{"name":"佟沟街道","code":"210111018","level":4,"mergeName":"辽宁省,沈阳市,苏家屯区,佟沟街道","lng":123.5547748810437,"lat":41.61147645698812,"info":"直接查询获得"},{"name":"八一红菱街道","code":"210111019","level":4,"mergeName":"辽宁省,沈阳市,苏家屯区,八一红菱街道","lng":123.35043463177249,"lat":41.671253644959464,"info":"直接查询获得"},{"name":"沈水街道","code":"210111020","level":4,"mergeName":"辽宁省,沈阳市,苏家屯区,沈水街道","lng":123.35043463177249,"lat":41.671253644959464,"info":"直接查询获得"},{"name":"白清姚千街道","code":"210111021","level":4,"mergeName":"辽宁省,沈阳市,苏家屯区,白清姚千街道","lng":123.6155296622948,"lat":41.562898627630275,"info":"直接查询获得"},{"name":"浑南区","code":"210112","level":3,"mergeName":"辽宁省,沈阳市,浑南区","lng":123.4559899308919,"lat":41.720915668888956,"info":"直接查询获得"},{"name":"东湖街道","code":"210112009","level":4,"mergeName":"辽宁省,沈阳市,浑南区,东湖街道","lng":123.53751007795577,"lat":41.75094197831161,"info":"直接查询获得"},{"name":"五三街道","code":"210112010","level":4,"mergeName":"辽宁省,沈阳市,浑南区,五三街道","lng":123.45597178512058,"lat":41.7209664831283,"info":"直接查询获得"},{"name":"浑河站东街道","code":"210112012","level":4,"mergeName":"辽宁省,沈阳市,浑南区,浑河站东街道","lng":123.4290091452386,"lat":41.73664568872577,"info":"直接查询获得"},{"name":"高坎街道","code":"210112014","level":4,"mergeName":"辽宁省,沈阳市,浑南区,高坎街道","lng":123.69357107725433,"lat":41.862187166786086,"info":"直接查询获得"},{"name":"满堂街道","code":"210112015","level":4,"mergeName":"辽宁省,沈阳市,浑南区,满堂街道","lng":123.6570339379248,"lat":41.88936576973354,"info":"直接查询获得"},{"name":"深井子街道","code":"210112016","level":4,"mergeName":"辽宁省,沈阳市,浑南区,深井子街道","lng":123.66464186694989,"lat":41.787106665972544,"info":"直接查询获得"},{"name":"祝家街道","code":"210112017","level":4,"mergeName":"辽宁省,沈阳市,浑南区,祝家街道","lng":123.64497724069207,"lat":41.690256469040214,"info":"直接查询获得"},{"name":"白塔街道","code":"210112018","level":4,"mergeName":"辽宁省,沈阳市,浑南区,白塔街道","lng":123.47112242619077,"lat":41.68365686333339,"info":"直接查询获得"},{"name":"桃仙街道","code":"210112019","level":4,"mergeName":"辽宁省,沈阳市,浑南区,桃仙街道","lng":123.46502320126969,"lat":41.661136977605196,"info":"直接查询获得"},{"name":"李相街道","code":"210112020","level":4,"mergeName":"辽宁省,沈阳市,浑南区,李相街道","lng":123.62340533217545,"lat":41.65036501004539,"info":"直接查询获得"},{"name":"汪家街道","code":"210112022","level":4,"mergeName":"辽宁省,沈阳市,浑南区,汪家街道","lng":123.63091956793588,"lat":41.80753162522424,"info":"直接查询获得"},{"name":"王滨街道","code":"210112023","level":4,"mergeName":"辽宁省,沈阳市,浑南区,王滨街道","lng":123.76361635956431,"lat":41.718963294579986,"info":"直接查询获得"},{"name":"沈北新区","code":"210113","level":3,"mergeName":"辽宁省,沈阳市,沈北新区","lng":123.5336046049206,"lat":42.05891411576299,"info":"直接查询获得"},{"name":"新城子街道","code":"210113001","level":4,"mergeName":"辽宁省,沈阳市,沈北新区,新城子街道","lng":123.52241836572705,"lat":42.060609428760046,"info":"直接查询获得"},{"name":"清水台街道","code":"210113002","level":4,"mergeName":"辽宁省,沈阳市,沈北新区,清水台街道","lng":123.61891865547533,"lat":42.032220383136156,"info":"直接查询获得"},{"name":"辉山街道","code":"210113003","level":4,"mergeName":"辽宁省,沈阳市,沈北新区,辉山街道","lng":123.58296254014965,"lat":41.936068782054505,"info":"直接查询获得"},{"name":"道义街道","code":"210113004","level":4,"mergeName":"辽宁省,沈阳市,沈北新区,道义街道","lng":123.40931514439059,"lat":41.9271720499284,"info":"直接查询获得"},{"name":"虎石台街道","code":"210113006","level":4,"mergeName":"辽宁省,沈阳市,沈北新区,虎石台街道","lng":123.52386912912566,"lat":41.94954052966924,"info":"直接查询获得"},{"name":"财落街道","code":"210113007","level":4,"mergeName":"辽宁省,沈阳市,沈北新区,财落街道","lng":123.43913870766076,"lat":42.02449772303836,"info":"直接查询获得"},{"name":"马刚街道","code":"210113010","level":4,"mergeName":"辽宁省,沈阳市,沈北新区,马刚街道","lng":123.66125929755206,"lat":42.030739768031275,"info":"直接查询获得"},{"name":"黄家街道","code":"210113012","level":4,"mergeName":"辽宁省,沈阳市,沈北新区,黄家街道","lng":123.51123976213033,"lat":42.11963775964521,"info":"直接查询获得"},{"name":"兴隆台街道","code":"210113014","level":4,"mergeName":"辽宁省,沈阳市,沈北新区,兴隆台街道","lng":123.36370125669659,"lat":42.07012513654179,"info":"直接查询获得"},{"name":"正良街道","code":"210113016","level":4,"mergeName":"辽宁省,沈阳市,沈北新区,正良街道","lng":123.5336046049206,"lat":42.05891411576299,"info":"直接查询获得"},{"name":"青年农场","code":"210113401","level":4,"mergeName":"辽宁省,沈阳市,沈北新区,青年农场","lng":123.5336046049206,"lat":42.05891411576299,"info":"直接查询获得"},{"name":"前进农场","code":"210113402","level":4,"mergeName":"辽宁省,沈阳市,沈北新区,前进农场","lng":123.5336046049206,"lat":42.05891411576299,"info":"直接查询获得"},{"name":"育新农场","code":"210113403","level":4,"mergeName":"辽宁省,沈阳市,沈北新区,育新农场","lng":123.5336046049206,"lat":42.05891411576299,"info":"直接查询获得"},{"name":"沈北新区马刚林场","code":"210113404","level":4,"mergeName":"辽宁省,沈阳市,沈北新区,沈北新区马刚林场","lng":123.67496187014018,"lat":42.02617828798645,"info":"直接查询获得"},{"name":"沈北新区示范农场","code":"210113405","level":4,"mergeName":"辽宁省,沈阳市,沈北新区,沈北新区示范农场","lng":123.5336046049206,"lat":42.05891411576299,"info":"直接查询获得"},{"name":"沈北新区种畜场","code":"210113406","level":4,"mergeName":"辽宁省,沈阳市,沈北新区,沈北新区种畜场","lng":123.55331890747311,"lat":41.955437741970556,"info":"直接查询获得"},{"name":"于洪区","code":"210114","level":3,"mergeName":"辽宁省,沈阳市,于洪区","lng":123.3146330249945,"lat":41.79966825561503,"info":"直接查询获得"},{"name":"迎宾路街道","code":"210114001","level":4,"mergeName":"辽宁省,沈阳市,于洪区,迎宾路街道","lng":123.3045620159221,"lat":41.81709377991072,"info":"直接查询获得"},{"name":"陵西街道","code":"210114003","level":4,"mergeName":"辽宁省,沈阳市,于洪区,陵西街道","lng":123.36814654217375,"lat":41.86478801531704,"info":"直接查询获得"},{"name":"北陵街道","code":"210114007","level":4,"mergeName":"辽宁省,沈阳市,于洪区,北陵街道","lng":123.40896060386684,"lat":41.878508520520214,"info":"直接查询获得"},{"name":"沙岭街道","code":"210114009","level":4,"mergeName":"辽宁省,沈阳市,于洪区,沙岭街道","lng":123.18779345478279,"lat":41.790817256242875,"info":"直接查询获得"},{"name":"南阳湖街道","code":"210114010","level":4,"mergeName":"辽宁省,沈阳市,于洪区,南阳湖街道","lng":123.31264785964801,"lat":41.76865249203738,"info":"直接查询获得"},{"name":"城东湖街道","code":"210114011","level":4,"mergeName":"辽宁省,沈阳市,于洪区,城东湖街道","lng":123.33758131721352,"lat":41.76168238663554,"info":"直接查询获得"},{"name":"平罗街道","code":"210114012","level":4,"mergeName":"辽宁省,沈阳市,于洪区,平罗街道","lng":123.28089868329683,"lat":41.98746126243203,"info":"直接查询获得"},{"name":"马三家街道","code":"210114013","level":4,"mergeName":"辽宁省,沈阳市,于洪区,马三家街道","lng":123.23986912350172,"lat":41.894181848954105,"info":"直接查询获得"},{"name":"造化街道","code":"210114014","level":4,"mergeName":"辽宁省,沈阳市,于洪区,造化街道","lng":123.36632341048022,"lat":41.88847668486401,"info":"直接查询获得"},{"name":"光辉街道","code":"210114016","level":4,"mergeName":"辽宁省,沈阳市,于洪区,光辉街道","lng":123.1605410215433,"lat":41.96364736401764,"info":"直接查询获得"},{"name":"马三家强制隔离戒毒所","code":"210114401","level":4,"mergeName":"辽宁省,沈阳市,于洪区,马三家强制隔离戒毒所","lng":123.24901701766258,"lat":41.90424946086796,"info":"直接查询获得"},{"name":"光辉农场","code":"210114402","level":4,"mergeName":"辽宁省,沈阳市,于洪区,光辉农场","lng":123.3146330249945,"lat":41.79966825561503,"info":"直接查询获得"},{"name":"监狱城","code":"210114404","level":4,"mergeName":"辽宁省,沈阳市,于洪区,监狱城","lng":123.3146330249945,"lat":41.79966825561503,"info":"直接查询获得"},{"name":"辽中区","code":"210115","level":3,"mergeName":"辽宁省,沈阳市,辽中区","lng":122.77237835983205,"lat":41.523149081842455,"info":"直接查询获得"},{"name":"蒲西街道","code":"210115001","level":4,"mergeName":"辽宁省,沈阳市,辽中区,蒲西街道","lng":122.73864096928547,"lat":41.508976893496424,"info":"直接查询获得"},{"name":"蒲东街道","code":"210115002","level":4,"mergeName":"辽宁省,沈阳市,辽中区,蒲东街道","lng":122.78235503065643,"lat":41.51438489166641,"info":"直接查询获得"},{"name":"茨榆坨街道","code":"210115003","level":4,"mergeName":"辽宁省,沈阳市,辽中区,茨榆坨街道","lng":122.89345233578909,"lat":41.513699615650815,"info":"直接查询获得"},{"name":"城郊街道","code":"210115004","level":4,"mergeName":"辽宁省,沈阳市,辽中区,城郊街道","lng":122.71547555662471,"lat":41.52155199910798,"info":"直接查询获得"},{"name":"于家房镇","code":"210115101","level":4,"mergeName":"辽宁省,沈阳市,辽中区,于家房镇","lng":122.63340643889417,"lat":41.26186728882824,"info":"直接查询获得"},{"name":"朱家房镇","code":"210115102","level":4,"mergeName":"辽宁省,沈阳市,辽中区,朱家房镇","lng":122.70195399259687,"lat":41.38445689328422,"info":"直接查询获得"},{"name":"冷子堡镇","code":"210115103","level":4,"mergeName":"辽宁省,沈阳市,辽中区,冷子堡镇","lng":122.80373263569123,"lat":41.705358079981764,"info":"直接查询获得"},{"name":"刘二堡镇","code":"210115104","level":4,"mergeName":"辽宁省,沈阳市,辽中区,刘二堡镇","lng":122.8924819861772,"lat":41.66760991620543,"info":"直接查询获得"},{"name":"新民屯镇","code":"210115106","level":4,"mergeName":"辽宁省,沈阳市,辽中区,新民屯镇","lng":123.02505166667767,"lat":41.645091926805065,"info":"直接查询获得"},{"name":"满都户镇","code":"210115107","level":4,"mergeName":"辽宁省,沈阳市,辽中区,满都户镇","lng":122.64676722240523,"lat":41.61025164388148,"info":"直接查询获得"},{"name":"杨士岗镇","code":"210115108","level":4,"mergeName":"辽宁省,沈阳市,辽中区,杨士岗镇","lng":122.99533257723662,"lat":41.698792083076874,"info":"直接查询获得"},{"name":"肖寨门镇","code":"210115109","level":4,"mergeName":"辽宁省,沈阳市,辽中区,肖寨门镇","lng":122.8768618906475,"lat":41.474359587735094,"info":"直接查询获得"},{"name":"长滩镇","code":"210115110","level":4,"mergeName":"辽宁省,沈阳市,辽中区,长滩镇","lng":123.05303469268677,"lat":41.56388900135891,"info":"直接查询获得"},{"name":"四方台镇","code":"210115111","level":4,"mergeName":"辽宁省,沈阳市,辽中区,四方台镇","lng":122.97266204108132,"lat":41.587209910961576,"info":"直接查询获得"},{"name":"六间房镇","code":"210115113","level":4,"mergeName":"辽宁省,沈阳市,辽中区,六间房镇","lng":122.70670710671125,"lat":41.46180308854576,"info":"直接查询获得"},{"name":"养士堡镇","code":"210115114","level":4,"mergeName":"辽宁省,沈阳市,辽中区,养士堡镇","lng":122.7684427935623,"lat":41.63181159046653,"info":"直接查询获得"},{"name":"潘家堡镇","code":"210115115","level":4,"mergeName":"辽宁省,沈阳市,辽中区,潘家堡镇","lng":122.854403264762,"lat":41.61504558799172,"info":"直接查询获得"},{"name":"老大房镇","code":"210115117","level":4,"mergeName":"辽宁省,沈阳市,辽中区,老大房镇","lng":122.66608851629714,"lat":41.6753751626617,"info":"直接查询获得"},{"name":"大黑岗子镇","code":"210115118","level":4,"mergeName":"辽宁省,沈阳市,辽中区,大黑岗子镇","lng":122.6482686502346,"lat":41.72961992766994,"info":"直接查询获得"},{"name":"牛心坨镇","code":"210115119","level":4,"mergeName":"辽宁省,沈阳市,辽中区,牛心坨镇","lng":122.56517053971189,"lat":41.6016155981808,"info":"直接查询获得"},{"name":"四方台农场","code":"210115401","level":4,"mergeName":"辽宁省,沈阳市,辽中区,四方台农场","lng":122.77237835983205,"lat":41.523149081842455,"info":"直接查询获得"},{"name":"康平县","code":"210123","level":3,"mergeName":"辽宁省,沈阳市,康平县","lng":123.33751124938374,"lat":42.7499254957194,"info":"直接查询获得"},{"name":"北三家子街道","code":"210123001","level":4,"mergeName":"辽宁省,沈阳市,康平县,北三家子街道","lng":123.47523280271278,"lat":42.97294630440325,"info":"直接查询获得"},{"name":"胜利街道","code":"210123002","level":4,"mergeName":"辽宁省,沈阳市,康平县,胜利街道","lng":123.37724132581793,"lat":42.74888312263907,"info":"直接查询获得"},{"name":"东关街道","code":"210123003","level":4,"mergeName":"辽宁省,沈阳市,康平县,东关街道","lng":123.34990400270775,"lat":42.734210960790854,"info":"直接查询获得"},{"name":"小城子镇","code":"210123101","level":4,"mergeName":"辽宁省,沈阳市,康平县,小城子镇","lng":123.27465376040846,"lat":42.879245659507674,"info":"直接查询获得"},{"name":"张强镇","code":"210123102","level":4,"mergeName":"辽宁省,沈阳市,康平县,张强镇","lng":123.02110136909585,"lat":42.70566704117982,"info":"直接查询获得"},{"name":"方家屯镇","code":"210123103","level":4,"mergeName":"辽宁省,沈阳市,康平县,方家屯镇","lng":123.2404567051358,"lat":42.64055926057728,"info":"直接查询获得"},{"name":"郝官屯镇","code":"210123105","level":4,"mergeName":"辽宁省,沈阳市,康平县,郝官屯镇","lng":123.50649320564615,"lat":42.68233806452309,"info":"直接查询获得"},{"name":"二牛所口镇","code":"210123106","level":4,"mergeName":"辽宁省,沈阳市,康平县,二牛所口镇","lng":123.16254837503588,"lat":42.77032759738,"info":"直接查询获得"},{"name":"北四家子乡","code":"210123203","level":4,"mergeName":"辽宁省,沈阳市,康平县,北四家子乡","lng":123.49905838009283,"lat":42.856875588174255,"info":"直接查询获得"},{"name":"两家子乡","code":"210123204","level":4,"mergeName":"辽宁省,沈阳市,康平县,两家子乡","lng":123.49984439741407,"lat":42.78504183363834,"info":"直接查询获得"},{"name":"海洲窝堡乡","code":"210123206","level":4,"mergeName":"辽宁省,沈阳市,康平县,海洲窝堡乡","lng":123.38579633834222,"lat":42.947619899541145,"info":"直接查询获得"},{"name":"沙金台蒙古族满族乡","code":"210123208","level":4,"mergeName":"辽宁省,沈阳市,康平县,沙金台蒙古族满族乡","lng":122.8647521933897,"lat":42.69841603368217,"info":"直接查询获得"},{"name":"柳树屯蒙古族满族乡","code":"210123209","level":4,"mergeName":"辽宁省,沈阳市,康平县,柳树屯蒙古族满族乡","lng":122.98710095469595,"lat":42.6382116554938,"info":"直接查询获得"},{"name":"西关屯蒙古族满族乡","code":"210123210","level":4,"mergeName":"辽宁省,沈阳市,康平县,西关屯蒙古族满族乡","lng":123.1900506270377,"lat":42.588141106622516,"info":"直接查询获得"},{"name":"东升满族蒙古族乡","code":"210123211","level":4,"mergeName":"辽宁省,沈阳市,康平县,东升满族蒙古族乡","lng":123.14275960295657,"lat":42.66281333344342,"info":"直接查询获得"},{"name":"法库县","code":"210124","level":3,"mergeName":"辽宁省,沈阳市,法库县","lng":123.41462107571583,"lat":42.50960654990291,"info":"直接查询获得"},{"name":"吉祥街道","code":"210124001","level":4,"mergeName":"辽宁省,沈阳市,法库县,吉祥街道","lng":123.43506300573144,"lat":42.50849118936048,"info":"直接查询获得"},{"name":"龙山街道","code":"210124002","level":4,"mergeName":"辽宁省,沈阳市,法库县,龙山街道","lng":123.29410099493626,"lat":42.45326087431009,"info":"直接查询获得"},{"name":"大孤家子镇","code":"210124101","level":4,"mergeName":"辽宁省,沈阳市,法库县,大孤家子镇","lng":123.38857740237056,"lat":42.32964773107856,"info":"直接查询获得"},{"name":"三面船镇","code":"210124102","level":4,"mergeName":"辽宁省,沈阳市,法库县,三面船镇","lng":123.30943902253583,"lat":42.20531750826982,"info":"直接查询获得"},{"name":"秀水河子镇","code":"210124103","level":4,"mergeName":"辽宁省,沈阳市,法库县,秀水河子镇","lng":123.03687166130682,"lat":42.36518247138041,"info":"直接查询获得"},{"name":"叶茂台镇","code":"210124104","level":4,"mergeName":"辽宁省,沈阳市,法库县,叶茂台镇","lng":122.89126999238314,"lat":42.33467690536964,"info":"直接查询获得"},{"name":"登仕堡子镇","code":"210124105","level":4,"mergeName":"辽宁省,沈阳市,法库县,登仕堡子镇","lng":123.1349382365423,"lat":42.293675974521264,"info":"直接查询获得"},{"name":"柏家沟镇","code":"210124106","level":4,"mergeName":"辽宁省,沈阳市,法库县,柏家沟镇","lng":123.62251035039587,"lat":42.56351128484048,"info":"直接查询获得"},{"name":"丁家房镇","code":"210124107","level":4,"mergeName":"辽宁省,沈阳市,法库县,丁家房镇","lng":123.19102861224641,"lat":42.34812506155468,"info":"直接查询获得"},{"name":"孟家镇","code":"210124108","level":4,"mergeName":"辽宁省,沈阳市,法库县,孟家镇","lng":123.43677203196417,"lat":42.55349791332117,"info":"直接查询获得"},{"name":"十间房镇","code":"210124109","level":4,"mergeName":"辽宁省,沈阳市,法库县,十间房镇","lng":123.40972656831417,"lat":42.429124566012426,"info":"直接查询获得"},{"name":"冯贝堡镇","code":"210124110","level":4,"mergeName":"辽宁省,沈阳市,法库县,冯贝堡镇","lng":123.45959339361461,"lat":42.32510585549764,"info":"直接查询获得"},{"name":"依牛堡子镇","code":"210124111","level":4,"mergeName":"辽宁省,沈阳市,法库县,依牛堡子镇","lng":123.37593698621745,"lat":42.22516785625232,"info":"直接查询获得"},{"name":"包家屯镇","code":"210124113","level":4,"mergeName":"辽宁省,沈阳市,法库县,包家屯镇","lng":122.95499389881941,"lat":42.48421548467919,"info":"直接查询获得"},{"name":"慈恩寺乡","code":"210124201","level":4,"mergeName":"辽宁省,沈阳市,法库县,慈恩寺乡","lng":123.35267698198649,"lat":42.56487089318096,"info":"直接查询获得"},{"name":"和平乡","code":"210124203","level":4,"mergeName":"辽宁省,沈阳市,法库县,和平乡","lng":123.61405828368304,"lat":42.6445254790761,"info":"直接查询获得"},{"name":"四家子蒙古族乡","code":"210124208","level":4,"mergeName":"辽宁省,沈阳市,法库县,四家子蒙古族乡","lng":123.41462107571583,"lat":42.50960654990291,"info":"直接查询获得"},{"name":"双台子乡","code":"210124209","level":4,"mergeName":"辽宁省,沈阳市,法库县,双台子乡","lng":123.19586284334837,"lat":42.414756228037696,"info":"直接查询获得"},{"name":"卧牛石乡","code":"210124210","level":4,"mergeName":"辽宁省,沈阳市,法库县,卧牛石乡","lng":123.06706496712489,"lat":42.52308686219529,"info":"直接查询获得"},{"name":"新民市","code":"210181","level":3,"mergeName":"辽宁省,沈阳市,新民市","lng":122.87539513741082,"lat":42.00710932066467,"info":"直接查询获得"},{"name":"东城街道","code":"210181001","level":4,"mergeName":"辽宁省,沈阳市,新民市,东城街道","lng":122.92605089503387,"lat":42.05118734755159,"info":"直接查询获得"},{"name":"辽滨街道","code":"210181002","level":4,"mergeName":"辽宁省,沈阳市,新民市,辽滨街道","lng":122.84253566083913,"lat":41.99150538355748,"info":"直接查询获得"},{"name":"西城街道","code":"210181003","level":4,"mergeName":"辽宁省,沈阳市,新民市,西城街道","lng":122.82907904429966,"lat":42.000607897406326,"info":"直接查询获得"},{"name":"新柳街道","code":"210181004","level":4,"mergeName":"辽宁省,沈阳市,新民市,新柳街道","lng":122.83233082041524,"lat":42.00491333093205,"info":"直接查询获得"},{"name":"大红旗镇","code":"210181101","level":4,"mergeName":"辽宁省,沈阳市,新民市,大红旗镇","lng":122.61757462892527,"lat":41.91286772507441,"info":"直接查询获得"},{"name":"梁山镇","code":"210181102","level":4,"mergeName":"辽宁省,沈阳市,新民市,梁山镇","lng":122.65023674777642,"lat":42.06461295526653,"info":"直接查询获得"},{"name":"公主屯镇","code":"210181103","level":4,"mergeName":"辽宁省,沈阳市,新民市,公主屯镇","lng":123.00954224328511,"lat":42.16513968480285,"info":"直接查询获得"},{"name":"兴隆镇","code":"210181104","level":4,"mergeName":"辽宁省,沈阳市,新民市,兴隆镇","lng":123.0503746304106,"lat":41.97876128276611,"info":"直接查询获得"},{"name":"前当堡镇","code":"210181105","level":4,"mergeName":"辽宁省,沈阳市,新民市,前当堡镇","lng":122.8865122070801,"lat":41.78901446255534,"info":"直接查询获得"},{"name":"大民屯镇","code":"210181106","level":4,"mergeName":"辽宁省,沈阳市,新民市,大民屯镇","lng":122.9565735690587,"lat":41.86824218756189,"info":"直接查询获得"},{"name":"大柳屯镇","code":"210181107","level":4,"mergeName":"辽宁省,沈阳市,新民市,大柳屯镇","lng":122.80458845135058,"lat":42.19005885661564,"info":"直接查询获得"},{"name":"兴隆堡镇","code":"210181108","level":4,"mergeName":"辽宁省,沈阳市,新民市,兴隆堡镇","lng":123.08545606566123,"lat":41.91744604290738,"info":"直接查询获得"},{"name":"胡台镇","code":"210181109","level":4,"mergeName":"辽宁省,沈阳市,新民市,胡台镇","lng":123.14156000577856,"lat":41.80217445483042,"info":"直接查询获得"},{"name":"法哈牛镇","code":"210181110","level":4,"mergeName":"辽宁省,沈阳市,新民市,法哈牛镇","lng":123.08713311221781,"lat":41.7923789862464,"info":"直接查询获得"},{"name":"柳河沟镇","code":"210181111","level":4,"mergeName":"辽宁省,沈阳市,新民市,柳河沟镇","lng":122.73202755429047,"lat":41.93856517254883,"info":"直接查询获得"},{"name":"高台子镇","code":"210181112","level":4,"mergeName":"辽宁省,沈阳市,新民市,高台子镇","lng":122.87298785830518,"lat":42.07225527207123,"info":"直接查询获得"},{"name":"张家屯镇","code":"210181113","level":4,"mergeName":"辽宁省,沈阳市,新民市,张家屯镇","lng":123.00755869488852,"lat":41.8336257641807,"info":"直接查询获得"},{"name":"罗家房镇","code":"210181114","level":4,"mergeName":"辽宁省,沈阳市,新民市,罗家房镇","lng":123.22781179745515,"lat":42.063559247680296,"info":"直接查询获得"},{"name":"三道岗子镇","code":"210181115","level":4,"mergeName":"辽宁省,沈阳市,新民市,三道岗子镇","lng":123.13157695698506,"lat":42.085967872138156,"info":"直接查询获得"},{"name":"东蛇山子镇","code":"210181116","level":4,"mergeName":"辽宁省,沈阳市,新民市,东蛇山子镇","lng":123.14653140813188,"lat":42.1829931529404,"info":"直接查询获得"},{"name":"陶家屯镇","code":"210181117","level":4,"mergeName":"辽宁省,沈阳市,新民市,陶家屯镇","lng":123.19459632240985,"lat":42.19112734826608,"info":"直接查询获得"},{"name":"周坨子镇","code":"210181118","level":4,"mergeName":"辽宁省,沈阳市,新民市,周坨子镇","lng":122.59178032518956,"lat":42.15110174185753,"info":"直接查询获得"},{"name":"金五台子镇","code":"210181119","level":4,"mergeName":"辽宁省,沈阳市,新民市,金五台子镇","lng":122.69496167233774,"lat":41.79377469537213,"info":"直接查询获得"},{"name":"新农村镇","code":"210181120","level":4,"mergeName":"辽宁省,沈阳市,新民市,新农村镇","lng":122.95753233052952,"lat":42.243438052051786,"info":"直接查询获得"},{"name":"红旗乡","code":"210181205","level":4,"mergeName":"辽宁省,沈阳市,新民市,红旗乡","lng":122.5063295525362,"lat":41.89747389004094,"info":"直接查询获得"},{"name":"卢家屯乡","code":"210181206","level":4,"mergeName":"辽宁省,沈阳市,新民市,卢家屯乡","lng":122.62622827539454,"lat":41.975295154921895,"info":"直接查询获得"},{"name":"姚堡乡","code":"210181207","level":4,"mergeName":"辽宁省,沈阳市,新民市,姚堡乡","lng":122.49416874169488,"lat":42.06263592535567,"info":"直接查询获得"},{"name":"于家窝堡乡","code":"210181209","level":4,"mergeName":"辽宁省,沈阳市,新民市,于家窝堡乡","lng":122.70659149479212,"lat":42.22794658496926,"info":"直接查询获得"},{"name":"大连市","code":"2102","level":2,"mergeName":"辽宁省,大连市","lng":121.62163148459285,"lat":38.9189536667856,"info":"直接查询获得"},{"name":"中山区","code":"210202","level":3,"mergeName":"辽宁省,大连市,中山区","lng":121.65154739366945,"lat":38.92451111549568,"info":"直接查询获得"},{"name":"海军广场街道","code":"210202001","level":4,"mergeName":"辽宁省,大连市,中山区,海军广场街道","lng":121.67372314314986,"lat":38.92335835570933,"info":"直接查询获得"},{"name":"人民路街道","code":"210202005","level":4,"mergeName":"辽宁省,大连市,中山区,人民路街道","lng":121.66316374154118,"lat":38.93066076667631,"info":"直接查询获得"},{"name":"青泥洼桥街道","code":"210202008","level":4,"mergeName":"辽宁省,大连市,中山区,青泥洼桥街道","lng":121.64329059432023,"lat":38.92648148708215,"info":"直接查询获得"},{"name":"葵英街道","code":"210202010","level":4,"mergeName":"辽宁省,大连市,中山区,葵英街道","lng":121.65501602073512,"lat":38.906556670536126,"info":"直接查询获得"},{"name":"桃源街道","code":"210202011","level":4,"mergeName":"辽宁省,大连市,中山区,桃源街道","lng":121.67706106676384,"lat":38.88903484203402,"info":"直接查询获得"},{"name":"老虎滩街道","code":"210202012","level":4,"mergeName":"辽宁省,大连市,中山区,老虎滩街道","lng":121.70031905968877,"lat":38.898541048773964,"info":"直接查询获得"},{"name":"西岗区","code":"210203","level":3,"mergeName":"辽宁省,大连市,西岗区","lng":121.61862512554262,"lat":38.92047268927287,"info":"直接查询获得"},{"name":"香炉礁街道","code":"210203001","level":4,"mergeName":"辽宁省,大连市,西岗区,香炉礁街道","lng":121.61104514459853,"lat":38.94246551025636,"info":"直接查询获得"},{"name":"日新街道","code":"210203004","level":4,"mergeName":"辽宁省,大连市,西岗区,日新街道","lng":121.62827499282245,"lat":38.92100112877153,"info":"直接查询获得"},{"name":"八一路街道","code":"210203010","level":4,"mergeName":"辽宁省,大连市,西岗区,八一路街道","lng":121.65429270513849,"lat":38.893054712127736,"info":"直接查询获得"},{"name":"人民广场街道","code":"210203011","level":4,"mergeName":"辽宁省,大连市,西岗区,人民广场街道","lng":121.62131402342563,"lat":38.91965812675174,"info":"直接查询获得"},{"name":"白云街道","code":"210203013","level":4,"mergeName":"辽宁省,大连市,西岗区,白云街道","lng":121.6119488291619,"lat":38.901454648464316,"info":"直接查询获得"},{"name":"沙河口区","code":"210204","level":3,"mergeName":"辽宁省,大连市,沙河口区","lng":121.59450670056631,"lat":38.913544290955585,"info":"直接查询获得"},{"name":"春柳街道","code":"210204006","level":4,"mergeName":"辽宁省,大连市,沙河口区,春柳街道","lng":121.59091743196896,"lat":38.94412785673849,"info":"直接查询获得"},{"name":"马栏街道","code":"210204008","level":4,"mergeName":"辽宁省,大连市,沙河口区,马栏街道","lng":121.56538121050795,"lat":38.92334593468471,"info":"直接查询获得"},{"name":"南沙河口街道","code":"210204009","level":4,"mergeName":"辽宁省,大连市,沙河口区,南沙河口街道","lng":121.58104334673551,"lat":38.90892912105627,"info":"直接查询获得"},{"name":"黑石礁街道","code":"210204010","level":4,"mergeName":"辽宁省,大连市,沙河口区,黑石礁街道","lng":121.56224495648095,"lat":38.88768610481869,"info":"直接查询获得"},{"name":"李家街道","code":"210204011","level":4,"mergeName":"辽宁省,大连市,沙河口区,李家街道","lng":121.56404201665367,"lat":38.94934661669366,"info":"直接查询获得"},{"name":"星海湾街道","code":"210204017","level":4,"mergeName":"辽宁省,大连市,沙河口区,星海湾街道","lng":121.60312836735942,"lat":38.897550106657484,"info":"直接查询获得"},{"name":"西安路街道","code":"210204018","level":4,"mergeName":"辽宁省,大连市,沙河口区,西安路街道","lng":121.59450670056631,"lat":38.913544290955585,"info":"直接查询获得"},{"name":"甘井子区","code":"210211","level":3,"mergeName":"辽宁省,大连市,甘井子区","lng":121.53151895549547,"lat":38.95800216293212,"info":"直接查询获得"},{"name":"周水子街道","code":"210211001","level":4,"mergeName":"辽宁省,大连市,甘井子区,周水子街道","lng":121.58801356867909,"lat":38.96392922412614,"info":"直接查询获得"},{"name":"椒金山街道","code":"210211002","level":4,"mergeName":"辽宁省,大连市,甘井子区,椒金山街道","lng":121.61409146746429,"lat":38.97492528954629,"info":"直接查询获得"},{"name":"甘井子街道","code":"210211004","level":4,"mergeName":"辽宁省,大连市,甘井子区,甘井子街道","lng":121.63996729691658,"lat":38.98439476261229,"info":"直接查询获得"},{"name":"南关岭街道","code":"210211006","level":4,"mergeName":"辽宁省,大连市,甘井子区,南关岭街道","lng":121.60561820074143,"lat":39.02283835713338,"info":"直接查询获得"},{"name":"泡崖街道","code":"210211007","level":4,"mergeName":"辽宁省,大连市,甘井子区,泡崖街道","lng":121.56050619633587,"lat":38.98638441034616,"info":"直接查询获得"},{"name":"中华路街道","code":"210211008","level":4,"mergeName":"辽宁省,大连市,甘井子区,中华路街道","lng":121.5901035662786,"lat":38.99751653235699,"info":"直接查询获得"},{"name":"机场街道","code":"210211010","level":4,"mergeName":"辽宁省,大连市,甘井子区,机场街道","lng":121.53194987264861,"lat":38.95849202396808,"info":"直接查询获得"},{"name":"辛寨子街道","code":"210211014","level":4,"mergeName":"辽宁省,大连市,甘井子区,辛寨子街道","lng":121.49688298994727,"lat":38.98313413550071,"info":"直接查询获得"},{"name":"红旗街道","code":"210211015","level":4,"mergeName":"辽宁省,大连市,甘井子区,红旗街道","lng":121.46920830820278,"lat":38.921535001834094,"info":"直接查询获得"},{"name":"凌水街道","code":"210211016","level":4,"mergeName":"辽宁省,大连市,甘井子区,凌水街道","lng":121.5306299923628,"lat":38.88348912721598,"info":"直接查询获得"},{"name":"大连湾街道","code":"210211017","level":4,"mergeName":"辽宁省,大连市,甘井子区,大连湾街道","lng":121.7141140131172,"lat":39.04015163965052,"info":"直接查询获得"},{"name":"泉水街道","code":"210211018","level":4,"mergeName":"辽宁省,大连市,甘井子区,泉水街道","lng":121.60749350332408,"lat":39.01132897726627,"info":"直接查询获得"},{"name":"革镇堡街道","code":"210211019","level":4,"mergeName":"辽宁省,大连市,甘井子区,革镇堡街道","lng":121.53086021728534,"lat":39.02864767805198,"info":"直接查询获得"},{"name":"营城子街道","code":"210211020","level":4,"mergeName":"辽宁省,大连市,甘井子区,营城子街道","lng":121.39958015405637,"lat":38.9930633485677,"info":"直接查询获得"},{"name":"七贤岭街道","code":"210211021","level":4,"mergeName":"辽宁省,大连市,甘井子区,七贤岭街道","lng":121.53151895549547,"lat":38.95800216293212,"info":"直接查询获得"},{"name":"大连华侨果树农场","code":"210211400","level":4,"mergeName":"辽宁省,大连市,甘井子区,大连华侨果树农场","lng":121.40944938754174,"lat":38.99532590380611,"info":"直接查询获得"},{"name":"旅顺口区","code":"210212","level":3,"mergeName":"辽宁省,大连市,旅顺口区","lng":121.26859688018821,"lat":38.85683222285901,"info":"直接查询获得"},{"name":"登峰街道","code":"210212001","level":4,"mergeName":"辽宁省,大连市,旅顺口区,登峰街道","lng":121.28347589702813,"lat":38.829391148223856,"info":"直接查询获得"},{"name":"得胜街道","code":"210212003","level":4,"mergeName":"辽宁省,大连市,旅顺口区,得胜街道","lng":121.28332181427722,"lat":38.80803617078636,"info":"直接查询获得"},{"name":"水师营街道","code":"210212005","level":4,"mergeName":"辽宁省,大连市,旅顺口区,水师营街道","lng":121.26847695640264,"lat":38.857350112047534,"info":"直接查询获得"},{"name":"龙王塘街道","code":"210212006","level":4,"mergeName":"辽宁省,大连市,旅顺口区,龙王塘街道","lng":121.40462512763095,"lat":38.84771750947503,"info":"直接查询获得"},{"name":"铁山街道","code":"210212007","level":4,"mergeName":"辽宁省,大连市,旅顺口区,铁山街道","lng":121.18809245794411,"lat":38.771544397438845,"info":"直接查询获得"},{"name":"双岛湾街道","code":"210212009","level":4,"mergeName":"辽宁省,大连市,旅顺口区,双岛湾街道","lng":121.18745761466054,"lat":38.89826285384382,"info":"直接查询获得"},{"name":"三涧堡街道","code":"210212010","level":4,"mergeName":"辽宁省,大连市,旅顺口区,三涧堡街道","lng":121.1995162881654,"lat":38.92816625035954,"info":"直接查询获得"},{"name":"长城街道","code":"210212011","level":4,"mergeName":"辽宁省,大连市,旅顺口区,长城街道","lng":121.32768903358448,"lat":38.94170672690807,"info":"直接查询获得"},{"name":"龙头街道","code":"210212012","level":4,"mergeName":"辽宁省,大连市,旅顺口区,龙头街道","lng":121.31697972095567,"lat":38.851029327801825,"info":"直接查询获得"},{"name":"旅顺经济开发区","code":"210212400","level":4,"mergeName":"辽宁省,大连市,旅顺口区,旅顺经济开发区","lng":121.26859688018821,"lat":38.85683222285901,"info":"直接查询获得"},{"name":"大连奶牛场","code":"210212401","level":4,"mergeName":"辽宁省,大连市,旅顺口区,大连奶牛场","lng":121.31826904268465,"lat":38.80898627616736,"info":"直接查询获得"},{"name":"龙头分园","code":"210212402","level":4,"mergeName":"辽宁省,大连市,旅顺口区,龙头分园","lng":121.290198163295,"lat":38.85213388879825,"info":"直接查询获得"},{"name":"金州区","code":"210213","level":3,"mergeName":"辽宁省,大连市,金州区","lng":121.78943558267059,"lat":39.05643299166072,"info":"直接查询获得"},{"name":"拥政街道","code":"210213001","level":4,"mergeName":"辽宁省,大连市,金州区,拥政街道","lng":121.72788845014611,"lat":39.12027264095906,"info":"直接查询获得"},{"name":"友谊街道","code":"210213002","level":4,"mergeName":"辽宁省,大连市,金州区,友谊街道","lng":121.7141633300897,"lat":39.11724348621447,"info":"直接查询获得"},{"name":"马桥子街道","code":"210213004","level":4,"mergeName":"辽宁省,大连市,金州区,马桥子街道","lng":121.8086078476784,"lat":39.05498162846414,"info":"直接查询获得"},{"name":"海青岛街道","code":"210213005","level":4,"mergeName":"辽宁省,大连市,金州区,海青岛街道","lng":121.81366629583563,"lat":39.04896425466112,"info":"直接查询获得"},{"name":"大孤山街道","code":"210213006","level":4,"mergeName":"辽宁省,大连市,金州区,大孤山街道","lng":121.82805804841098,"lat":39.02978163044634,"info":"直接查询获得"},{"name":"站前街道","code":"210213008","level":4,"mergeName":"辽宁省,大连市,金州区,站前街道","lng":121.73101643976241,"lat":39.09232429207055,"info":"直接查询获得"},{"name":"先进街道","code":"210213009","level":4,"mergeName":"辽宁省,大连市,金州区,先进街道","lng":121.75157595796927,"lat":39.09417733887503,"info":"直接查询获得"},{"name":"董家沟街道","code":"210213011","level":4,"mergeName":"辽宁省,大连市,金州区,董家沟街道","lng":121.90801361676816,"lat":39.09351726221004,"info":"直接查询获得"},{"name":"金石滩街道","code":"210213012","level":4,"mergeName":"辽宁省,大连市,金州区,金石滩街道","lng":122.02259284388803,"lat":39.097308855386984,"info":"直接查询获得"},{"name":"湾里街道","code":"210213013","level":4,"mergeName":"辽宁省,大连市,金州区,湾里街道","lng":121.83410319534039,"lat":39.067627600853555,"info":"直接查询获得"},{"name":"二十里堡街道","code":"210213014","level":4,"mergeName":"辽宁省,大连市,金州区,二十里堡街道","lng":121.77752944144135,"lat":39.201765749700016,"info":"直接查询获得"},{"name":"亮甲店街道","code":"210213016","level":4,"mergeName":"辽宁省,大连市,金州区,亮甲店街道","lng":121.94037270213686,"lat":39.20481907021826,"info":"直接查询获得"},{"name":"登沙河街道","code":"210213017","level":4,"mergeName":"辽宁省,大连市,金州区,登沙河街道","lng":122.06731390573569,"lat":39.233093516275716,"info":"直接查询获得"},{"name":"大魏家街道","code":"210213019","level":4,"mergeName":"辽宁省,大连市,金州区,大魏家街道","lng":121.70557822433085,"lat":39.21172938758092,"info":"直接查询获得"},{"name":"杏树街道","code":"210213020","level":4,"mergeName":"辽宁省,大连市,金州区,杏树街道","lng":122.16383602430786,"lat":39.27439412097115,"info":"直接查询获得"},{"name":"七顶山街道","code":"210213021","level":4,"mergeName":"辽宁省,大连市,金州区,七顶山街道","lng":121.71593847160798,"lat":39.259064896601735,"info":"直接查询获得"},{"name":"华家街道","code":"210213022","level":4,"mergeName":"辽宁省,大连市,金州区,华家街道","lng":122.03992789446684,"lat":39.2771324907714,"info":"直接查询获得"},{"name":"向应街道","code":"210213023","level":4,"mergeName":"辽宁省,大连市,金州区,向应街道","lng":121.94410869995622,"lat":39.27265883560893,"info":"直接查询获得"},{"name":"大李家街道","code":"210213024","level":4,"mergeName":"辽宁省,大连市,金州区,大李家街道","lng":122.0865052148203,"lat":39.14669558141527,"info":"直接查询获得"},{"name":"得胜街道","code":"210213025","level":4,"mergeName":"辽宁省,大连市,金州区,得胜街道","lng":121.97929897839396,"lat":39.149333772743304,"info":"直接查询获得"},{"name":"炮台街道","code":"210213027","level":4,"mergeName":"辽宁省,大连市,金州区,炮台街道","lng":121.77097235020182,"lat":39.48424469004035,"info":"直接查询获得"},{"name":"复州湾街道","code":"210213028","level":4,"mergeName":"辽宁省,大连市,金州区,复州湾街道","lng":121.67429266884318,"lat":39.420587124912664,"info":"直接查询获得"},{"name":"三十里堡街道","code":"210213029","level":4,"mergeName":"辽宁省,大连市,金州区,三十里堡街道","lng":121.79765462893414,"lat":39.27864110007695,"info":"直接查询获得"},{"name":"石河街道","code":"210213030","level":4,"mergeName":"辽宁省,大连市,金州区,石河街道","lng":121.84432411543291,"lat":39.35192204077746,"info":"直接查询获得"},{"name":"光中街道","code":"210213031","level":4,"mergeName":"辽宁省,大连市,金州区,光中街道","lng":121.78943558267059,"lat":39.05643299166072,"info":"直接查询获得"},{"name":"普兰店区","code":"210214","level":3,"mergeName":"辽宁省,大连市,普兰店区","lng":121.94645983496748,"lat":39.398089145183164,"info":"直接查询获得"},{"name":"丰荣街道","code":"210214001","level":4,"mergeName":"辽宁省,大连市,普兰店区,丰荣街道","lng":122.0197391967745,"lat":39.425813314945586,"info":"直接查询获得"},{"name":"铁西街道","code":"210214002","level":4,"mergeName":"辽宁省,大连市,普兰店区,铁西街道","lng":121.96346008708272,"lat":39.413117855616925,"info":"直接查询获得"},{"name":"太平街道","code":"210214003","level":4,"mergeName":"辽宁省,大连市,普兰店区,太平街道","lng":121.97901873851555,"lat":39.39798076241768,"info":"直接查询获得"},{"name":"皮口街道","code":"210214005","level":4,"mergeName":"辽宁省,大连市,普兰店区,皮口街道","lng":122.34691167537741,"lat":39.40151925003001,"info":"直接查询获得"},{"name":"城子坦街道","code":"210214006","level":4,"mergeName":"辽宁省,大连市,普兰店区,城子坦街道","lng":122.4915991387836,"lat":39.519050982353455,"info":"直接查询获得"},{"name":"大刘家街道","code":"210214007","level":4,"mergeName":"辽宁省,大连市,普兰店区,大刘家街道","lng":122.17674054228088,"lat":39.34999039968987,"info":"直接查询获得"},{"name":"杨树房街道","code":"210214008","level":4,"mergeName":"辽宁省,大连市,普兰店区,杨树房街道","lng":122.24812771336168,"lat":39.40642246992048,"info":"直接查询获得"},{"name":"大谭街道","code":"210214009","level":4,"mergeName":"辽宁省,大连市,普兰店区,大谭街道","lng":122.15258645457585,"lat":39.50387808211317,"info":"直接查询获得"},{"name":"唐家房街道","code":"210214010","level":4,"mergeName":"辽宁省,大连市,普兰店区,唐家房街道","lng":122.16595009649504,"lat":39.4017823519974,"info":"直接查询获得"},{"name":"莲山街道","code":"210214011","level":4,"mergeName":"辽宁省,大连市,普兰店区,莲山街道","lng":122.25448196721706,"lat":39.61086809434318,"info":"直接查询获得"},{"name":"安波街道","code":"210214012","level":4,"mergeName":"辽宁省,大连市,普兰店区,安波街道","lng":122.3198249795045,"lat":39.84182407462722,"info":"直接查询获得"},{"name":"沙包街道","code":"210214013","level":4,"mergeName":"辽宁省,大连市,普兰店区,沙包街道","lng":122.21437972281008,"lat":39.68467058629358,"info":"直接查询获得"},{"name":"星台街道","code":"210214014","level":4,"mergeName":"辽宁省,大连市,普兰店区,星台街道","lng":121.94645983496748,"lat":39.398089145183164,"info":"直接查询获得"},{"name":"墨盘街道","code":"210214015","level":4,"mergeName":"辽宁省,大连市,普兰店区,墨盘街道","lng":122.53021603502984,"lat":39.66382110874234,"info":"直接查询获得"},{"name":"同益街道","code":"210214016","level":4,"mergeName":"辽宁省,大连市,普兰店区,同益街道","lng":122.28371406458012,"lat":39.90391268794483,"info":"直接查询获得"},{"name":"乐甲街道","code":"210214017","level":4,"mergeName":"辽宁省,大连市,普兰店区,乐甲街道","lng":121.94645983496748,"lat":39.398089145183164,"info":"直接查询获得"},{"name":"双塔街道","code":"210214018","level":4,"mergeName":"辽宁省,大连市,普兰店区,双塔街道","lng":122.47412808475059,"lat":39.774014258427734,"info":"直接查询获得"},{"name":"四平街道","code":"210214019","level":4,"mergeName":"辽宁省,大连市,普兰店区,四平街道","lng":122.1810184527805,"lat":39.79173275299846,"info":"直接查询获得"},{"name":"长海县","code":"210224","level":3,"mergeName":"辽宁省,大连市,长海县","lng":122.59462651636738,"lat":39.27827021716725,"info":"直接查询获得"},{"name":"大长山岛镇","code":"210224100","level":4,"mergeName":"辽宁省,大连市,长海县,大长山岛镇","lng":122.52771317621794,"lat":39.23649378128193,"info":"直接查询获得"},{"name":"獐子岛镇","code":"210224101","level":4,"mergeName":"辽宁省,大连市,长海县,獐子岛镇","lng":122.74246191177215,"lat":39.03760951508308,"info":"直接查询获得"},{"name":"广鹿岛镇","code":"210224102","level":4,"mergeName":"辽宁省,大连市,长海县,广鹿岛镇","lng":122.59462651636738,"lat":39.27827021716725,"info":"直接查询获得"},{"name":"小长山岛镇","code":"210224103","level":4,"mergeName":"辽宁省,大连市,长海县,小长山岛镇","lng":122.69362858696094,"lat":39.24272267494218,"info":"直接查询获得"},{"name":"海洋岛镇","code":"210224104","level":4,"mergeName":"辽宁省,大连市,长海县,海洋岛镇","lng":123.18464507363142,"lat":39.06710208487924,"info":"直接查询获得"},{"name":"瓦房店市","code":"210281","level":3,"mergeName":"辽宁省,大连市,瓦房店市","lng":121.98563754334361,"lat":39.63274074738802,"info":"直接查询获得"},{"name":"新华街道","code":"210281001","level":4,"mergeName":"辽宁省,大连市,瓦房店市,新华街道","lng":122.00990993788432,"lat":39.64712965358386,"info":"直接查询获得"},{"name":"文兰街道","code":"210281002","level":4,"mergeName":"辽宁省,大连市,瓦房店市,文兰街道","lng":122.00160052208648,"lat":39.622284032893994,"info":"直接查询获得"},{"name":"岭东街道","code":"210281003","level":4,"mergeName":"辽宁省,大连市,瓦房店市,岭东街道","lng":122.03084306135277,"lat":39.634393935875195,"info":"直接查询获得"},{"name":"共济街道","code":"210281004","level":4,"mergeName":"辽宁省,大连市,瓦房店市,共济街道","lng":122.00066457757563,"lat":39.631618362523504,"info":"直接查询获得"},{"name":"铁东街道","code":"210281005","level":4,"mergeName":"辽宁省,大连市,瓦房店市,铁东街道","lng":122.01903330830474,"lat":39.63549460390593,"info":"直接查询获得"},{"name":"祝华街道","code":"210281006","level":4,"mergeName":"辽宁省,大连市,瓦房店市,祝华街道","lng":122.01493299280446,"lat":39.68556020779907,"info":"直接查询获得"},{"name":"岗店街道","code":"210281007","level":4,"mergeName":"辽宁省,大连市,瓦房店市,岗店街道","lng":121.99898429711921,"lat":39.628157942371836,"info":"直接查询获得"},{"name":"太阳街道","code":"210281008","level":4,"mergeName":"辽宁省,大连市,瓦房店市,太阳街道","lng":121.88124941257331,"lat":39.74407991061843,"info":"直接查询获得"},{"name":"长兴岛街道","code":"210281009","level":4,"mergeName":"辽宁省,大连市,瓦房店市,长兴岛街道","lng":121.45163911429282,"lat":39.60068790497121,"info":"直接查询获得"},{"name":"九龙街道","code":"210281010","level":4,"mergeName":"辽宁省,大连市,瓦房店市,九龙街道","lng":121.87446163647883,"lat":39.580128843015075,"info":"直接查询获得"},{"name":"交流岛街道","code":"210281011","level":4,"mergeName":"辽宁省,大连市,瓦房店市,交流岛街道","lng":121.42183845781315,"lat":39.44480943620578,"info":"直接查询获得"},{"name":"复州城镇","code":"210281101","level":4,"mergeName":"辽宁省,大连市,瓦房店市,复州城镇","lng":121.72918425584425,"lat":39.73782095140449,"info":"直接查询获得"},{"name":"松树镇","code":"210281103","level":4,"mergeName":"辽宁省,大连市,瓦房店市,松树镇","lng":122.12401468003385,"lat":39.84739566842234,"info":"直接查询获得"},{"name":"得利寺镇","code":"210281105","level":4,"mergeName":"辽宁省,大连市,瓦房店市,得利寺镇","lng":122.07138421783193,"lat":39.79060486434086,"info":"直接查询获得"},{"name":"万家岭镇","code":"210281106","level":4,"mergeName":"辽宁省,大连市,瓦房店市,万家岭镇","lng":122.16494426381551,"lat":39.946830207808084,"info":"直接查询获得"},{"name":"许屯镇","code":"210281107","level":4,"mergeName":"辽宁省,大连市,瓦房店市,许屯镇","lng":122.11281002557733,"lat":40.03599173905553,"info":"直接查询获得"},{"name":"永宁镇","code":"210281108","level":4,"mergeName":"辽宁省,大连市,瓦房店市,永宁镇","lng":121.89816252905408,"lat":39.92688785946321,"info":"直接查询获得"},{"name":"谢屯镇","code":"210281109","level":4,"mergeName":"辽宁省,大连市,瓦房店市,谢屯镇","lng":121.54715800527144,"lat":39.458689414654806,"info":"直接查询获得"},{"name":"老虎屯镇","code":"210281112","level":4,"mergeName":"辽宁省,大连市,瓦房店市,老虎屯镇","lng":121.82340123264727,"lat":39.659891544812254,"info":"直接查询获得"},{"name":"红沿河镇","code":"210281113","level":4,"mergeName":"辽宁省,大连市,瓦房店市,红沿河镇","lng":121.57431674524625,"lat":39.76733820315264,"info":"直接查询获得"},{"name":"李官镇","code":"210281115","level":4,"mergeName":"辽宁省,大连市,瓦房店市,李官镇","lng":122.01091604005549,"lat":40.052438153770524,"info":"直接查询获得"},{"name":"仙浴湾镇","code":"210281116","level":4,"mergeName":"辽宁省,大连市,瓦房店市,仙浴湾镇","lng":121.53580001006438,"lat":39.70977225683677,"info":"直接查询获得"},{"name":"元台镇","code":"210281117","level":4,"mergeName":"辽宁省,大连市,瓦房店市,元台镇","lng":122.08905972619903,"lat":39.6284033,"info":"直接查询获得"},{"name":"瓦窝镇","code":"210281118","level":4,"mergeName":"辽宁省,大连市,瓦房店市,瓦窝镇","lng":122.03747147804981,"lat":39.69617202861678,"info":"直接查询获得"},{"name":"赵屯乡","code":"210281201","level":4,"mergeName":"辽宁省,大连市,瓦房店市,赵屯乡","lng":122.01486579955231,"lat":39.90038025936082,"info":"直接查询获得"},{"name":"土城乡","code":"210281203","level":4,"mergeName":"辽宁省,大连市,瓦房店市,土城乡","lng":121.94469466464038,"lat":39.9818857277814,"info":"直接查询获得"},{"name":"阎店乡","code":"210281204","level":4,"mergeName":"辽宁省,大连市,瓦房店市,阎店乡","lng":121.83932666221982,"lat":39.84524627647121,"info":"直接查询获得"},{"name":"西杨乡","code":"210281205","level":4,"mergeName":"辽宁省,大连市,瓦房店市,西杨乡","lng":121.74472467167521,"lat":39.82944297817371,"info":"直接查询获得"},{"name":"驼山乡","code":"210281206","level":4,"mergeName":"辽宁省,大连市,瓦房店市,驼山乡","lng":121.66261748196055,"lat":39.80285214812748,"info":"直接查询获得"},{"name":"三台满族乡","code":"210281208","level":4,"mergeName":"辽宁省,大连市,瓦房店市,三台满族乡","lng":121.6152529764887,"lat":39.64748203168487,"info":"直接查询获得"},{"name":"泡崖乡","code":"210281210","level":4,"mergeName":"辽宁省,大连市,瓦房店市,泡崖乡","lng":121.66801171671743,"lat":39.53656189495252,"info":"直接查询获得"},{"name":"杨家满族乡","code":"210281212","level":4,"mergeName":"辽宁省,大连市,瓦房店市,杨家满族乡","lng":121.76493331174987,"lat":39.649664457695394,"info":"直接查询获得"},{"name":"庄河市","code":"210283","level":3,"mergeName":"辽宁省,大连市,庄河市","lng":122.97449548262718,"lat":39.686956078878055,"info":"直接查询获得"},{"name":"城关街道","code":"210283001","level":4,"mergeName":"辽宁省,大连市,庄河市,城关街道","lng":122.98840870785737,"lat":39.704520134020534,"info":"直接查询获得"},{"name":"新华街道","code":"210283002","level":4,"mergeName":"辽宁省,大连市,庄河市,新华街道","lng":122.9520380182507,"lat":39.708109162839726,"info":"直接查询获得"},{"name":"兴达街道","code":"210283003","level":4,"mergeName":"辽宁省,大连市,庄河市,兴达街道","lng":122.9818524250928,"lat":39.713900232822255,"info":"直接查询获得"},{"name":"昌盛街道","code":"210283004","level":4,"mergeName":"辽宁省,大连市,庄河市,昌盛街道","lng":122.94254113599243,"lat":39.654207294147916,"info":"直接查询获得"},{"name":"明阳街道","code":"210283005","level":4,"mergeName":"辽宁省,大连市,庄河市,明阳街道","lng":122.60377584781705,"lat":39.56323714942925,"info":"直接查询获得"},{"name":"青堆镇","code":"210283101","level":4,"mergeName":"辽宁省,大连市,庄河市,青堆镇","lng":123.26604951894562,"lat":39.8371574734697,"info":"直接查询获得"},{"name":"徐岭镇","code":"210283102","level":4,"mergeName":"辽宁省,大连市,庄河市,徐岭镇","lng":122.96031887422146,"lat":39.75497741820856,"info":"直接查询获得"},{"name":"黑岛镇","code":"210283104","level":4,"mergeName":"辽宁省,大连市,庄河市,黑岛镇","lng":123.19282555563942,"lat":39.72376078593712,"info":"直接查询获得"},{"name":"栗子房镇","code":"210283105","level":4,"mergeName":"辽宁省,大连市,庄河市,栗子房镇","lng":123.44253744655776,"lat":39.867264982989155,"info":"直接查询获得"},{"name":"大营镇","code":"210283107","level":4,"mergeName":"辽宁省,大连市,庄河市,大营镇","lng":123.09127079722731,"lat":39.8843939022258,"info":"直接查询获得"},{"name":"塔岭镇","code":"210283108","level":4,"mergeName":"辽宁省,大连市,庄河市,塔岭镇","lng":123.12110558931636,"lat":40.05942035807688,"info":"直接查询获得"},{"name":"仙人洞镇","code":"210283109","level":4,"mergeName":"辽宁省,大连市,庄河市,仙人洞镇","lng":122.98137434690038,"lat":39.972006523429435,"info":"直接查询获得"},{"name":"蓉花山镇","code":"210283110","level":4,"mergeName":"辽宁省,大连市,庄河市,蓉花山镇","lng":122.87103907433183,"lat":39.93593472452475,"info":"直接查询获得"},{"name":"长岭镇","code":"210283111","level":4,"mergeName":"辽宁省,大连市,庄河市,长岭镇","lng":122.68903267631079,"lat":39.845917691757144,"info":"直接查询获得"},{"name":"荷花山镇","code":"210283112","level":4,"mergeName":"辽宁省,大连市,庄河市,荷花山镇","lng":122.55045494800018,"lat":39.82458296432158,"info":"直接查询获得"},{"name":"城山镇","code":"210283113","level":4,"mergeName":"辽宁省,大连市,庄河市,城山镇","lng":122.64018955996951,"lat":39.70391421935235,"info":"直接查询获得"},{"name":"光明山镇","code":"210283114","level":4,"mergeName":"辽宁省,大连市,庄河市,光明山镇","lng":122.80717081020012,"lat":39.76204293903331,"info":"直接查询获得"},{"name":"大郑镇","code":"210283115","level":4,"mergeName":"辽宁省,大连市,庄河市,大郑镇","lng":122.81874628517114,"lat":39.64383919923253,"info":"直接查询获得"},{"name":"吴炉镇","code":"210283118","level":4,"mergeName":"辽宁省,大连市,庄河市,吴炉镇","lng":123.06984144979513,"lat":39.76489455275466,"info":"直接查询获得"},{"name":"王家镇","code":"210283120","level":4,"mergeName":"辽宁省,大连市,庄河市,王家镇","lng":123.08929569290252,"lat":39.45497152963193,"info":"直接查询获得"},{"name":"鞍子山乡","code":"210283204","level":4,"mergeName":"辽宁省,大连市,庄河市,鞍子山乡","lng":123.31120473184625,"lat":39.85352320974456,"info":"直接查询获得"},{"name":"太平岭满族乡","code":"210283208","level":4,"mergeName":"辽宁省,大连市,庄河市,太平岭满族乡","lng":122.92113856075936,"lat":39.856535435553916,"info":"直接查询获得"},{"name":"步云山乡","code":"210283209","level":4,"mergeName":"辽宁省,大连市,庄河市,步云山乡","lng":122.71819409858955,"lat":40.03030528923708,"info":"直接查询获得"},{"name":"桂云花满族乡","code":"210283211","level":4,"mergeName":"辽宁省,大连市,庄河市,桂云花满族乡","lng":122.58043742151506,"lat":39.92492606635708,"info":"直接查询获得"},{"name":"兰店乡","code":"210283214","level":4,"mergeName":"辽宁省,大连市,庄河市,兰店乡","lng":123.06166850636697,"lat":39.708327429521376,"info":"直接查询获得"},{"name":"石城乡","code":"210283216","level":4,"mergeName":"辽宁省,大连市,庄河市,石城乡","lng":123.00012279136858,"lat":39.53693028262891,"info":"直接查询获得"},{"name":"鞍山市","code":"2103","level":2,"mergeName":"辽宁省,鞍山市","lng":123.00137251399407,"lat":41.11505359694933,"info":"直接查询获得"},{"name":"铁东区","code":"210302","level":3,"mergeName":"辽宁省,鞍山市,铁东区","lng":122.99739966804565,"lat":41.09633187050633,"info":"直接查询获得"},{"name":"解放街道","code":"210302002","level":4,"mergeName":"辽宁省,鞍山市,铁东区,解放街道","lng":122.99506694829732,"lat":41.096689808513126,"info":"直接查询获得"},{"name":"山南街道","code":"210302003","level":4,"mergeName":"辽宁省,鞍山市,铁东区,山南街道","lng":122.9977302444733,"lat":41.100655673582125,"info":"直接查询获得"},{"name":"园林街道","code":"210302004","level":4,"mergeName":"辽宁省,鞍山市,铁东区,园林街道","lng":123.00979412815012,"lat":41.118823438296566,"info":"直接查询获得"},{"name":"站前街道","code":"210302006","level":4,"mergeName":"辽宁省,鞍山市,铁东区,站前街道","lng":123.00372319985257,"lat":41.1232005013218,"info":"直接查询获得"},{"name":"和平街道","code":"210302008","level":4,"mergeName":"辽宁省,鞍山市,铁东区,和平街道","lng":123.0112339322215,"lat":41.12691043512913,"info":"直接查询获得"},{"name":"湖南街道","code":"210302011","level":4,"mergeName":"辽宁省,鞍山市,铁东区,湖南街道","lng":123.02160118987481,"lat":41.09837147907145,"info":"直接查询获得"},{"name":"新兴街道","code":"210302013","level":4,"mergeName":"辽宁省,鞍山市,铁东区,新兴街道","lng":123.03714088346817,"lat":41.084923716324965,"info":"直接查询获得"},{"name":"旧堡街道","code":"210302014","level":4,"mergeName":"辽宁省,鞍山市,铁东区,旧堡街道","lng":122.95967047730436,"lat":41.076382299933826,"info":"直接查询获得"},{"name":"大孤山街道","code":"210302015","level":4,"mergeName":"辽宁省,鞍山市,铁东区,大孤山街道","lng":122.99739966804565,"lat":41.09633187050633,"info":"直接查询获得"},{"name":"长甸街道","code":"210302017","level":4,"mergeName":"辽宁省,鞍山市,铁东区,长甸街道","lng":122.9981526277241,"lat":41.08977990537501,"info":"直接查询获得"},{"name":"玉佛山风景区","code":"210302400","level":4,"mergeName":"辽宁省,鞍山市,铁东区,玉佛山风景区","lng":123.02732554831339,"lat":41.10898355129785,"info":"直接查询获得"},{"name":"铁西区","code":"210303","level":3,"mergeName":"辽宁省,鞍山市,铁西区","lng":122.97549026614892,"lat":41.125475259583,"info":"直接查询获得"},{"name":"繁荣街道","code":"210303002","level":4,"mergeName":"辽宁省,鞍山市,铁西区,繁荣街道","lng":122.98422025241705,"lat":41.11817526089388,"info":"直接查询获得"},{"name":"八家子街道","code":"210303003","level":4,"mergeName":"辽宁省,鞍山市,铁西区,八家子街道","lng":122.97150196934572,"lat":41.12803794412758,"info":"直接查询获得"},{"name":"共和街道","code":"210303005","level":4,"mergeName":"辽宁省,鞍山市,铁西区,共和街道","lng":122.96319102642852,"lat":41.12999791164419,"info":"直接查询获得"},{"name":"永乐街道","code":"210303006","level":4,"mergeName":"辽宁省,鞍山市,铁西区,永乐街道","lng":122.95886002607325,"lat":41.12732397283718,"info":"直接查询获得"},{"name":"南华街道","code":"210303008","level":4,"mergeName":"辽宁省,鞍山市,铁西区,南华街道","lng":122.96677301964955,"lat":41.09904697181905,"info":"直接查询获得"},{"name":"大陆街道","code":"210303009","level":4,"mergeName":"辽宁省,鞍山市,铁西区,大陆街道","lng":122.97301902769098,"lat":41.11507391078974,"info":"直接查询获得"},{"name":"永发街道","code":"210303012","level":4,"mergeName":"辽宁省,鞍山市,铁西区,永发街道","lng":122.95911631263526,"lat":41.09679827006906,"info":"直接查询获得"},{"name":"宁远街道","code":"210303013","level":4,"mergeName":"辽宁省,鞍山市,铁西区,宁远街道","lng":122.94039302072133,"lat":41.116040950967474,"info":"直接查询获得"},{"name":"达道湾街道","code":"210303014","level":4,"mergeName":"辽宁省,鞍山市,铁西区,达道湾街道","lng":122.9158310124842,"lat":41.16529751512343,"info":"直接查询获得"},{"name":"立山区","code":"210304","level":3,"mergeName":"辽宁省,鞍山市,立山区","lng":123.03548413861611,"lat":41.156116121101775,"info":"直接查询获得"},{"name":"友好街道","code":"210304001","level":4,"mergeName":"辽宁省,鞍山市,立山区,友好街道","lng":123.01977798541856,"lat":41.1410839474778,"info":"直接查询获得"},{"name":"双山街道","code":"210304004","level":4,"mergeName":"辽宁省,鞍山市,立山区,双山街道","lng":123.0259986612446,"lat":41.14430466805031,"info":"直接查询获得"},{"name":"立山街道","code":"210304006","level":4,"mergeName":"辽宁省,鞍山市,立山区,立山街道","lng":123.03669783919064,"lat":41.16111073046649,"info":"直接查询获得"},{"name":"曙光街道","code":"210304008","level":4,"mergeName":"辽宁省,鞍山市,立山区,曙光街道","lng":123.05368838960636,"lat":41.15405991301268,"info":"直接查询获得"},{"name":"灵山街道","code":"210304009","level":4,"mergeName":"辽宁省,鞍山市,立山区,灵山街道","lng":123.04651901333123,"lat":41.186060922085055,"info":"直接查询获得"},{"name":"深沟寺街道","code":"210304014","level":4,"mergeName":"辽宁省,鞍山市,立山区,深沟寺街道","lng":123.03548413861611,"lat":41.156116121101775,"info":"直接查询获得"},{"name":"沙河街道","code":"210304015","level":4,"mergeName":"辽宁省,鞍山市,立山区,沙河街道","lng":123.04775705349356,"lat":41.169267269104225,"info":"直接查询获得"},{"name":"千山街道","code":"210304017","level":4,"mergeName":"辽宁省,鞍山市,立山区,千山街道","lng":123.14817995774276,"lat":41.050817032522644,"info":"直接查询获得"},{"name":"齐大山街道","code":"210304019","level":4,"mergeName":"辽宁省,鞍山市,立山区,齐大山街道","lng":123.0988820499828,"lat":41.16345544726418,"info":"直接查询获得"},{"name":"千山区","code":"210311","level":3,"mergeName":"辽宁省,鞍山市,千山区","lng":122.9675742183339,"lat":41.08093860893513,"info":"直接查询获得"},{"name":"汤岗子街道","code":"210311006","level":4,"mergeName":"辽宁省,鞍山市,千山区,汤岗子街道","lng":122.90543003064543,"lat":41.00963420850803,"info":"直接查询获得"},{"name":"东鞍山街道","code":"210311007","level":4,"mergeName":"辽宁省,鞍山市,千山区,东鞍山街道","lng":122.9437124383435,"lat":41.05149665976869,"info":"直接查询获得"},{"name":"唐家房镇","code":"210311102","level":4,"mergeName":"辽宁省,鞍山市,千山区,唐家房镇","lng":123.00504460725776,"lat":41.03384421377405,"info":"直接查询获得"},{"name":"大屯镇","code":"210311103","level":4,"mergeName":"辽宁省,鞍山市,千山区,大屯镇","lng":122.92354098901525,"lat":41.0010679289276,"info":"直接查询获得"},{"name":"甘泉镇","code":"210311104","level":4,"mergeName":"辽宁省,鞍山市,千山区,甘泉镇","lng":122.8704964978038,"lat":40.97016984647839,"info":"直接查询获得"},{"name":"台安县","code":"210321","level":3,"mergeName":"辽宁省,鞍山市,台安县","lng":122.44255004098889,"lat":41.41859037109879,"info":"直接查询获得"},{"name":"八角台街道","code":"210321001","level":4,"mergeName":"辽宁省,鞍山市,台安县,八角台街道","lng":122.44261076644136,"lat":41.41902037647173,"info":"直接查询获得"},{"name":"台东街道","code":"210321002","level":4,"mergeName":"辽宁省,鞍山市,台安县,台东街道","lng":122.44255004098889,"lat":41.41859037109879,"info":"直接查询获得"},{"name":"西佛镇","code":"210321101","level":4,"mergeName":"辽宁省,鞍山市,台安县,西佛镇","lng":122.55532052996443,"lat":41.44105899187917,"info":"直接查询获得"},{"name":"新开河镇","code":"210321102","level":4,"mergeName":"辽宁省,鞍山市,台安县,新开河镇","lng":122.50007465127024,"lat":41.32544505848332,"info":"直接查询获得"},{"name":"黄沙坨镇","code":"210321103","level":4,"mergeName":"辽宁省,鞍山市,台安县,黄沙坨镇","lng":122.43984605157328,"lat":41.213256470470974,"info":"直接查询获得"},{"name":"高力房镇","code":"210321104","level":4,"mergeName":"辽宁省,鞍山市,台安县,高力房镇","lng":122.48067044377976,"lat":41.1647565904582,"info":"直接查询获得"},{"name":"桑林镇","code":"210321105","level":4,"mergeName":"辽宁省,鞍山市,台安县,桑林镇","lng":122.30798495356079,"lat":41.467935558326595,"info":"直接查询获得"},{"name":"富家镇","code":"210321106","level":4,"mergeName":"辽宁省,鞍山市,台安县,富家镇","lng":122.35293840704387,"lat":41.259225635733934,"info":"直接查询获得"},{"name":"达牛镇","code":"210321107","level":4,"mergeName":"辽宁省,鞍山市,台安县,达牛镇","lng":122.62728989284624,"lat":41.39427265030607,"info":"直接查询获得"},{"name":"台安县韭菜台镇","code":"210321109","level":4,"mergeName":"辽宁省,鞍山市,台安县,台安县韭菜台镇","lng":122.43044878780286,"lat":41.08478967798591,"info":"直接查询获得"},{"name":"新台镇","code":"210321110","level":4,"mergeName":"辽宁省,鞍山市,台安县,新台镇","lng":122.36537077564087,"lat":41.33381937425488,"info":"直接查询获得"},{"name":"桓洞镇","code":"210321111","level":4,"mergeName":"辽宁省,鞍山市,台安县,桓洞镇","lng":122.47732362694123,"lat":41.51285396592344,"info":"直接查询获得"},{"name":"新华农场","code":"210321400","level":4,"mergeName":"辽宁省,鞍山市,台安县,新华农场","lng":122.29109213878456,"lat":41.23683427954944,"info":"直接查询获得"},{"name":"洪家农牧场","code":"210321401","level":4,"mergeName":"辽宁省,鞍山市,台安县,洪家农牧场","lng":122.43538012573045,"lat":41.54847754202668,"info":"直接查询获得"},{"name":"岫岩满族自治县","code":"210323","level":3,"mergeName":"辽宁省,鞍山市,岫岩满族自治县","lng":123.28754677827435,"lat":40.295892396362035,"info":"直接查询获得"},{"name":"阜昌街道","code":"210323001","level":4,"mergeName":"辽宁省,鞍山市,岫岩满族自治县,阜昌街道","lng":123.28384602906489,"lat":40.29514605650183,"info":"直接查询获得"},{"name":"兴隆街道","code":"210323003","level":4,"mergeName":"辽宁省,鞍山市,岫岩满族自治县,兴隆街道","lng":123.28213266401656,"lat":40.33613867665386,"info":"直接查询获得"},{"name":"雅河街道","code":"210323004","level":4,"mergeName":"辽宁省,鞍山市,岫岩满族自治县,雅河街道","lng":123.27153807578104,"lat":40.21442227572228,"info":"直接查询获得"},{"name":"三家子镇","code":"210323101","level":4,"mergeName":"辽宁省,鞍山市,岫岩满族自治县,三家子镇","lng":123.41048366019798,"lat":40.73068231353268,"info":"直接查询获得"},{"name":"石庙子镇","code":"210323102","level":4,"mergeName":"辽宁省,鞍山市,岫岩满族自治县,石庙子镇","lng":123.53036540508216,"lat":40.668559885481784,"info":"直接查询获得"},{"name":"黄花甸镇","code":"210323103","level":4,"mergeName":"辽宁省,鞍山市,岫岩满族自治县,黄花甸镇","lng":123.4823842128777,"lat":40.56044049522723,"info":"直接查询获得"},{"name":"大营子镇","code":"210323104","level":4,"mergeName":"辽宁省,鞍山市,岫岩满族自治县,大营子镇","lng":123.61776298543674,"lat":40.318798030180346,"info":"直接查询获得"},{"name":"苏子沟镇","code":"210323105","level":4,"mergeName":"辽宁省,鞍山市,岫岩满族自治县,苏子沟镇","lng":123.42330104253655,"lat":40.40755959050124,"info":"直接查询获得"},{"name":"偏岭镇","code":"210323106","level":4,"mergeName":"辽宁省,鞍山市,岫岩满族自治县,偏岭镇","lng":123.16602436820675,"lat":40.482781404975526,"info":"直接查询获得"},{"name":"哈达碑镇","code":"210323107","level":4,"mergeName":"辽宁省,鞍山市,岫岩满族自治县,哈达碑镇","lng":123.16797449963836,"lat":40.36338924244622,"info":"直接查询获得"},{"name":"新甸镇","code":"210323108","level":4,"mergeName":"辽宁省,鞍山市,岫岩满族自治县,新甸镇","lng":123.13481696529846,"lat":40.0989200380175,"info":"直接查询获得"},{"name":"洋河镇","code":"210323109","level":4,"mergeName":"辽宁省,鞍山市,岫岩满族自治县,洋河镇","lng":123.42145924674944,"lat":40.06537872609067,"info":"直接查询获得"},{"name":"杨家堡镇","code":"210323111","level":4,"mergeName":"辽宁省,鞍山市,岫岩满族自治县,杨家堡镇","lng":123.32167699782046,"lat":40.172102883444154,"info":"直接查询获得"},{"name":"清凉山镇","code":"210323112","level":4,"mergeName":"辽宁省,鞍山市,岫岩满族自治县,清凉山镇","lng":123.28754677827435,"lat":40.295892396362035,"info":"直接查询获得"},{"name":"石灰窑镇","code":"210323113","level":4,"mergeName":"辽宁省,鞍山市,岫岩满族自治县,石灰窑镇","lng":123.10651333495117,"lat":40.32168725973568,"info":"直接查询获得"},{"name":"前营子镇","code":"210323114","level":4,"mergeName":"辽宁省,鞍山市,岫岩满族自治县,前营子镇","lng":123.28754677827435,"lat":40.295892396362035,"info":"直接查询获得"},{"name":"龙潭镇","code":"210323115","level":4,"mergeName":"辽宁省,鞍山市,岫岩满族自治县,龙潭镇","lng":123.13293294915236,"lat":40.15002577161813,"info":"直接查询获得"},{"name":"牧牛镇","code":"210323116","level":4,"mergeName":"辽宁省,鞍山市,岫岩满族自治县,牧牛镇","lng":123.24223463140115,"lat":40.66675573461989,"info":"直接查询获得"},{"name":"药山镇","code":"210323117","level":4,"mergeName":"辽宁省,鞍山市,岫岩满族自治县,药山镇","lng":123.40895573235606,"lat":40.61108301571198,"info":"直接查询获得"},{"name":"大房身镇","code":"210323118","level":4,"mergeName":"辽宁省,鞍山市,岫岩满族自治县,大房身镇","lng":123.34205667526422,"lat":40.50441735421972,"info":"直接查询获得"},{"name":"朝阳镇","code":"210323119","level":4,"mergeName":"辽宁省,鞍山市,岫岩满族自治县,朝阳镇","lng":123.56197812343656,"lat":40.46480438623291,"info":"直接查询获得"},{"name":"红旗营子乡","code":"210323206","level":4,"mergeName":"辽宁省,鞍山市,岫岩满族自治县,红旗营子乡","lng":123.45217563586597,"lat":40.34985198812477,"info":"直接查询获得"},{"name":"岭沟乡","code":"210323211","level":4,"mergeName":"辽宁省,鞍山市,岫岩满族自治县,岭沟乡","lng":123.44116860862167,"lat":40.18065678628368,"info":"直接查询获得"},{"name":"哨子河乡","code":"210323212","level":4,"mergeName":"辽宁省,鞍山市,岫岩满族自治县,哨子河乡","lng":123.53872467683583,"lat":40.181070007095194,"info":"直接查询获得"},{"name":"海城市","code":"210381","level":3,"mergeName":"辽宁省,鞍山市,海城市","lng":122.69156940124043,"lat":40.887633947096894,"info":"直接查询获得"},{"name":"海州街道","code":"210381001","level":4,"mergeName":"辽宁省,鞍山市,海城市,海州街道","lng":122.76621283996433,"lat":40.863901505189766,"info":"直接查询获得"},{"name":"兴海街道","code":"210381002","level":4,"mergeName":"辽宁省,鞍山市,海城市,兴海街道","lng":122.72792408304291,"lat":40.87399718777615,"info":"直接查询获得"},{"name":"响堂街道","code":"210381003","level":4,"mergeName":"辽宁省,鞍山市,海城市,响堂街道","lng":122.77930950548594,"lat":40.84194264421828,"info":"直接查询获得"},{"name":"东四街道","code":"210381004","level":4,"mergeName":"辽宁省,鞍山市,海城市,东四街道","lng":122.69209158623336,"lat":40.88872788894084,"info":"直接查询获得"},{"name":"温泉街道","code":"210381006","level":4,"mergeName":"辽宁省,鞍山市,海城市,温泉街道","lng":122.74746558125939,"lat":41.03152143531369,"info":"直接查询获得"},{"name":"孤山镇","code":"210381101","level":4,"mergeName":"辽宁省,鞍山市,海城市,孤山镇","lng":123.00502618929988,"lat":40.5774656016419,"info":"直接查询获得"},{"name":"岔沟镇","code":"210381102","level":4,"mergeName":"辽宁省,鞍山市,海城市,岔沟镇","lng":122.90432650364848,"lat":40.64903933638127,"info":"直接查询获得"},{"name":"接文镇","code":"210381103","level":4,"mergeName":"辽宁省,鞍山市,海城市,接文镇","lng":123.02339285662127,"lat":40.71579825890326,"info":"直接查询获得"},{"name":"析木镇","code":"210381104","level":4,"mergeName":"辽宁省,鞍山市,海城市,析木镇","lng":122.92025103491551,"lat":40.70708999602151,"info":"直接查询获得"},{"name":"马风镇","code":"210381105","level":4,"mergeName":"辽宁省,鞍山市,海城市,马风镇","lng":122.91456601866506,"lat":40.814789948560815,"info":"直接查询获得"},{"name":"牌楼镇","code":"210381107","level":4,"mergeName":"辽宁省,鞍山市,海城市,牌楼镇","lng":122.84600895909347,"lat":40.736634955128736,"info":"直接查询获得"},{"name":"八里镇","code":"210381108","level":4,"mergeName":"辽宁省,鞍山市,海城市,八里镇","lng":122.76550299895034,"lat":40.79603299199443,"info":"直接查询获得"},{"name":"毛祁镇","code":"210381109","level":4,"mergeName":"辽宁省,鞍山市,海城市,毛祁镇","lng":122.7065125337378,"lat":40.79961991824588,"info":"直接查询获得"},{"name":"英落镇","code":"210381110","level":4,"mergeName":"辽宁省,鞍山市,海城市,英落镇","lng":122.71404464577786,"lat":40.65076316469406,"info":"直接查询获得"},{"name":"感王镇","code":"210381111","level":4,"mergeName":"辽宁省,鞍山市,海城市,感王镇","lng":122.56496285147799,"lat":40.81732803662585,"info":"直接查询获得"},{"name":"西柳镇","code":"210381112","level":4,"mergeName":"辽宁省,鞍山市,海城市,西柳镇","lng":122.63435057415465,"lat":40.8563410378609,"info":"直接查询获得"},{"name":"中小镇","code":"210381113","level":4,"mergeName":"辽宁省,鞍山市,海城市,中小镇","lng":122.57639567553402,"lat":40.89471806657595,"info":"直接查询获得"},{"name":"王石镇","code":"210381114","level":4,"mergeName":"辽宁省,鞍山市,海城市,王石镇","lng":122.82334929243483,"lat":40.86714640789769,"info":"直接查询获得"},{"name":"南台镇","code":"210381115","level":4,"mergeName":"辽宁省,鞍山市,海城市,南台镇","lng":122.8042879681575,"lat":40.92797194940101,"info":"直接查询获得"},{"name":"腾鳌镇","code":"210381118","level":4,"mergeName":"辽宁省,鞍山市,海城市,腾鳌镇","lng":122.82951903433845,"lat":41.07274998120674,"info":"直接查询获得"},{"name":"耿庄镇","code":"210381121","level":4,"mergeName":"辽宁省,鞍山市,海城市,耿庄镇","lng":122.73247517992608,"lat":40.986642257269054,"info":"直接查询获得"},{"name":"牛庄镇","code":"210381123","level":4,"mergeName":"辽宁省,鞍山市,海城市,牛庄镇","lng":122.54255731544811,"lat":40.95498956374838,"info":"直接查询获得"},{"name":"西四镇","code":"210381124","level":4,"mergeName":"辽宁省,鞍山市,海城市,西四镇","lng":122.45509604523288,"lat":40.97516195894979,"info":"直接查询获得"},{"name":"望台镇","code":"210381125","level":4,"mergeName":"辽宁省,鞍山市,海城市,望台镇","lng":122.62634065341383,"lat":40.973806849705475,"info":"直接查询获得"},{"name":"温香镇","code":"210381126","level":4,"mergeName":"辽宁省,鞍山市,海城市,温香镇","lng":122.60767530220531,"lat":41.07550005481746,"info":"直接查询获得"},{"name":"高坨镇","code":"210381127","level":4,"mergeName":"辽宁省,鞍山市,海城市,高坨镇","lng":122.66697262858006,"lat":41.138997382014864,"info":"直接查询获得"},{"name":"抚顺市","code":"2104","level":2,"mergeName":"辽宁省,抚顺市","lng":123.9643746156145,"lat":41.88596959305694,"info":"直接查询获得"},{"name":"新抚区","code":"210402","level":3,"mergeName":"辽宁省,抚顺市,新抚区","lng":123.91958231813992,"lat":41.86780585859302,"info":"直接查询获得"},{"name":"站前街道","code":"210402001","level":4,"mergeName":"辽宁省,抚顺市,新抚区,站前街道","lng":123.89583635757721,"lat":41.860501003154425,"info":"直接查询获得"},{"name":"福民街道","code":"210402005","level":4,"mergeName":"辽宁省,抚顺市,新抚区,福民街道","lng":123.90160605708807,"lat":41.87082746579293,"info":"直接查询获得"},{"name":"新抚街道","code":"210402007","level":4,"mergeName":"辽宁省,抚顺市,新抚区,新抚街道","lng":123.88351400445603,"lat":41.86561590920101,"info":"直接查询获得"},{"name":"榆林街道","code":"210402009","level":4,"mergeName":"辽宁省,抚顺市,新抚区,榆林街道","lng":123.95171066385701,"lat":41.877819315926416,"info":"直接查询获得"},{"name":"永安台街道","code":"210402011","level":4,"mergeName":"辽宁省,抚顺市,新抚区,永安台街道","lng":123.92314508762303,"lat":41.866413184964266,"info":"直接查询获得"},{"name":"刘山街道","code":"210402019","level":4,"mergeName":"辽宁省,抚顺市,新抚区,刘山街道","lng":123.9015736147846,"lat":41.82714495623287,"info":"直接查询获得"},{"name":"千金乡","code":"210402201","level":4,"mergeName":"辽宁省,抚顺市,新抚区,千金乡","lng":123.94866774377253,"lat":41.81081861887041,"info":"直接查询获得"},{"name":"东洲区","code":"210403","level":3,"mergeName":"辽宁省,抚顺市,东洲区","lng":124.04554972353199,"lat":41.859190936633894,"info":"直接查询获得"},{"name":"东洲街道","code":"210403002","level":4,"mergeName":"辽宁省,抚顺市,东洲区,东洲街道","lng":124.08148530898356,"lat":41.8853923323395,"info":"直接查询获得"},{"name":"搭连街道","code":"210403004","level":4,"mergeName":"辽宁省,抚顺市,东洲区,搭连街道","lng":124.03468552686377,"lat":41.85409334022391,"info":"直接查询获得"},{"name":"龙凤街道","code":"210403005","level":4,"mergeName":"辽宁省,抚顺市,东洲区,龙凤街道","lng":124.01575822527701,"lat":41.84286352762709,"info":"直接查询获得"},{"name":"新屯街道","code":"210403006","level":4,"mergeName":"辽宁省,抚顺市,东洲区,新屯街道","lng":123.98748999265834,"lat":41.844091857145784,"info":"直接查询获得"},{"name":"万新街道","code":"210403007","level":4,"mergeName":"辽宁省,抚顺市,东洲区,万新街道","lng":123.97000923692583,"lat":41.848829092614835,"info":"直接查询获得"},{"name":"老虎台街道","code":"210403008","level":4,"mergeName":"辽宁省,抚顺市,东洲区,老虎台街道","lng":123.95224560478822,"lat":41.84322262590734,"info":"直接查询获得"},{"name":"章党街道","code":"210403012","level":4,"mergeName":"辽宁省,抚顺市,东洲区,章党街道","lng":124.06849615356367,"lat":41.90116902846782,"info":"直接查询获得"},{"name":"章党镇","code":"210403103","level":4,"mergeName":"辽宁省,抚顺市,东洲区,章党镇","lng":124.0882292064471,"lat":41.92406933361958,"info":"直接查询获得"},{"name":"哈达镇","code":"210403104","level":4,"mergeName":"辽宁省,抚顺市,东洲区,哈达镇","lng":124.15631357765936,"lat":41.98354777675243,"info":"直接查询获得"},{"name":"碾盘乡","code":"210403202","level":4,"mergeName":"辽宁省,抚顺市,东洲区,碾盘乡","lng":124.07140502221183,"lat":41.78468102736864,"info":"直接查询获得"},{"name":"兰山乡","code":"210403215","level":4,"mergeName":"辽宁省,抚顺市,东洲区,兰山乡","lng":124.10935291980239,"lat":41.79024707392308,"info":"直接查询获得"},{"name":"望花区","code":"210404","level":3,"mergeName":"辽宁省,抚顺市,望花区","lng":123.79060415200058,"lat":41.85903036274879,"info":"直接查询获得"},{"name":"工农街道","code":"210404002","level":4,"mergeName":"辽宁省,抚顺市,望花区,工农街道","lng":123.79090229959934,"lat":41.85911894370846,"info":"直接查询获得"},{"name":"建设街道","code":"210404003","level":4,"mergeName":"辽宁省,抚顺市,望花区,建设街道","lng":123.79627003434366,"lat":41.85315191038293,"info":"直接查询获得"},{"name":"和平街道","code":"210404004","level":4,"mergeName":"辽宁省,抚顺市,望花区,和平街道","lng":123.81406825124341,"lat":41.85417783113998,"info":"直接查询获得"},{"name":"光明街道","code":"210404005","level":4,"mergeName":"辽宁省,抚顺市,望花区,光明街道","lng":123.82393353218454,"lat":41.85202582992795,"info":"直接查询获得"},{"name":"朴屯街道","code":"210404006","level":4,"mergeName":"辽宁省,抚顺市,望花区,朴屯街道","lng":123.82900338882175,"lat":41.8529592167723,"info":"直接查询获得"},{"name":"演武街道","code":"210404007","level":4,"mergeName":"辽宁省,抚顺市,望花区,演武街道","lng":123.84074514014267,"lat":41.84342045430992,"info":"直接查询获得"},{"name":"李石街道","code":"210404011","level":4,"mergeName":"辽宁省,抚顺市,望花区,李石街道","lng":123.74290626738787,"lat":41.87445143813029,"info":"直接查询获得"},{"name":"塔峪镇","code":"210404101","level":4,"mergeName":"辽宁省,抚顺市,望花区,塔峪镇","lng":123.88060708782574,"lat":41.80355946328096,"info":"直接查询获得"},{"name":"拉古满族乡","code":"210404201","level":4,"mergeName":"辽宁省,抚顺市,望花区,拉古满族乡","lng":123.82521622262223,"lat":41.73058976817871,"info":"直接查询获得"},{"name":"顺城区","code":"210411","level":3,"mergeName":"辽宁省,抚顺市,顺城区","lng":123.95141404337762,"lat":41.889163788466874,"info":"直接查询获得"},{"name":"长春街道","code":"210411002","level":4,"mergeName":"辽宁省,抚顺市,顺城区,长春街道","lng":123.96343058635405,"lat":41.88727537681514,"info":"直接查询获得"},{"name":"葛布街道","code":"210411003","level":4,"mergeName":"辽宁省,抚顺市,顺城区,葛布街道","lng":123.85857252502232,"lat":41.886120916795,"info":"直接查询获得"},{"name":"将军堡街道","code":"210411004","level":4,"mergeName":"辽宁省,抚顺市,顺城区,将军堡街道","lng":123.8892494156456,"lat":41.87748919836871,"info":"直接查询获得"},{"name":"新华街道","code":"210411005","level":4,"mergeName":"辽宁省,抚顺市,顺城区,新华街道","lng":123.93148199156948,"lat":41.88501245769658,"info":"直接查询获得"},{"name":"抚顺城街道","code":"210411007","level":4,"mergeName":"辽宁省,抚顺市,顺城区,抚顺城街道","lng":123.92431917292458,"lat":41.88573437190305,"info":"直接查询获得"},{"name":"前甸镇","code":"210411102","level":4,"mergeName":"辽宁省,抚顺市,顺城区,前甸镇","lng":124.00327977809889,"lat":41.90617729606871,"info":"直接查询获得"},{"name":"河北乡","code":"210411201","level":4,"mergeName":"辽宁省,抚顺市,顺城区,河北乡","lng":123.93842283892288,"lat":41.88959862802909,"info":"直接查询获得"},{"name":"会元乡","code":"210411205","level":4,"mergeName":"辽宁省,抚顺市,顺城区,会元乡","lng":123.88195688168503,"lat":41.98019023094146,"info":"直接查询获得"},{"name":"抚顺县","code":"210421","level":3,"mergeName":"辽宁省,抚顺市,抚顺县","lng":123.92159012078525,"lat":41.887037475382286,"info":"直接查询获得"},{"name":"石文镇","code":"210421101","level":4,"mergeName":"辽宁省,抚顺市,抚顺县,石文镇","lng":123.90599616594591,"lat":41.73499202066297,"info":"直接查询获得"},{"name":"后安镇","code":"210421102","level":4,"mergeName":"辽宁省,抚顺市,抚顺县,后安镇","lng":124.2250646712211,"lat":41.71480689662768,"info":"直接查询获得"},{"name":"上马镇","code":"210421105","level":4,"mergeName":"辽宁省,抚顺市,抚顺县,上马镇","lng":124.2053663638965,"lat":41.809690976664605,"info":"直接查询获得"},{"name":"救兵镇","code":"210421106","level":4,"mergeName":"辽宁省,抚顺市,抚顺县,救兵镇","lng":124.11111506643317,"lat":41.64472137718268,"info":"直接查询获得"},{"name":"马圈子乡","code":"210421204","level":4,"mergeName":"辽宁省,抚顺市,抚顺县,马圈子乡","lng":124.3788066050151,"lat":41.488512525996114,"info":"直接查询获得"},{"name":"峡河乡","code":"210421209","level":4,"mergeName":"辽宁省,抚顺市,抚顺县,峡河乡","lng":123.99201107445951,"lat":41.65676951244144,"info":"直接查询获得"},{"name":"海浪乡","code":"210421211","level":4,"mergeName":"辽宁省,抚顺市,抚顺县,海浪乡","lng":123.78592703453234,"lat":41.58322961342083,"info":"直接查询获得"},{"name":"汤图满族乡","code":"210421216","level":4,"mergeName":"辽宁省,抚顺市,抚顺县,汤图满族乡","lng":124.35174649898529,"lat":41.84052652273586,"info":"直接查询获得"},{"name":"新宾满族自治县","code":"210422","level":3,"mergeName":"辽宁省,抚顺市,新宾满族自治县","lng":125.04635620406488,"lat":41.73996877507051,"info":"直接查询获得"},{"name":"新宾镇","code":"210422100","level":4,"mergeName":"辽宁省,抚顺市,新宾满族自治县,新宾镇","lng":125.04263838705073,"lat":41.73884163115884,"info":"直接查询获得"},{"name":"旺清门镇","code":"210422101","level":4,"mergeName":"辽宁省,抚顺市,新宾满族自治县,旺清门镇","lng":125.30615747619993,"lat":41.68773205984258,"info":"直接查询获得"},{"name":"永陵镇","code":"210422102","level":4,"mergeName":"辽宁省,抚顺市,新宾满族自治县,永陵镇","lng":124.83890602111812,"lat":41.71715786051946,"info":"直接查询获得"},{"name":"平顶山镇","code":"210422103","level":4,"mergeName":"辽宁省,抚顺市,新宾满族自治县,平顶山镇","lng":124.77588728450718,"lat":41.420641915194075,"info":"直接查询获得"},{"name":"大四平镇","code":"210422104","level":4,"mergeName":"辽宁省,抚顺市,新宾满族自治县,大四平镇","lng":124.72623632202078,"lat":41.32397539538162,"info":"直接查询获得"},{"name":"苇子峪镇","code":"210422105","level":4,"mergeName":"辽宁省,抚顺市,新宾满族自治县,苇子峪镇","lng":124.5191841782455,"lat":41.443271239775015,"info":"直接查询获得"},{"name":"木奇镇","code":"210422106","level":4,"mergeName":"辽宁省,抚顺市,新宾满族自治县,木奇镇","lng":124.60374337998527,"lat":41.721516570657016,"info":"直接查询获得"},{"name":"上夹河镇","code":"210422108","level":4,"mergeName":"辽宁省,抚顺市,新宾满族自治县,上夹河镇","lng":124.49852584643254,"lat":41.859022975400094,"info":"直接查询获得"},{"name":"南杂木镇","code":"210422109","level":4,"mergeName":"辽宁省,抚顺市,新宾满族自治县,南杂木镇","lng":124.4223526832557,"lat":41.976038161585635,"info":"直接查询获得"},{"name":"红升乡","code":"210422202","level":4,"mergeName":"辽宁省,抚顺市,新宾满族自治县,红升乡","lng":125.14617142080608,"lat":41.714000583829645,"info":"直接查询获得"},{"name":"响水河子乡","code":"210422203","level":4,"mergeName":"辽宁省,抚顺市,新宾满族自治县,响水河子乡","lng":125.35986671348874,"lat":41.614534915327305,"info":"直接查询获得"},{"name":"红庙子乡","code":"210422204","level":4,"mergeName":"辽宁省,抚顺市,新宾满族自治县,红庙子乡","lng":125.15415520085656,"lat":41.54540688629254,"info":"直接查询获得"},{"name":"北四平乡","code":"210422205","level":4,"mergeName":"辽宁省,抚顺市,新宾满族自治县,北四平乡","lng":125.19443324365184,"lat":41.80517613093842,"info":"直接查询获得"},{"name":"榆树乡","code":"210422207","level":4,"mergeName":"辽宁省,抚顺市,新宾满族自治县,榆树乡","lng":124.83096095803513,"lat":41.652808630664985,"info":"直接查询获得"},{"name":"下夹河乡","code":"210422208","level":4,"mergeName":"辽宁省,抚顺市,新宾满族自治县,下夹河乡","lng":124.44506031942858,"lat":41.38763712638669,"info":"直接查询获得"},{"name":"清原满族自治县","code":"210423","level":3,"mergeName":"辽宁省,抚顺市,清原满族自治县","lng":124.9303602593252,"lat":42.10676099263425,"info":"直接查询获得"},{"name":"清原镇","code":"210423100","level":4,"mergeName":"辽宁省,抚顺市,清原满族自治县,清原镇","lng":124.92437547852607,"lat":42.09592621863627,"info":"直接查询获得"},{"name":"红透山镇","code":"210423101","level":4,"mergeName":"辽宁省,抚顺市,清原满族自治县,红透山镇","lng":124.5176325351381,"lat":42.001614613189474,"info":"直接查询获得"},{"name":"草市镇","code":"210423103","level":4,"mergeName":"辽宁省,抚顺市,清原满族自治县,草市镇","lng":125.23809691008368,"lat":42.303328929066424,"info":"直接查询获得"},{"name":"英额门镇","code":"210423104","level":4,"mergeName":"辽宁省,抚顺市,清原满族自治县,英额门镇","lng":125.09905960867418,"lat":42.18174592599916,"info":"直接查询获得"},{"name":"南口前镇","code":"210423105","level":4,"mergeName":"辽宁省,抚顺市,清原满族自治县,南口前镇","lng":124.61374897894198,"lat":41.99563519366012,"info":"直接查询获得"},{"name":"南山城镇","code":"210423106","level":4,"mergeName":"辽宁省,抚顺市,清原满族自治县,南山城镇","lng":125.28496492210019,"lat":42.11686165704972,"info":"直接查询获得"},{"name":"湾甸子镇","code":"210423107","level":4,"mergeName":"辽宁省,抚顺市,清原满族自治县,湾甸子镇","lng":125.12954019259435,"lat":41.96310957848686,"info":"直接查询获得"},{"name":"大孤家镇","code":"210423108","level":4,"mergeName":"辽宁省,抚顺市,清原满族自治县,大孤家镇","lng":124.85624466491896,"lat":42.384635683273544,"info":"直接查询获得"},{"name":"夏家堡镇","code":"210423109","level":4,"mergeName":"辽宁省,抚顺市,清原满族自治县,夏家堡镇","lng":124.7019967156312,"lat":42.261660011963855,"info":"直接查询获得"},{"name":"北三家镇","code":"210423110","level":4,"mergeName":"辽宁省,抚顺市,清原满族自治县,北三家镇","lng":124.71097069784533,"lat":42.045722000096596,"info":"直接查询获得"},{"name":"土口子乡","code":"210423203","level":4,"mergeName":"辽宁省,抚顺市,清原满族自治县,土口子乡","lng":125.0795118519632,"lat":42.330194853638965,"info":"直接查询获得"},{"name":"敖家堡乡","code":"210423206","level":4,"mergeName":"辽宁省,抚顺市,清原满族自治县,敖家堡乡","lng":124.78924077557411,"lat":41.91767873095151,"info":"直接查询获得"},{"name":"大苏河乡","code":"210423207","level":4,"mergeName":"辽宁省,抚顺市,清原满族自治县,大苏河乡","lng":124.96698974446116,"lat":41.92891041431165,"info":"直接查询获得"},{"name":"枸乃甸乡","code":"210423208","level":4,"mergeName":"辽宁省,抚顺市,清原满族自治县,枸乃甸乡","lng":124.9183504536401,"lat":42.201897361149676,"info":"直接查询获得"},{"name":"本溪市","code":"2105","level":2,"mergeName":"辽宁省,本溪市","lng":123.69250712420832,"lat":41.49291646055291,"info":"直接查询获得"},{"name":"平山区","code":"210502","level":3,"mergeName":"辽宁省,本溪市,平山区","lng":123.77461422409242,"lat":41.301604181773875,"info":"直接查询获得"},{"name":"南地街道","code":"210502001","level":4,"mergeName":"辽宁省,本溪市,平山区,南地街道","lng":123.76540299939312,"lat":41.28341314591415,"info":"直接查询获得"},{"name":"平山街道","code":"210502003","level":4,"mergeName":"辽宁省,本溪市,平山区,平山街道","lng":123.7888152161029,"lat":41.289049716833524,"info":"直接查询获得"},{"name":"东明街道","code":"210502004","level":4,"mergeName":"辽宁省,本溪市,平山区,东明街道","lng":123.77535775156304,"lat":41.30279626830489,"info":"直接查询获得"},{"name":"崔东街道","code":"210502005","level":4,"mergeName":"辽宁省,本溪市,平山区,崔东街道","lng":123.77500301071714,"lat":41.29323389258856,"info":"直接查询获得"},{"name":"站前街道","code":"210502007","level":4,"mergeName":"辽宁省,本溪市,平山区,站前街道","lng":123.76844331439163,"lat":41.29648216673821,"info":"直接查询获得"},{"name":"千金街道","code":"210502008","level":4,"mergeName":"辽宁省,本溪市,平山区,千金街道","lng":123.76284498462289,"lat":41.28095891240928,"info":"直接查询获得"},{"name":"桥北街道","code":"210502012","level":4,"mergeName":"辽宁省,本溪市,平山区,桥北街道","lng":123.77461422409242,"lat":41.301604181773875,"info":"直接查询获得"},{"name":"溪湖区","code":"210503","level":3,"mergeName":"辽宁省,本溪市,溪湖区","lng":123.77461054103982,"lat":41.33480293136358,"info":"直接查询获得"},{"name":"河东街道","code":"210503001","level":4,"mergeName":"辽宁省,本溪市,溪湖区,河东街道","lng":123.77178824478858,"lat":41.33549898228777,"info":"直接查询获得"},{"name":"河西街道","code":"210503003","level":4,"mergeName":"辽宁省,本溪市,溪湖区,河西街道","lng":123.7519059591057,"lat":41.34121890989599,"info":"直接查询获得"},{"name":"彩屯街道","code":"210503005","level":4,"mergeName":"辽宁省,本溪市,溪湖区,彩屯街道","lng":123.74521924238105,"lat":41.309521793727484,"info":"直接查询获得"},{"name":"东风街道","code":"210503009","level":4,"mergeName":"辽宁省,本溪市,溪湖区,东风街道","lng":123.72536417535512,"lat":41.322986526680744,"info":"直接查询获得"},{"name":"石桥子街道","code":"210503010","level":4,"mergeName":"辽宁省,本溪市,溪湖区,石桥子街道","lng":123.73200741409306,"lat":41.4597822518389,"info":"直接查询获得"},{"name":"日月岛街道","code":"210503011","level":4,"mergeName":"辽宁省,本溪市,溪湖区,日月岛街道","lng":123.77461054103982,"lat":41.33480293136358,"info":"直接查询获得"},{"name":"火连寨街道","code":"210503013","level":4,"mergeName":"辽宁省,本溪市,溪湖区,火连寨街道","lng":123.71437323137266,"lat":41.37821157356447,"info":"直接查询获得"},{"name":"明山区","code":"210504","level":3,"mergeName":"辽宁省,本溪市,明山区","lng":123.82347449806893,"lat":41.31493936887711,"info":"直接查询获得"},{"name":"北地街道","code":"210504002","level":4,"mergeName":"辽宁省,本溪市,明山区,北地街道","lng":123.77067446453253,"lat":41.31089091600151,"info":"直接查询获得"},{"name":"高峪街道","code":"210504004","level":4,"mergeName":"辽宁省,本溪市,明山区,高峪街道","lng":123.80330691055606,"lat":41.31142799418526,"info":"直接查询获得"},{"name":"明山街道","code":"210504005","level":4,"mergeName":"辽宁省,本溪市,明山区,明山街道","lng":123.77716586089352,"lat":41.314345302810956,"info":"直接查询获得"},{"name":"新明街道","code":"210504008","level":4,"mergeName":"辽宁省,本溪市,明山区,新明街道","lng":123.83487686956819,"lat":41.31473197805987,"info":"直接查询获得"},{"name":"牛心台街道","code":"210504009","level":4,"mergeName":"辽宁省,本溪市,明山区,牛心台街道","lng":123.91385750695537,"lat":41.353671112786856,"info":"直接查询获得"},{"name":"卧龙街道","code":"210504010","level":4,"mergeName":"辽宁省,本溪市,明山区,卧龙街道","lng":123.86175982975145,"lat":41.33321099139421,"info":"直接查询获得"},{"name":"高台子街道","code":"210504011","level":4,"mergeName":"辽宁省,本溪市,明山区,高台子街道","lng":123.81349468317529,"lat":41.38889670054613,"info":"直接查询获得"},{"name":"南芬区","code":"210505","level":3,"mergeName":"辽宁省,本溪市,南芬区","lng":123.75146713686405,"lat":41.107095723220134,"info":"直接查询获得"},{"name":"南芬街道","code":"210505001","level":4,"mergeName":"辽宁省,本溪市,南芬区,南芬街道","lng":123.75928005920655,"lat":41.114003722854356,"info":"直接查询获得"},{"name":"思山岭街道","code":"210505004","level":4,"mergeName":"辽宁省,本溪市,南芬区,思山岭街道","lng":123.81279274724979,"lat":41.19941168289661,"info":"直接查询获得"},{"name":"下马塘街道","code":"210505005","level":4,"mergeName":"辽宁省,本溪市,南芬区,下马塘街道","lng":123.74801782336685,"lat":41.03706356979647,"info":"直接查询获得"},{"name":"本溪满族自治县","code":"210521","level":3,"mergeName":"辽宁省,本溪市,本溪满族自治县","lng":124.12758486914475,"lat":41.30790288135311,"info":"直接查询获得"},{"name":"观音阁街道","code":"210521001","level":4,"mergeName":"辽宁省,本溪市,本溪满族自治县,观音阁街道","lng":124.12885067143887,"lat":41.30900625242948,"info":"直接查询获得"},{"name":"小市镇","code":"210521100","level":4,"mergeName":"辽宁省,本溪市,本溪满族自治县,小市镇","lng":124.12871296120419,"lat":41.30400289737709,"info":"直接查询获得"},{"name":"草河掌镇","code":"210521101","level":4,"mergeName":"辽宁省,本溪市,本溪满族自治县,草河掌镇","lng":124.05480837876223,"lat":41.07583546980047,"info":"直接查询获得"},{"name":"草河城镇","code":"210521102","level":4,"mergeName":"辽宁省,本溪市,本溪满族自治县,草河城镇","lng":124.0505288513127,"lat":40.89523887240996,"info":"直接查询获得"},{"name":"草河口镇","code":"210521103","level":4,"mergeName":"辽宁省,本溪市,本溪满族自治县,草河口镇","lng":123.91595415201566,"lat":40.8787470225172,"info":"直接查询获得"},{"name":"连山关镇","code":"210521104","level":4,"mergeName":"辽宁省,本溪市,本溪满族自治县,连山关镇","lng":123.76067683444401,"lat":40.982708879299935,"info":"直接查询获得"},{"name":"清河城镇","code":"210521106","level":4,"mergeName":"辽宁省,本溪市,本溪满族自治县,清河城镇","lng":124.23769098397771,"lat":41.462617987321174,"info":"直接查询获得"},{"name":"田师傅镇","code":"210521109","level":4,"mergeName":"辽宁省,本溪市,本溪满族自治县,田师傅镇","lng":124.36347782996229,"lat":41.26657188770282,"info":"直接查询获得"},{"name":"南甸镇","code":"210521110","level":4,"mergeName":"辽宁省,本溪市,本溪满族自治县,南甸镇","lng":124.12758486914475,"lat":41.30790288135311,"info":"直接查询获得"},{"name":"碱厂镇","code":"210521111","level":4,"mergeName":"辽宁省,本溪市,本溪满族自治县,碱厂镇","lng":124.48150502312112,"lat":41.25468214212917,"info":"直接查询获得"},{"name":"高官镇","code":"210521112","level":4,"mergeName":"辽宁省,本溪市,本溪满族自治县,高官镇","lng":123.9766786163541,"lat":41.41383665617967,"info":"直接查询获得"},{"name":"东营房乡","code":"210521202","level":4,"mergeName":"辽宁省,本溪市,本溪满族自治县,东营房乡","lng":124.12758486914475,"lat":41.30790288135311,"info":"直接查询获得"},{"name":"桓仁满族自治县","code":"210522","level":3,"mergeName":"辽宁省,本溪市,桓仁满族自治县","lng":125.36754435102144,"lat":41.27292530103041,"info":"直接查询获得"},{"name":"八卦城街道","code":"210522001","level":4,"mergeName":"辽宁省,本溪市,桓仁满族自治县,八卦城街道","lng":125.14484595575492,"lat":41.407030257945394,"info":"直接查询获得"},{"name":"桓仁镇","code":"210522100","level":4,"mergeName":"辽宁省,本溪市,桓仁满族自治县,桓仁镇","lng":125.36759402731614,"lat":41.27308490947888,"info":"直接查询获得"},{"name":"普乐堡镇","code":"210522101","level":4,"mergeName":"辽宁省,本溪市,桓仁满族自治县,普乐堡镇","lng":125.17603019765224,"lat":41.18853354246211,"info":"直接查询获得"},{"name":"二棚甸子镇","code":"210522102","level":4,"mergeName":"辽宁省,本溪市,桓仁满族自治县,二棚甸子镇","lng":125.51345952856809,"lat":41.18679949451892,"info":"直接查询获得"},{"name":"沙尖子镇","code":"210522103","level":4,"mergeName":"辽宁省,本溪市,桓仁满族自治县,沙尖子镇","lng":125.49350106657796,"lat":41.02171510609849,"info":"直接查询获得"},{"name":"五里甸子镇","code":"210522104","level":4,"mergeName":"辽宁省,本溪市,桓仁满族自治县,五里甸子镇","lng":125.57023216730705,"lat":41.01223699797704,"info":"直接查询获得"},{"name":"八里甸子镇","code":"210522108","level":4,"mergeName":"辽宁省,本溪市,桓仁满族自治县,八里甸子镇","lng":124.89838004418668,"lat":41.246504922438476,"info":"直接查询获得"},{"name":"华来镇","code":"210522110","level":4,"mergeName":"辽宁省,本溪市,桓仁满族自治县,华来镇","lng":125.12378798309176,"lat":41.377790925792546,"info":"直接查询获得"},{"name":"古城镇","code":"210522111","level":4,"mergeName":"辽宁省,本溪市,桓仁满族自治县,古城镇","lng":125.4733607875526,"lat":41.48464060509501,"info":"直接查询获得"},{"name":"雅河朝鲜族乡","code":"210522201","level":4,"mergeName":"辽宁省,本溪市,桓仁满族自治县,雅河朝鲜族乡","lng":125.32374360316877,"lat":41.21752427983808,"info":"直接查询获得"},{"name":"向阳乡","code":"210522202","level":4,"mergeName":"辽宁省,本溪市,桓仁满族自治县,向阳乡","lng":125.38721840948712,"lat":41.111900458833745,"info":"直接查询获得"},{"name":"黑沟乡","code":"210522206","level":4,"mergeName":"辽宁省,本溪市,桓仁满族自治县,黑沟乡","lng":125.38441650477094,"lat":41.39158923015282,"info":"直接查询获得"},{"name":"北甸子乡","code":"210522208","level":4,"mergeName":"辽宁省,本溪市,桓仁满族自治县,北甸子乡","lng":125.57005151806898,"lat":41.3758001362858,"info":"直接查询获得"},{"name":"丹东市","code":"2106","level":2,"mergeName":"辽宁省,丹东市","lng":124.36154728159079,"lat":40.00640870559368,"info":"直接查询获得"},{"name":"元宝区","code":"210602","level":3,"mergeName":"辽宁省,丹东市,元宝区","lng":124.40258403321981,"lat":40.14225146313862,"info":"直接查询获得"},{"name":"七道街道","code":"210602002","level":4,"mergeName":"辽宁省,丹东市,元宝区,七道街道","lng":124.39371820698908,"lat":40.14263637693318,"info":"直接查询获得"},{"name":"广济街道","code":"210602003","level":4,"mergeName":"辽宁省,丹东市,元宝区,广济街道","lng":124.40226540425542,"lat":40.14232585377825,"info":"直接查询获得"},{"name":"九道街道","code":"210602004","level":4,"mergeName":"辽宁省,丹东市,元宝区,九道街道","lng":124.41137098822676,"lat":40.157817035679294,"info":"直接查询获得"},{"name":"兴东街道","code":"210602006","level":4,"mergeName":"辽宁省,丹东市,元宝区,兴东街道","lng":124.4171815875875,"lat":40.1460564493938,"info":"直接查询获得"},{"name":"金山镇","code":"210602101","level":4,"mergeName":"辽宁省,丹东市,元宝区,金山镇","lng":124.38565097435674,"lat":40.19024007249598,"info":"直接查询获得"},{"name":"振兴区","code":"210603","level":3,"mergeName":"辽宁省,丹东市,振兴区","lng":124.36657851109108,"lat":40.11071947221632,"info":"直接查询获得"},{"name":"站前街道","code":"210603002","level":4,"mergeName":"辽宁省,丹东市,振兴区,站前街道","lng":124.3897179627226,"lat":40.13688705422548,"info":"直接查询获得"},{"name":"临江街道","code":"210603003","level":4,"mergeName":"辽宁省,丹东市,振兴区,临江街道","lng":124.38639027979143,"lat":40.124638427216134,"info":"直接查询获得"},{"name":"帽盔山街道","code":"210603005","level":4,"mergeName":"辽宁省,丹东市,振兴区,帽盔山街道","lng":124.36316557896703,"lat":40.11229025210019,"info":"直接查询获得"},{"name":"纤维街道","code":"210603006","level":4,"mergeName":"辽宁省,丹东市,振兴区,纤维街道","lng":124.3662532346659,"lat":40.102834740177855,"info":"直接查询获得"},{"name":"永昌街道","code":"210603007","level":4,"mergeName":"辽宁省,丹东市,振兴区,永昌街道","lng":124.38188437935338,"lat":40.122645116958964,"info":"直接查询获得"},{"name":"花园街道","code":"210603008","level":4,"mergeName":"辽宁省,丹东市,振兴区,花园街道","lng":124.37054342590017,"lat":40.124916272567944,"info":"直接查询获得"},{"name":"江海街道","code":"210603009","level":4,"mergeName":"辽宁省,丹东市,振兴区,江海街道","lng":124.36098242708611,"lat":40.00662742154572,"info":"直接查询获得"},{"name":"浪头镇","code":"210603101","level":4,"mergeName":"辽宁省,丹东市,振兴区,浪头镇","lng":124.34120766857276,"lat":40.04632012462413,"info":"直接查询获得"},{"name":"安民镇","code":"210603102","level":4,"mergeName":"辽宁省,丹东市,振兴区,安民镇","lng":124.3123689176332,"lat":40.00302314680007,"info":"直接查询获得"},{"name":"汤池镇","code":"210603103","level":4,"mergeName":"辽宁省,丹东市,振兴区,汤池镇","lng":124.30484408186776,"lat":40.07087560556329,"info":"直接查询获得"},{"name":"振安区","code":"210604","level":3,"mergeName":"辽宁省,丹东市,振安区","lng":124.43438692285066,"lat":40.16469702566065,"info":"直接查询获得"},{"name":"鸭绿江街道","code":"210604001","level":4,"mergeName":"辽宁省,丹东市,振安区,鸭绿江街道","lng":124.43867696047467,"lat":40.16681707527943,"info":"直接查询获得"},{"name":"金矿街道","code":"210604003","level":4,"mergeName":"辽宁省,丹东市,振安区,金矿街道","lng":124.20736149504432,"lat":40.17067628884189,"info":"直接查询获得"},{"name":"珍珠街道","code":"210604004","level":4,"mergeName":"辽宁省,丹东市,振安区,珍珠街道","lng":124.42326419385665,"lat":40.15358009442049,"info":"直接查询获得"},{"name":"太平湾街道","code":"210604005","level":4,"mergeName":"辽宁省,丹东市,振安区,太平湾街道","lng":124.73541466873843,"lat":40.34285216327752,"info":"直接查询获得"},{"name":"同兴镇","code":"210604102","level":4,"mergeName":"辽宁省,丹东市,振安区,同兴镇","lng":124.28897852795068,"lat":40.12640958435963,"info":"直接查询获得"},{"name":"五龙背镇","code":"210604104","level":4,"mergeName":"辽宁省,丹东市,振安区,五龙背镇","lng":124.27519973054684,"lat":40.26468362604171,"info":"直接查询获得"},{"name":"楼房镇","code":"210604105","level":4,"mergeName":"辽宁省,丹东市,振安区,楼房镇","lng":124.41682839003049,"lat":40.269542958914386,"info":"直接查询获得"},{"name":"九连城镇","code":"210604106","level":4,"mergeName":"辽宁省,丹东市,振安区,九连城镇","lng":124.47494299120129,"lat":40.20892503638411,"info":"直接查询获得"},{"name":"汤山城镇","code":"210604107","level":4,"mergeName":"辽宁省,丹东市,振安区,汤山城镇","lng":124.21584581092496,"lat":40.31827934740342,"info":"直接查询获得"},{"name":"宽甸满族自治县","code":"210624","level":3,"mergeName":"辽宁省,丹东市,宽甸满族自治县","lng":124.79042662867784,"lat":40.737553200489806,"info":"直接查询获得"},{"name":"宽甸镇","code":"210624100","level":4,"mergeName":"辽宁省,丹东市,宽甸满族自治县,宽甸镇","lng":124.79442902887753,"lat":40.73830798615149,"info":"直接查询获得"},{"name":"灌水镇","code":"210624101","level":4,"mergeName":"辽宁省,丹东市,宽甸满族自治县,灌水镇","lng":124.58749123939367,"lat":40.88260284804496,"info":"直接查询获得"},{"name":"硼海镇","code":"210624102","level":4,"mergeName":"辽宁省,丹东市,宽甸满族自治县,硼海镇","lng":124.94369479614586,"lat":40.80316261919112,"info":"直接查询获得"},{"name":"红石镇","code":"210624103","level":4,"mergeName":"辽宁省,丹东市,宽甸满族自治县,红石镇","lng":125.02373022386286,"lat":40.67131632779367,"info":"直接查询获得"},{"name":"毛甸子镇","code":"210624104","level":4,"mergeName":"辽宁省,丹东市,宽甸满族自治县,毛甸子镇","lng":124.56453315564461,"lat":40.61003656159136,"info":"直接查询获得"},{"name":"长甸镇","code":"210624105","level":4,"mergeName":"辽宁省,丹东市,宽甸满族自治县,长甸镇","lng":124.8246744364152,"lat":40.491009845857704,"info":"直接查询获得"},{"name":"永甸镇","code":"210624106","level":4,"mergeName":"辽宁省,丹东市,宽甸满族自治县,永甸镇","lng":124.8376449798432,"lat":40.56188798612964,"info":"直接查询获得"},{"name":"太平哨镇","code":"210624108","level":4,"mergeName":"辽宁省,丹东市,宽甸满族自治县,太平哨镇","lng":125.17149114974086,"lat":40.87894721382765,"info":"直接查询获得"},{"name":"青山沟镇","code":"210624109","level":4,"mergeName":"辽宁省,丹东市,宽甸满族自治县,青山沟镇","lng":125.19888794067583,"lat":41.008057386536805,"info":"直接查询获得"},{"name":"牛毛坞镇","code":"210624110","level":4,"mergeName":"辽宁省,丹东市,宽甸满族自治县,牛毛坞镇","lng":125.01290995433408,"lat":40.978981550668756,"info":"直接查询获得"},{"name":"大川头镇","code":"210624111","level":4,"mergeName":"辽宁省,丹东市,宽甸满族自治县,大川头镇","lng":124.80072192846659,"lat":40.836675113329825,"info":"直接查询获得"},{"name":"青椅山镇","code":"210624112","level":4,"mergeName":"辽宁省,丹东市,宽甸满族自治县,青椅山镇","lng":124.62823038240722,"lat":40.68439708969811,"info":"直接查询获得"},{"name":"杨木川镇","code":"210624113","level":4,"mergeName":"辽宁省,丹东市,宽甸满族自治县,杨木川镇","lng":124.4848788789555,"lat":40.50727278050443,"info":"直接查询获得"},{"name":"虎山镇","code":"210624114","level":4,"mergeName":"辽宁省,丹东市,宽甸满族自治县,虎山镇","lng":124.55064382534098,"lat":40.34679949246123,"info":"直接查询获得"},{"name":"振江镇","code":"210624115","level":4,"mergeName":"辽宁省,丹东市,宽甸满族自治县,振江镇","lng":125.43973442756705,"lat":40.76529140213572,"info":"直接查询获得"},{"name":"步达远镇","code":"210624116","level":4,"mergeName":"辽宁省,丹东市,宽甸满族自治县,步达远镇","lng":125.34796632141476,"lat":40.94111934069573,"info":"直接查询获得"},{"name":"大西岔镇","code":"210624117","level":4,"mergeName":"辽宁省,丹东市,宽甸满族自治县,大西岔镇","lng":125.20099725184382,"lat":40.715540426976645,"info":"直接查询获得"},{"name":"八河川镇","code":"210624118","level":4,"mergeName":"辽宁省,丹东市,宽甸满族自治县,八河川镇","lng":124.82477953815986,"lat":41.03559002395467,"info":"直接查询获得"},{"name":"双山子镇","code":"210624119","level":4,"mergeName":"辽宁省,丹东市,宽甸满族自治县,双山子镇","lng":124.65485885263952,"lat":40.961783256630376,"info":"直接查询获得"},{"name":"石湖沟乡","code":"210624201","level":4,"mergeName":"辽宁省,丹东市,宽甸满族自治县,石湖沟乡","lng":124.82189570798118,"lat":40.735931331923084,"info":"直接查询获得"},{"name":"古楼子乡","code":"210624206","level":4,"mergeName":"辽宁省,丹东市,宽甸满族自治县,古楼子乡","lng":124.66632742925485,"lat":40.32334422320537,"info":"直接查询获得"},{"name":"下露河朝鲜族乡","code":"210624212","level":4,"mergeName":"辽宁省,丹东市,宽甸满族自治县,下露河朝鲜族乡","lng":125.52413247599326,"lat":40.89988190556379,"info":"直接查询获得"},{"name":"东港市","code":"210681","level":3,"mergeName":"辽宁省,丹东市,东港市","lng":124.15961035888098,"lat":39.8677161872864,"info":"直接查询获得"},{"name":"大东街道","code":"210681001","level":4,"mergeName":"辽宁省,丹东市,东港市,大东街道","lng":124.14935031129535,"lat":39.88638244260291,"info":"直接查询获得"},{"name":"新兴街道","code":"210681002","level":4,"mergeName":"辽宁省,丹东市,东港市,新兴街道","lng":124.17934451398527,"lat":39.89266939759575,"info":"直接查询获得"},{"name":"新城街道","code":"210681003","level":4,"mergeName":"辽宁省,丹东市,东港市,新城街道","lng":124.12803797444398,"lat":39.893467531077725,"info":"直接查询获得"},{"name":"孤山镇","code":"210681101","level":4,"mergeName":"辽宁省,丹东市,东港市,孤山镇","lng":123.58030166939854,"lat":39.88810150513224,"info":"直接查询获得"},{"name":"前阳镇","code":"210681104","level":4,"mergeName":"辽宁省,丹东市,东港市,前阳镇","lng":124.16272756883114,"lat":39.93971378447591,"info":"直接查询获得"},{"name":"长安镇","code":"210681105","level":4,"mergeName":"辽宁省,丹东市,东港市,长安镇","lng":124.10536285693057,"lat":40.13694600609372,"info":"直接查询获得"},{"name":"十字街镇","code":"210681106","level":4,"mergeName":"辽宁省,丹东市,东港市,十字街镇","lng":124.11489711229127,"lat":40.00448693158945,"info":"直接查询获得"},{"name":"长山镇","code":"210681107","level":4,"mergeName":"辽宁省,丹东市,东港市,长山镇","lng":124.02816347133573,"lat":39.90356411222148,"info":"直接查询获得"},{"name":"北井子镇","code":"210681108","level":4,"mergeName":"辽宁省,丹东市,东港市,北井子镇","lng":123.89199418813132,"lat":39.91917862151985,"info":"直接查询获得"},{"name":"椅圈镇","code":"210681109","level":4,"mergeName":"辽宁省,丹东市,东港市,椅圈镇","lng":123.77640023510736,"lat":39.883947237800385,"info":"直接查询获得"},{"name":"黄土坎镇","code":"210681110","level":4,"mergeName":"辽宁省,丹东市,东港市,黄土坎镇","lng":123.66948049974884,"lat":39.929137516280626,"info":"直接查询获得"},{"name":"马家店镇","code":"210681113","level":4,"mergeName":"辽宁省,丹东市,东港市,马家店镇","lng":123.88766210980945,"lat":39.97434633230965,"info":"直接查询获得"},{"name":"龙王庙镇","code":"210681114","level":4,"mergeName":"辽宁省,丹东市,东港市,龙王庙镇","lng":123.75362190229085,"lat":40.02727403793026,"info":"直接查询获得"},{"name":"小甸子镇","code":"210681115","level":4,"mergeName":"辽宁省,丹东市,东港市,小甸子镇","lng":123.64858402714518,"lat":39.99150713926252,"info":"直接查询获得"},{"name":"菩萨庙镇","code":"210681117","level":4,"mergeName":"辽宁省,丹东市,东港市,菩萨庙镇","lng":123.53914113127024,"lat":39.85703199066957,"info":"直接查询获得"},{"name":"黑沟镇","code":"210681118","level":4,"mergeName":"辽宁省,丹东市,东港市,黑沟镇","lng":123.61748127682881,"lat":40.08815981894155,"info":"直接查询获得"},{"name":"新农镇","code":"210681119","level":4,"mergeName":"辽宁省,丹东市,东港市,新农镇","lng":123.47444831251092,"lat":39.96174982220325,"info":"直接查询获得"},{"name":"合隆满族乡","code":"210681206","level":4,"mergeName":"辽宁省,丹东市,东港市,合隆满族乡","lng":123.9827329259997,"lat":40.035930282154474,"info":"直接查询获得"},{"name":"示范农场","code":"210681401","level":4,"mergeName":"辽宁省,丹东市,东港市,示范农场","lng":124.15961035888098,"lat":39.8677161872864,"info":"直接查询获得"},{"name":"黄土坎农场","code":"210681402","level":4,"mergeName":"辽宁省,丹东市,东港市,黄土坎农场","lng":123.6921590793317,"lat":39.84987056505502,"info":"直接查询获得"},{"name":"海洋红农场","code":"210681403","level":4,"mergeName":"辽宁省,丹东市,东港市,海洋红农场","lng":124.15961035888098,"lat":39.8677161872864,"info":"直接查询获得"},{"name":"兴隆农场","code":"210681404","level":4,"mergeName":"辽宁省,丹东市,东港市,兴隆农场","lng":124.15961035888098,"lat":39.8677161872864,"info":"直接查询获得"},{"name":"五四农场","code":"210681405","level":4,"mergeName":"辽宁省,丹东市,东港市,五四农场","lng":124.15961035888098,"lat":39.8677161872864,"info":"直接查询获得"},{"name":"凤城市","code":"210682","level":3,"mergeName":"辽宁省,丹东市,凤城市","lng":124.07242172438802,"lat":40.45918048245619,"info":"直接查询获得"},{"name":"凤凰城街道","code":"210682001","level":4,"mergeName":"辽宁省,丹东市,凤城市,凤凰城街道","lng":124.07336171127366,"lat":40.45926056064674,"info":"直接查询获得"},{"name":"凤山街道","code":"210682002","level":4,"mergeName":"辽宁省,丹东市,凤城市,凤山街道","lng":124.07336171127366,"lat":40.45926056064674,"info":"直接查询获得"},{"name":"草河街道","code":"210682003","level":4,"mergeName":"辽宁省,丹东市,凤城市,草河街道","lng":124.13842032003666,"lat":40.47736866082036,"info":"直接查询获得"},{"name":"宝山镇","code":"210682101","level":4,"mergeName":"辽宁省,丹东市,凤城市,宝山镇","lng":123.87947396525546,"lat":40.3727885036764,"info":"直接查询获得"},{"name":"白旗镇","code":"210682102","level":4,"mergeName":"辽宁省,丹东市,凤城市,白旗镇","lng":123.85840519765497,"lat":40.31909721816729,"info":"直接查询获得"},{"name":"沙里寨镇","code":"210682103","level":4,"mergeName":"辽宁省,丹东市,凤城市,沙里寨镇","lng":123.70294929694795,"lat":40.19495149800079,"info":"直接查询获得"},{"name":"红旗镇","code":"210682104","level":4,"mergeName":"辽宁省,丹东市,凤城市,红旗镇","lng":123.88957711749562,"lat":40.14336793459891,"info":"直接查询获得"},{"name":"蓝旗镇","code":"210682105","level":4,"mergeName":"辽宁省,丹东市,凤城市,蓝旗镇","lng":123.79446821315175,"lat":40.10648405414154,"info":"直接查询获得"},{"name":"边门镇","code":"210682107","level":4,"mergeName":"辽宁省,丹东市,凤城市,边门镇","lng":124.1101685219173,"lat":40.349226599046595,"info":"直接查询获得"},{"name":"东汤镇","code":"210682110","level":4,"mergeName":"辽宁省,丹东市,凤城市,东汤镇","lng":124.31269051100577,"lat":40.4249264711025,"info":"直接查询获得"},{"name":"石城镇","code":"210682111","level":4,"mergeName":"辽宁省,丹东市,凤城市,石城镇","lng":124.32048726384907,"lat":40.64651098735993,"info":"直接查询获得"},{"name":"大兴镇","code":"210682112","level":4,"mergeName":"辽宁省,丹东市,凤城市,大兴镇","lng":124.24756973950149,"lat":40.74154938017213,"info":"直接查询获得"},{"name":"爱阳镇","code":"210682113","level":4,"mergeName":"辽宁省,丹东市,凤城市,爱阳镇","lng":124.45619858910788,"lat":40.90916017123297,"info":"直接查询获得"},{"name":"赛马镇","code":"210682114","level":4,"mergeName":"辽宁省,丹东市,凤城市,赛马镇","lng":124.26374301156423,"lat":40.983041979816065,"info":"直接查询获得"},{"name":"弟兄山镇","code":"210682115","level":4,"mergeName":"辽宁省,丹东市,凤城市,弟兄山镇","lng":124.09032800744062,"lat":40.80412355830233,"info":"直接查询获得"},{"name":"鸡冠山镇","code":"210682116","level":4,"mergeName":"辽宁省,丹东市,凤城市,鸡冠山镇","lng":123.93266613789274,"lat":40.530239823376014,"info":"直接查询获得"},{"name":"刘家河镇","code":"210682117","level":4,"mergeName":"辽宁省,丹东市,凤城市,刘家河镇","lng":123.99414230428194,"lat":40.674711003191334,"info":"直接查询获得"},{"name":"通远堡镇","code":"210682118","level":4,"mergeName":"辽宁省,丹东市,凤城市,通远堡镇","lng":123.93194641551814,"lat":40.802190470670574,"info":"直接查询获得"},{"name":"四门子镇","code":"210682119","level":4,"mergeName":"辽宁省,丹东市,凤城市,四门子镇","lng":123.823786389742,"lat":40.739912030766355,"info":"直接查询获得"},