[{"name":"河南省","code":"41","level":1,"mergeName":"河南省,河南省","lng":113.75938408486323,"lat":34.771712921931496,"info":"直接查询获得"},{"name":"郑州市","code":"4101","level":2,"mergeName":"河南省,郑州市","lng":113.63141920733915,"lat":34.75343885045448,"info":"直接查询获得"},{"name":"中原区","code":"410102","level":3,"mergeName":"河南省,郑州市,中原区","lng":113.61947551693957,"lat":34.754450781329176,"info":"直接查询获得"},{"name":"林山寨街道","code":"410102001","level":4,"mergeName":"河南省,郑州市,中原区,林山寨街道","lng":113.63155727689603,"lat":34.75260967766173,"info":"直接查询获得"},{"name":"建设路街道","code":"410102002","level":4,"mergeName":"河南省,郑州市,中原区,建设路街道","lng":113.61891156074041,"lat":34.7602477147565,"info":"直接查询获得"},{"name":"棉纺路街道","code":"410102003","level":4,"mergeName":"河南省,郑州市,中原区,棉纺路街道","lng":113.62497485344112,"lat":34.76274394630842,"info":"直接查询获得"},{"name":"秦岭路街道","code":"410102004","level":4,"mergeName":"河南省,郑州市,中原区,秦岭路街道","lng":113.61019754814087,"lat":34.765463247006664,"info":"直接查询获得"},{"name":"桐柏路街道","code":"410102005","level":4,"mergeName":"河南省,郑州市,中原区,桐柏路街道","lng":113.62621716684275,"lat":34.77812762773731,"info":"直接查询获得"},{"name":"三官庙街道","code":"410102006","level":4,"mergeName":"河南省,郑州市,中原区,三官庙街道","lng":113.60321187534254,"lat":34.76335520375546,"info":"直接查询获得"},{"name":"绿东村街道","code":"410102007","level":4,"mergeName":"河南省,郑州市,中原区,绿东村街道","lng":113.61823001635001,"lat":34.746397992029564,"info":"直接查询获得"},{"name":"汝河路街道","code":"410102008","level":4,"mergeName":"河南省,郑州市,中原区,汝河路街道","lng":113.61858765602777,"lat":34.72975278947389,"info":"直接查询获得"},{"name":"航海西路街道","code":"410102009","level":4,"mergeName":"河南省,郑州市,中原区,航海西路街道","lng":113.61324433093907,"lat":34.739302689030616,"info":"直接查询获得"},{"name":"中原西路街道","code":"410102010","level":4,"mergeName":"河南省,郑州市,中原区,中原西路街道","lng":113.60420865489913,"lat":34.76488313152506,"info":"直接查询获得"},{"name":"西流湖街道","code":"410102011","level":4,"mergeName":"河南省,郑州市,中原区,西流湖街道","lng":113.5698126069899,"lat":34.76874482141243,"info":"直接查询获得"},{"name":"须水街道","code":"410102012","level":4,"mergeName":"河南省,郑州市,中原区,须水街道","lng":113.51071048240247,"lat":34.75533895389734,"info":"直接查询获得"},{"name":"莲湖街道","code":"410102013","level":4,"mergeName":"河南省,郑州市,中原区,莲湖街道","lng":113.61947551693957,"lat":34.754450781329176,"info":"直接查询获得"},{"name":"柳湖街道","code":"410102014","level":4,"mergeName":"河南省,郑州市,中原区,柳湖街道","lng":113.61947551693957,"lat":34.754450781329176,"info":"直接查询获得"},{"name":"二七区","code":"410103","level":3,"mergeName":"河南省,郑州市,二七区","lng":113.63141920733915,"lat":34.75343885045448,"info":"直接查询获得"},{"name":"淮河路街道","code":"410103001","level":4,"mergeName":"河南省,郑州市,二七区,淮河路街道","lng":113.64497113409323,"lat":34.73788833051093,"info":"直接查询获得"},{"name":"解放路街道","code":"410103002","level":4,"mergeName":"河南省,郑州市,二七区,解放路街道","lng":113.67009332564638,"lat":34.759886581515175,"info":"直接查询获得"},{"name":"铭功路街道","code":"410103003","level":4,"mergeName":"河南省,郑州市,二七区,铭功路街道","lng":113.66595599995907,"lat":34.76121196457999,"info":"直接查询获得"},{"name":"一马路街道","code":"410103004","level":4,"mergeName":"河南省,郑州市,二七区,一马路街道","lng":113.66925986970946,"lat":34.75144672601336,"info":"直接查询获得"},{"name":"蜜蜂张街道","code":"410103005","level":4,"mergeName":"河南省,郑州市,二七区,蜜蜂张街道","lng":113.66035326849334,"lat":34.753915826758366,"info":"直接查询获得"},{"name":"五里堡街道","code":"410103006","level":4,"mergeName":"河南省,郑州市,二七区,五里堡街道","lng":113.6531979956147,"lat":34.76226294390779,"info":"直接查询获得"},{"name":"大学路街道","code":"410103007","level":4,"mergeName":"河南省,郑州市,二七区,大学路街道","lng":113.64295635071576,"lat":34.74795867995713,"info":"直接查询获得"},{"name":"建中街街道","code":"410103008","level":4,"mergeName":"河南省,郑州市,二七区,建中街街道","lng":113.65368101448743,"lat":34.741324959760796,"info":"直接查询获得"},{"name":"福华街街道","code":"410103009","level":4,"mergeName":"河南省,郑州市,二七区,福华街街道","lng":113.66308303927705,"lat":34.73695094856707,"info":"直接查询获得"},{"name":"德化街街道","code":"410103010","level":4,"mergeName":"河南省,郑州市,二七区,德化街街道","lng":113.67250729353484,"lat":34.75657128926767,"info":"直接查询获得"},{"name":"嵩山路街道","code":"410103011","level":4,"mergeName":"河南省,郑州市,二七区,嵩山路街道","lng":113.63265994690953,"lat":34.69408266884003,"info":"直接查询获得"},{"name":"京广路街道","code":"410103012","level":4,"mergeName":"河南省,郑州市,二七区,京广路街道","lng":113.67962803015983,"lat":34.720540947894804,"info":"直接查询获得"},{"name":"长江路街道","code":"410103013","level":4,"mergeName":"河南省,郑州市,二七区,长江路街道","lng":113.6498753431944,"lat":34.72054636268772,"info":"直接查询获得"},{"name":"人和路街道","code":"410103015","level":4,"mergeName":"河南省,郑州市,二七区,人和路街道","lng":113.64640959070636,"lat":34.73104512139391,"info":"直接查询获得"},{"name":"侯寨街道","code":"410103016","level":4,"mergeName":"河南省,郑州市,二七区,侯寨街道","lng":113.59535188179133,"lat":34.67338107888391,"info":"直接查询获得"},{"name":"马寨镇","code":"410103100","level":4,"mergeName":"河南省,郑州市,二七区,马寨镇","lng":113.53915505688427,"lat":34.72122187384169,"info":"直接查询获得"},{"name":"管城回族区","code":"410104","level":3,"mergeName":"河南省,郑州市,管城回族区","lng":113.68352469980101,"lat":34.75967387469872,"info":"直接查询获得"},{"name":"北下街街道","code":"410104001","level":4,"mergeName":"河南省,郑州市,管城回族区,北下街街道","lng":113.67635819810351,"lat":34.75827855171983,"info":"直接查询获得"},{"name":"西大街街道","code":"410104002","level":4,"mergeName":"河南省,郑州市,管城回族区,西大街街道","lng":113.67966396238023,"lat":34.755910451776415,"info":"直接查询获得"},{"name":"南关街街道","code":"410104003","level":4,"mergeName":"河南省,郑州市,管城回族区,南关街街道","lng":113.68352469980101,"lat":34.75967387469872,"info":"直接查询获得"},{"name":"城东路街道","code":"410104004","level":4,"mergeName":"河南省,郑州市,管城回族区,城东路街道","lng":113.6978465642077,"lat":34.75844714833204,"info":"直接查询获得"},{"name":"东大街街道","code":"410104005","level":4,"mergeName":"河南省,郑州市,管城回族区,东大街街道","lng":113.69365027823824,"lat":34.750836570630874,"info":"直接查询获得"},{"name":"二里岗街道","code":"410104006","level":4,"mergeName":"河南省,郑州市,管城回族区,二里岗街道","lng":113.70397552304118,"lat":34.74336282715706,"info":"直接查询获得"},{"name":"陇海马路街道","code":"410104007","level":4,"mergeName":"河南省,郑州市,管城回族区,陇海马路街道","lng":113.68898900238766,"lat":34.73848998464365,"info":"直接查询获得"},{"name":"紫荆山南路街道","code":"410104008","level":4,"mergeName":"河南省,郑州市,管城回族区,紫荆山南路街道","lng":113.69472854578255,"lat":34.731862275406996,"info":"直接查询获得"},{"name":"航海东路街道","code":"410104009","level":4,"mergeName":"河南省,郑州市,管城回族区,航海东路街道","lng":113.7054990491861,"lat":34.72474019776404,"info":"直接查询获得"},{"name":"十八里河街道","code":"410104010","level":4,"mergeName":"河南省,郑州市,管城回族区,十八里河街道","lng":113.70769594514128,"lat":34.68793013773626,"info":"直接查询获得"},{"name":"南曹街道","code":"410104011","level":4,"mergeName":"河南省,郑州市,管城回族区,南曹街道","lng":113.76065985834849,"lat":34.67507285889771,"info":"直接查询获得"},{"name":"金岱街道","code":"410104012","level":4,"mergeName":"河南省,郑州市,管城回族区,金岱街道","lng":113.68352469980101,"lat":34.75967387469872,"info":"直接查询获得"},{"name":"圃田乡","code":"410104202","level":4,"mergeName":"河南省,郑州市,管城回族区,圃田乡","lng":113.82111051916749,"lat":34.75328032732414,"info":"直接查询获得"},{"name":"商都路街道","code":"410104570","level":4,"mergeName":"河南省,郑州市,管城回族区,商都路街道","lng":113.68352469980101,"lat":34.75967387469872,"info":"直接查询获得"},{"name":"金水区","code":"410105","level":3,"mergeName":"河南省,郑州市,金水区","lng":113.66644773239523,"lat":34.80607044566173,"info":"直接查询获得"},{"name":"经八路街道","code":"410105001","level":4,"mergeName":"河南省,郑州市,金水区,经八路街道","lng":113.6758353842967,"lat":34.774483887048376,"info":"直接查询获得"},{"name":"花园路街道","code":"410105002","level":4,"mergeName":"河南省,郑州市,金水区,花园路街道","lng":113.7055540254833,"lat":34.774848958649194,"info":"直接查询获得"},{"name":"人民路街道","code":"410105003","level":4,"mergeName":"河南省,郑州市,金水区,人民路街道","lng":113.69504947620565,"lat":34.76543977340829,"info":"直接查询获得"},{"name":"杜岭街道","code":"410105004","level":4,"mergeName":"河南省,郑州市,金水区,杜岭街道","lng":113.67905562988886,"lat":34.76637576416099,"info":"直接查询获得"},{"name":"大石桥街道","code":"410105005","level":4,"mergeName":"河南省,郑州市,金水区,大石桥街道","lng":113.66220198123285,"lat":34.77318199509277,"info":"直接查询获得"},{"name":"南阳路街道","code":"410105006","level":4,"mergeName":"河南省,郑州市,金水区,南阳路街道","lng":113.66461195525504,"lat":34.78167798036018,"info":"直接查询获得"},{"name":"南阳新村街道","code":"410105007","level":4,"mergeName":"河南省,郑州市,金水区,南阳新村街道","lng":113.64838101197856,"lat":34.79627599061602,"info":"直接查询获得"},{"name":"文化路街道","code":"410105008","level":4,"mergeName":"河南省,郑州市,金水区,文化路街道","lng":113.67458563831528,"lat":34.7909614109255,"info":"直接查询获得"},{"name":"丰产路街道","code":"410105009","level":4,"mergeName":"河南省,郑州市,金水区,丰产路街道","lng":113.71176095723506,"lat":34.78967912372518,"info":"直接查询获得"},{"name":"东风路街道","code":"410105010","level":4,"mergeName":"河南省,郑州市,金水区,东风路街道","lng":113.66689895125289,"lat":34.80659876078847,"info":"直接查询获得"},{"name":"北林路街道","code":"410105011","level":4,"mergeName":"河南省,郑州市,金水区,北林路街道","lng":113.69793962865853,"lat":34.811536156120034,"info":"直接查询获得"},{"name":"未来路街道","code":"410105012","level":4,"mergeName":"河南省,郑州市,金水区,未来路街道","lng":113.71033238198252,"lat":34.764332538949986,"info":"直接查询获得"},{"name":"凤凰台街道","code":"410105013","level":4,"mergeName":"河南省,郑州市,金水区,凤凰台街道","lng":113.7254405332021,"lat":34.7457591715111,"info":"直接查询获得"},{"name":"龙子湖街道","code":"410105014","level":4,"mergeName":"河南省,郑州市,金水区,龙子湖街道","lng":113.80365635327807,"lat":34.819337678369244,"info":"直接查询获得"},{"name":"祭城路街道","code":"410105015","level":4,"mergeName":"河南省,郑州市,金水区,祭城路街道","lng":113.77304371844794,"lat":34.785393376086674,"info":"直接查询获得"},{"name":"兴达路街道","code":"410105016","level":4,"mergeName":"河南省,郑州市,金水区,兴达路街道","lng":113.84087611496464,"lat":34.85588159713421,"info":"直接查询获得"},{"name":"国基路街道","code":"410105017","level":4,"mergeName":"河南省,郑州市,金水区,国基路街道","lng":113.68923100589204,"lat":34.82545596428402,"info":"直接查询获得"},{"name":"杨金路街道","code":"410105018","level":4,"mergeName":"河南省,郑州市,金水区,杨金路街道","lng":113.74648199231507,"lat":34.85000531842549,"info":"直接查询获得"},{"name":"丰庆路街道","code":"410105019","level":4,"mergeName":"河南省,郑州市,金水区,丰庆路街道","lng":113.65396254343425,"lat":34.827210533562685,"info":"直接查询获得"},{"name":"如意湖街道","code":"410105560","level":4,"mergeName":"河南省,郑州市,金水区,如意湖街道","lng":113.66644773239523,"lat":34.80607044566173,"info":"直接查询获得"},{"name":"博学路街道","code":"410105561","level":4,"mergeName":"河南省,郑州市,金水区,博学路街道","lng":113.66644773239523,"lat":34.80607044566173,"info":"直接查询获得"},{"name":"龙湖街道","code":"410105562","level":4,"mergeName":"河南省,郑州市,金水区,龙湖街道","lng":113.66644773239523,"lat":34.80607044566173,"info":"直接查询获得"},{"name":"龙源路街道","code":"410105563","level":4,"mergeName":"河南省,郑州市,金水区,龙源路街道","lng":113.66644773239523,"lat":34.80607044566173,"info":"直接查询获得"},{"name":"金光路街道","code":"410105564","level":4,"mergeName":"河南省,郑州市,金水区,金光路街道","lng":113.66644773239523,"lat":34.80607044566173,"info":"直接查询获得"},{"name":"上街区","code":"410106","level":3,"mergeName":"河南省,郑州市,上街区","lng":113.3154972866043,"lat":34.808818610238696,"info":"直接查询获得"},{"name":"济源路街道","code":"410106001","level":4,"mergeName":"河南省,郑州市,上街区,济源路街道","lng":113.321157240131,"lat":34.81609199367544,"info":"直接查询获得"},{"name":"中心路街道","code":"410106002","level":4,"mergeName":"河南省,郑州市,上街区,中心路街道","lng":113.29369088711226,"lat":34.81194538734031,"info":"直接查询获得"},{"name":"新安路街道","code":"410106003","level":4,"mergeName":"河南省,郑州市,上街区,新安路街道","lng":113.30407964391136,"lat":34.821297888213856,"info":"直接查询获得"},{"name":"工业路街道","code":"410106004","level":4,"mergeName":"河南省,郑州市,上街区,工业路街道","lng":113.30922953956951,"lat":34.8257820644132,"info":"直接查询获得"},{"name":"矿山街道","code":"410106005","level":4,"mergeName":"河南省,郑州市,上街区,矿山街道","lng":113.17805400316968,"lat":34.710102877306134,"info":"直接查询获得"},{"name":"峡窝镇","code":"410106100","level":4,"mergeName":"河南省,郑州市,上街区,峡窝镇","lng":113.3158356782899,"lat":34.79533994456318,"info":"直接查询获得"},{"name":"惠济区","code":"410108","level":3,"mergeName":"河南省,郑州市,惠济区","lng":113.62345527984044,"lat":34.873519885775636,"info":"直接查询获得"},{"name":"新城街道","code":"410108001","level":4,"mergeName":"河南省,郑州市,惠济区,新城街道","lng":113.63434301211302,"lat":34.87584097063635,"info":"直接查询获得"},{"name":"刘寨街道","code":"410108002","level":4,"mergeName":"河南省,郑州市,惠济区,刘寨街道","lng":113.63708230493515,"lat":34.80996026170885,"info":"直接查询获得"},{"name":"江山路街道","code":"410108003","level":4,"mergeName":"河南省,郑州市,惠济区,江山路街道","lng":113.59254085478271,"lat":34.86770505472647,"info":"直接查询获得"},{"name":"长兴路街道","code":"410108004","level":4,"mergeName":"河南省,郑州市,惠济区,长兴路街道","lng":113.63212868903092,"lat":34.83030110615418,"info":"直接查询获得"},{"name":"迎宾路街道","code":"410108005","level":4,"mergeName":"河南省,郑州市,惠济区,迎宾路街道","lng":113.67422867506156,"lat":34.87663594791161,"info":"直接查询获得"},{"name":"大河路街道","code":"410108006","level":4,"mergeName":"河南省,郑州市,惠济区,大河路街道","lng":113.58511613965788,"lat":34.894981050226306,"info":"直接查询获得"},{"name":"花园口镇","code":"410108100","level":4,"mergeName":"河南省,郑州市,惠济区,花园口镇","lng":113.6794460334635,"lat":34.88097798012851,"info":"直接查询获得"},{"name":"古荥镇","code":"410108101","level":4,"mergeName":"河南省,郑州市,惠济区,古荥镇","lng":113.54297896377915,"lat":34.88617595834723,"info":"直接查询获得"},{"name":"中牟县","code":"410122","level":3,"mergeName":"河南省,郑州市,中牟县","lng":113.98248490572702,"lat":34.72501084892361,"info":"直接查询获得"},{"name":"青年路街道","code":"410122001","level":4,"mergeName":"河南省,郑州市,中牟县,青年路街道","lng":114.03817059479891,"lat":34.7359629037511,"info":"直接查询获得"},{"name":"东风路街道","code":"410122002","level":4,"mergeName":"河南省,郑州市,中牟县,东风路街道","lng":114.02101025655703,"lat":34.720847540546686,"info":"直接查询获得"},{"name":"广惠街街道","code":"410122003","level":4,"mergeName":"河南省,郑州市,中牟县,广惠街街道","lng":113.98248490572702,"lat":34.72501084892361,"info":"直接查询获得"},{"name":"韩寺镇","code":"410122101","level":4,"mergeName":"河南省,郑州市,中牟县,韩寺镇","lng":114.11566265012549,"lat":34.665762033308184,"info":"直接查询获得"},{"name":"官渡镇","code":"410122102","level":4,"mergeName":"河南省,郑州市,中牟县,官渡镇","lng":114.09601095946701,"lat":34.73799296955418,"info":"直接查询获得"},{"name":"狼城岗镇","code":"410122103","level":4,"mergeName":"河南省,郑州市,中牟县,狼城岗镇","lng":114.1964588527789,"lat":34.86725712069374,"info":"直接查询获得"},{"name":"万滩镇","code":"410122104","level":4,"mergeName":"河南省,郑州市,中牟县,万滩镇","lng":113.94957260879134,"lat":34.866341065709776,"info":"直接查询获得"},{"name":"白沙镇","code":"410122105","level":4,"mergeName":"河南省,郑州市,中牟县,白沙镇","lng":113.90808993830717,"lat":34.735772234869806,"info":"直接查询获得"},{"name":"郑庵镇","code":"410122106","level":4,"mergeName":"河南省,郑州市,中牟县,郑庵镇","lng":113.92415397641992,"lat":34.679346275715844,"info":"直接查询获得"},{"name":"黄店镇","code":"410122109","level":4,"mergeName":"河南省,郑州市,中牟县,黄店镇","lng":114.01424494618503,"lat":34.55574049946917,"info":"直接查询获得"},{"name":"大孟镇","code":"410122110","level":4,"mergeName":"河南省,郑州市,中牟县,大孟镇","lng":113.98248490572702,"lat":34.72501084892361,"info":"直接查询获得"},{"name":"刘集镇","code":"410122112","level":4,"mergeName":"河南省,郑州市,中牟县,刘集镇","lng":113.93356462494243,"lat":34.80945575271774,"info":"直接查询获得"},{"name":"雁鸣湖镇","code":"410122114","level":4,"mergeName":"河南省,郑州市,中牟县,雁鸣湖镇","lng":114.08514514584887,"lat":34.86949531097511,"info":"直接查询获得"},{"name":"姚家镇","code":"410122115","level":4,"mergeName":"河南省,郑州市,中牟县,姚家镇","lng":114.02852000887466,"lat":34.66200001120207,"info":"直接查询获得"},{"name":"刁家乡","code":"410122208","level":4,"mergeName":"河南省,郑州市,中牟县,刁家乡","lng":114.09143265560486,"lat":34.54933559072972,"info":"直接查询获得"},{"name":"杨桥街道","code":"410122570","level":4,"mergeName":"河南省,郑州市,中牟县,杨桥街道","lng":113.98248490572702,"lat":34.72501084892361,"info":"直接查询获得"},{"name":"豫兴街道","code":"410122571","level":4,"mergeName":"河南省,郑州市,中牟县,豫兴街道","lng":113.98248490572702,"lat":34.72501084892361,"info":"直接查询获得"},{"name":"郑州经济技术开发区","code":"410171","level":3,"mergeName":"河南省,郑州市,郑州经济技术开发区","lng":113.63141920733915,"lat":34.75343885045448,"info":"直接查询获得"},{"name":"九龙镇","code":"410171111","level":4,"mergeName":"河南省,郑州市,郑州经济技术开发区,九龙镇","lng":111.89066518331587,"lat":32.75414189056006,"info":"第二次通过省份查询成功"},{"name":"郑州经济技术开发区明湖街道","code":"410171560","level":4,"mergeName":"河南省,郑州市,郑州经济技术开发区,郑州经济技术开发区明湖街道","lng":113.76220461235093,"lat":34.72117979901291,"info":"直接查询获得"},{"name":"郑州经济技术开发区潮河街道","code":"410171561","level":4,"mergeName":"河南省,郑州市,郑州经济技术开发区,郑州经济技术开发区潮河街道","lng":113.80887494954501,"lat":34.70213397125914,"info":"直接查询获得"},{"name":"郑州经济技术开发区京航街道","code":"410171562","level":4,"mergeName":"河南省,郑州市,郑州经济技术开发区,郑州经济技术开发区京航街道","lng":113.84204601595913,"lat":34.73282612649029,"info":"直接查询获得"},{"name":"郑州经济技术开发区前程街道","code":"410171563","level":4,"mergeName":"河南省,郑州市,郑州经济技术开发区,郑州经济技术开发区前程街道","lng":113.63141920733915,"lat":34.75343885045448,"info":"直接查询获得"},{"name":"郑州经济技术开发区祥云街道","code":"410171565","level":4,"mergeName":"河南省,郑州市,郑州经济技术开发区,郑州经济技术开发区祥云街道","lng":100.55744657937458,"lat":25.489872506241518,"info":"直接查询获得"},{"name":"郑州高新技术产业开发区","code":"410172","level":3,"mergeName":"河南省,郑州市,郑州高新技术产业开发区","lng":114.01676208805455,"lat":34.696418574588606,"info":"直接查询获得"},{"name":"石佛镇","code":"410172160","level":4,"mergeName":"河南省,郑州市,郑州高新技术产业开发区,石佛镇","lng":113.59113307979426,"lat":34.78758749113255,"info":"第二次通过省份查询成功"},{"name":"沟赵乡","code":"410172360","level":4,"mergeName":"河南省,郑州市,郑州高新技术产业开发区,沟赵乡","lng":113.5100548990413,"lat":34.81978952576706,"info":"第二次通过省份查询成功"},{"name":"枫杨街道","code":"410172560","level":4,"mergeName":"河南省,郑州市,郑州高新技术产业开发区,枫杨街道","lng":113.75938408486323,"lat":34.771712921931496,"info":"第二次通过省份查询成功"},{"name":"梧桐街道","code":"410172561","level":4,"mergeName":"河南省,郑州市,郑州高新技术产业开发区,梧桐街道","lng":113.75938408486323,"lat":34.771712921931496,"info":"第二次通过省份查询成功"},{"name":"双桥街道","code":"410172562","level":4,"mergeName":"河南省,郑州市,郑州高新技术产业开发区,双桥街道","lng":113.75938408486323,"lat":34.771712921931496,"info":"第二次通过省份查询成功"},{"name":"郑州航空港经济综合实验区","code":"410173","level":3,"mergeName":"河南省,郑州市,郑州航空港经济综合实验区","lng":113.87933868232427,"lat":34.46723751948631,"info":"直接查询获得"},{"name":"张庄镇","code":"410173108","level":4,"mergeName":"河南省,郑州市,郑州航空港经济综合实验区,张庄镇","lng":115.68279856314935,"lat":35.84528592890082,"info":"第二次通过省份查询成功"},{"name":"八岗镇","code":"410173113","level":4,"mergeName":"河南省,郑州市,郑州航空港经济综合实验区,八岗镇","lng":113.94288068189478,"lat":34.59858042357185,"info":"第二次通过省份查询成功"},{"name":"三官庙镇","code":"410173116","level":4,"mergeName":"河南省,郑州市,郑州航空港经济综合实验区,三官庙镇","lng":113.92812367829906,"lat":34.5178229044499,"info":"第二次通过省份查询成功"},{"name":"八千乡","code":"410173202","level":4,"mergeName":"河南省,郑州市,郑州航空港经济综合实验区,八千乡","lng":113.83378848449092,"lat":34.381124909184585,"info":"第二次通过省份查询成功"},{"name":"龙王乡","code":"410173203","level":4,"mergeName":"河南省,郑州市,郑州航空港经济综合实验区,龙王乡","lng":113.87631884869137,"lat":34.498405294165195,"info":"第二次通过省份查询成功"},{"name":"新港街道","code":"410173400","level":4,"mergeName":"河南省,郑州市,郑州航空港经济综合实验区,新港街道","lng":113.84795975247039,"lat":34.56672264807901,"info":"第二次通过省份查询成功"},{"name":"郑港街道","code":"410173401","level":4,"mergeName":"河南省,郑州市,郑州航空港经济综合实验区,郑港街道","lng":113.84795975247039,"lat":34.56672264807901,"info":"第二次通过省份查询成功"},{"name":"银河街道","code":"410173404","level":4,"mergeName":"河南省,郑州市,郑州航空港经济综合实验区,银河街道","lng":113.75938408486323,"lat":34.771712921931496,"info":"第二次通过省份查询成功"},{"name":"明港街道","code":"410173405","level":4,"mergeName":"河南省,郑州市,郑州航空港经济综合实验区,明港街道","lng":113.75938408486323,"lat":34.771712921931496,"info":"第二次通过省份查询成功"},{"name":"滨河街道","code":"410173580","level":4,"mergeName":"河南省,郑州市,郑州航空港经济综合实验区,滨河街道","lng":112.8127901621964,"lat":32.70001731885079,"info":"第二次通过省份查询成功"},{"name":"冯堂街道","code":"410173581","level":4,"mergeName":"河南省,郑州市,郑州航空港经济综合实验区,冯堂街道","lng":113.75938408486323,"lat":34.771712921931496,"info":"第二次通过省份查询成功"},{"name":"清河街道","code":"410173582","level":4,"mergeName":"河南省,郑州市,郑州航空港经济综合实验区,清河街道","lng":114.6250161573406,"lat":32.969439755963656,"info":"第二次通过省份查询成功"},{"name":"龙港街道","code":"410173583","level":4,"mergeName":"河南省,郑州市,郑州航空港经济综合实验区,龙港街道","lng":113.75938408486323,"lat":34.771712921931496,"info":"第二次通过省份查询成功"},{"name":"巩义市","code":"410181","level":3,"mergeName":"河南省,郑州市,巩义市","lng":113.02843100495258,"lat":34.754096888696935,"info":"直接查询获得"},{"name":"新华路街道","code":"410181001","level":4,"mergeName":"河南省,郑州市,巩义市,新华路街道","lng":112.99573979357919,"lat":34.7615538741916,"info":"直接查询获得"},{"name":"杜甫路街道","code":"410181002","level":4,"mergeName":"河南省,郑州市,巩义市,杜甫路街道","lng":112.98997400708713,"lat":34.74983797149284,"info":"直接查询获得"},{"name":"永安路街道","code":"410181003","level":4,"mergeName":"河南省,郑州市,巩义市,永安路街道","lng":112.96109532826425,"lat":34.72664351405121,"info":"直接查询获得"},{"name":"孝义街道","code":"410181004","level":4,"mergeName":"河南省,郑州市,巩义市,孝义街道","lng":112.98258185104552,"lat":34.76552084953605,"info":"直接查询获得"},{"name":"紫荆路街道","code":"410181005","level":4,"mergeName":"河南省,郑州市,巩义市,紫荆路街道","lng":113.01302237592976,"lat":34.76861080934366,"info":"直接查询获得"},{"name":"米河镇","code":"410181100","level":4,"mergeName":"河南省,郑州市,巩义市,米河镇","lng":113.2458696265259,"lat":34.72979282335145,"info":"直接查询获得"},{"name":"新中镇","code":"410181101","level":4,"mergeName":"河南省,郑州市,巩义市,新中镇","lng":113.21741391305578,"lat":34.693526247198896,"info":"直接查询获得"},{"name":"小关镇","code":"410181102","level":4,"mergeName":"河南省,郑州市,巩义市,小关镇","lng":113.17766209762823,"lat":34.71246724198058,"info":"直接查询获得"},{"name":"竹林镇","code":"410181103","level":4,"mergeName":"河南省,郑州市,巩义市,竹林镇","lng":113.1320867472406,"lat":34.70616111116298,"info":"直接查询获得"},{"name":"大峪沟镇","code":"410181104","level":4,"mergeName":"河南省,郑州市,巩义市,大峪沟镇","lng":113.1320867472406,"lat":34.70616111116298,"info":"直接查询获得"},{"name":"河洛镇","code":"410181105","level":4,"mergeName":"河南省,郑州市,巩义市,河洛镇","lng":113.12989398349075,"lat":34.82674798579597,"info":"直接查询获得"},{"name":"站街镇","code":"410181106","level":4,"mergeName":"河南省,郑州市,巩义市,站街镇","lng":113.06828603568323,"lat":34.79478621169389,"info":"直接查询获得"},{"name":"康店镇","code":"410181108","level":4,"mergeName":"河南省,郑州市,巩义市,康店镇","lng":112.95674775237572,"lat":34.76119113168456,"info":"直接查询获得"},{"name":"北山口镇","code":"410181110","level":4,"mergeName":"河南省,郑州市,巩义市,北山口镇","lng":113.00976682154123,"lat":34.7344155139552,"info":"直接查询获得"},{"name":"西村镇","code":"410181111","level":4,"mergeName":"河南省,郑州市,巩义市,西村镇","lng":112.9690936141521,"lat":34.64986651419411,"info":"直接查询获得"},{"name":"芝田镇","code":"410181112","level":4,"mergeName":"河南省,郑州市,巩义市,芝田镇","lng":112.95207782135154,"lat":34.69886110609344,"info":"直接查询获得"},{"name":"回郭镇","code":"410181113","level":4,"mergeName":"河南省,郑州市,巩义市,回郭镇","lng":112.87811700498467,"lat":34.685275345295416,"info":"直接查询获得"},{"name":"鲁庄镇","code":"410181114","level":4,"mergeName":"河南省,郑州市,巩义市,鲁庄镇","lng":112.87861646284823,"lat":34.62320609405471,"info":"直接查询获得"},{"name":"夹津口镇","code":"410181115","level":4,"mergeName":"河南省,郑州市,巩义市,夹津口镇","lng":113.03655411218767,"lat":34.63184431420409,"info":"直接查询获得"},{"name":"涉村镇","code":"410181116","level":4,"mergeName":"河南省,郑州市,巩义市,涉村镇","lng":113.06849731713918,"lat":34.623772052426396,"info":"直接查询获得"},{"name":"荥阳市","code":"410182","level":3,"mergeName":"河南省,郑州市,荥阳市","lng":113.38942279956461,"lat":34.79381050034602,"info":"直接查询获得"},{"name":"索河街道","code":"410182001","level":4,"mergeName":"河南省,郑州市,荥阳市,索河街道","lng":113.3832809051318,"lat":34.79374550685509,"info":"直接查询获得"},{"name":"京城路街道","code":"410182002","level":4,"mergeName":"河南省,郑州市,荥阳市,京城路街道","lng":113.41219309973326,"lat":34.79388829733847,"info":"直接查询获得"},{"name":"乔楼镇","code":"410182101","level":4,"mergeName":"河南省,郑州市,荥阳市,乔楼镇","lng":113.39185136851084,"lat":34.76751852760268,"info":"直接查询获得"},{"name":"豫龙镇","code":"410182102","level":4,"mergeName":"河南省,郑州市,荥阳市,豫龙镇","lng":113.43702284074118,"lat":34.77655198686357,"info":"直接查询获得"},{"name":"广武镇","code":"410182103","level":4,"mergeName":"河南省,郑州市,荥阳市,广武镇","lng":113.45244998024735,"lat":34.90006393355488,"info":"直接查询获得"},{"name":"王村镇","code":"410182104","level":4,"mergeName":"河南省,郑州市,荥阳市,王村镇","lng":113.28383049025818,"lat":34.8849019043738,"info":"直接查询获得"},{"name":"汜水镇","code":"410182105","level":4,"mergeName":"河南省,郑州市,荥阳市,汜水镇","lng":113.22505822345404,"lat":34.849925780254786,"info":"直接查询获得"},{"name":"高山镇","code":"410182106","level":4,"mergeName":"河南省,郑州市,荥阳市,高山镇","lng":113.22372145502463,"lat":34.791770258120515,"info":"直接查询获得"},{"name":"刘河镇","code":"410182108","level":4,"mergeName":"河南省,郑州市,荥阳市,刘河镇","lng":113.29394487131725,"lat":34.689774773116994,"info":"直接查询获得"},{"name":"崔庙镇","code":"410182109","level":4,"mergeName":"河南省,郑州市,荥阳市,崔庙镇","lng":113.36103050646349,"lat":34.67850670513849,"info":"直接查询获得"},{"name":"贾峪镇","code":"410182110","level":4,"mergeName":"河南省,郑州市,荥阳市,贾峪镇","lng":113.45721585029997,"lat":34.679798006105095,"info":"直接查询获得"},{"name":"城关乡","code":"410182200","level":4,"mergeName":"河南省,郑州市,荥阳市,城关乡","lng":113.35202469638685,"lat":34.793284359877774,"info":"直接查询获得"},{"name":"高村乡","code":"410182201","level":4,"mergeName":"河南省,郑州市,荥阳市,高村乡","lng":113.37906740313726,"lat":34.8908514642004,"info":"直接查询获得"},{"name":"金寨回族乡","code":"410182204","level":4,"mergeName":"河南省,郑州市,荥阳市,金寨回族乡","lng":113.35696931306646,"lat":34.82661395801634,"info":"直接查询获得"},{"name":"新密市","code":"410183","level":3,"mergeName":"河南省,郑州市,新密市","lng":113.39739094909922,"lat":34.54589798344474,"info":"直接查询获得"},{"name":"青屏街街道","code":"410183001","level":4,"mergeName":"河南省,郑州市,新密市,青屏街街道","lng":113.37665653080957,"lat":34.54856106936637,"info":"直接查询获得"},{"name":"新华路街道","code":"410183002","level":4,"mergeName":"河南省,郑州市,新密市,新华路街道","lng":113.41019925855214,"lat":34.532264330416275,"info":"直接查询获得"},{"name":"西大街街道","code":"410183003","level":4,"mergeName":"河南省,郑州市,新密市,西大街街道","lng":113.33698247091036,"lat":34.52680996993864,"info":"直接查询获得"},{"name":"城关镇","code":"410183100","level":4,"mergeName":"河南省,郑州市,新密市,城关镇","lng":113.37872421180529,"lat":34.502110215865756,"info":"直接查询获得"},{"name":"米村镇","code":"410183101","level":4,"mergeName":"河南省,郑州市,新密市,米村镇","lng":113.29186268897566,"lat":34.559317419830585,"info":"直接查询获得"},{"name":"牛店镇","code":"410183102","level":4,"mergeName":"河南省,郑州市,新密市,牛店镇","lng":113.2742701840377,"lat":34.512912432863125,"info":"直接查询获得"},{"name":"平陌镇","code":"410183103","level":4,"mergeName":"河南省,郑州市,新密市,平陌镇","lng":113.31993060395713,"lat":34.46067387227389,"info":"直接查询获得"},{"name":"超化镇","code":"410183104","level":4,"mergeName":"河南省,郑州市,新密市,超化镇","lng":113.41488670653376,"lat":34.456859391527615,"info":"直接查询获得"},{"name":"苟堂镇","code":"410183105","level":4,"mergeName":"河南省,郑州市,新密市,苟堂镇","lng":113.52359514782374,"lat":34.374452239463004,"info":"直接查询获得"},{"name":"大隗镇","code":"410183106","level":4,"mergeName":"河南省,郑州市,新密市,大隗镇","lng":113.5082041201991,"lat":34.44381030840441,"info":"直接查询获得"},{"name":"刘寨镇","code":"410183107","level":4,"mergeName":"河南省,郑州市,新密市,刘寨镇","lng":113.55070295387614,"lat":34.50231253437737,"info":"直接查询获得"},{"name":"白寨镇","code":"410183108","level":4,"mergeName":"河南省,郑州市,新密市,白寨镇","lng":113.53298109294475,"lat":34.600516429387895,"info":"直接查询获得"},{"name":"岳村镇","code":"410183109","level":4,"mergeName":"河南省,郑州市,新密市,岳村镇","lng":113.5013857118867,"lat":34.557974281282846,"info":"直接查询获得"},{"name":"来集镇","code":"410183110","level":4,"mergeName":"河南省,郑州市,新密市,来集镇","lng":113.46886471683116,"lat":34.492795606552946,"info":"直接查询获得"},{"name":"曲梁镇","code":"410183113","level":4,"mergeName":"河南省,郑州市,新密市,曲梁镇","lng":113.59932014638166,"lat":34.52072543016311,"info":"直接查询获得"},{"name":"袁庄乡","code":"410183200","level":4,"mergeName":"河南省,郑州市,新密市,袁庄乡","lng":113.38198312316153,"lat":34.56874761002751,"info":"直接查询获得"},{"name":"矿区街道","code":"410183400","level":4,"mergeName":"河南省,郑州市,新密市,矿区街道","lng":113.39739094909922,"lat":34.54589798344474,"info":"直接查询获得"},{"name":"尖山风景区管理委员会","code":"410183401","level":4,"mergeName":"河南省,郑州市,新密市,尖山风景区管理委员会","lng":113.25508246817512,"lat":34.609328907091765,"info":"直接查询获得"},{"name":"郑州曲梁产业集聚区管理委员会","code":"410183402","level":4,"mergeName":"河南省,郑州市,新密市,郑州曲梁产业集聚区管理委员会","lng":113.65159191519342,"lat":34.52807858373421,"info":"直接查询获得"},{"name":"新郑市","code":"410184","level":3,"mergeName":"河南省,郑州市,新郑市","lng":113.74643447195358,"lat":34.40176637910559,"info":"直接查询获得"},{"name":"新建路街道","code":"410184001","level":4,"mergeName":"河南省,郑州市,新郑市,新建路街道","lng":113.73294596556852,"lat":34.40081399569302,"info":"直接查询获得"},{"name":"新华路街道","code":"410184002","level":4,"mergeName":"河南省,郑州市,新郑市,新华路街道","lng":113.74939364750692,"lat":34.39896002810827,"info":"直接查询获得"},{"name":"新烟街道","code":"410184003","level":4,"mergeName":"河南省,郑州市,新郑市,新烟街道","lng":113.74643447195358,"lat":34.40176637910559,"info":"直接查询获得"},{"name":"新村镇","code":"410184101","level":4,"mergeName":"河南省,郑州市,新郑市,新村镇","lng":113.71763704306746,"lat":34.44140002230772,"info":"直接查询获得"},{"name":"辛店镇","code":"410184102","level":4,"mergeName":"河南省,郑州市,新郑市,辛店镇","lng":113.61349621580406,"lat":34.38722834739992,"info":"直接查询获得"},{"name":"观音寺镇","code":"410184103","level":4,"mergeName":"河南省,郑州市,新郑市,观音寺镇","lng":113.69617733290904,"lat":34.335422264763785,"info":"直接查询获得"},{"name":"梨河镇","code":"410184104","level":4,"mergeName":"河南省,郑州市,新郑市,梨河镇","lng":113.74340260102686,"lat":34.3568297456952,"info":"直接查询获得"},{"name":"和庄镇","code":"410184105","level":4,"mergeName":"河南省,郑州市,新郑市,和庄镇","lng":113.79844896606728,"lat":34.39643601872327,"info":"直接查询获得"},{"name":"薛店镇","code":"410184106","level":4,"mergeName":"河南省,郑州市,新郑市,薛店镇","lng":113.80489637420406,"lat":34.50319629546915,"info":"直接查询获得"},{"name":"孟庄镇","code":"410184107","level":4,"mergeName":"河南省,郑州市,新郑市,孟庄镇","lng":113.82468712255547,"lat":34.58513313054337,"info":"直接查询获得"},{"name":"郭店镇","code":"410184108","level":4,"mergeName":"河南省,郑州市,新郑市,郭店镇","lng":113.72185295880892,"lat":34.546581905298645,"info":"直接查询获得"},{"name":"龙湖镇","code":"410184109","level":4,"mergeName":"河南省,郑州市,新郑市,龙湖镇","lng":113.69081408969228,"lat":34.61513365260491,"info":"直接查询获得"},{"name":"城关乡","code":"410184200","level":4,"mergeName":"河南省,郑州市,新郑市,城关乡","lng":113.71340773089595,"lat":34.394787813434796,"info":"直接查询获得"},{"name":"具茨山国家级森林公园管理委员会","code":"410184402","level":4,"mergeName":"河南省,郑州市,新郑市,具茨山国家级森林公园管理委员会","lng":113.74698180950081,"lat":34.40184583076919,"info":"直接查询获得"},{"name":"新郑新区管理委员会","code":"410184403","level":4,"mergeName":"河南省,郑州市,新郑市,新郑新区管理委员会","lng":113.77222850619764,"lat":34.42574161341717,"info":"直接查询获得"},{"name":"登封市","code":"410185","level":3,"mergeName":"河南省,郑州市,登封市","lng":113.05642283345736,"lat":34.45969746171987,"info":"直接查询获得"},{"name":"嵩阳街道","code":"410185001","level":4,"mergeName":"河南省,郑州市,登封市,嵩阳街道","lng":113.05691393707966,"lat":34.4607714978135,"info":"直接查询获得"},{"name":"少林街道","code":"410185002","level":4,"mergeName":"河南省,郑州市,登封市,少林街道","lng":112.98031317958176,"lat":34.49272571842588,"info":"直接查询获得"},{"name":"中岳街道","code":"410185003","level":4,"mergeName":"河南省,郑州市,登封市,中岳街道","lng":113.10211537049368,"lat":34.47072088689839,"info":"直接查询获得"},{"name":"大金店镇","code":"410185100","level":4,"mergeName":"河南省,郑州市,登封市,大金店镇","lng":112.97902519003986,"lat":34.37511152326754,"info":"直接查询获得"},{"name":"颍阳镇","code":"410185101","level":4,"mergeName":"河南省,郑州市,登封市,颍阳镇","lng":112.7650521412935,"lat":34.41904096797028,"info":"直接查询获得"},{"name":"卢店镇","code":"410185102","level":4,"mergeName":"河南省,郑州市,登封市,卢店镇","lng":113.16136674584666,"lat":34.46622271915521,"info":"直接查询获得"},{"name":"告成镇","code":"410185103","level":4,"mergeName":"河南省,郑州市,登封市,告成镇","lng":113.15037301352392,"lat":34.409774976953834,"info":"直接查询获得"},{"name":"大冶镇","code":"410185105","level":4,"mergeName":"河南省,郑州市,登封市,大冶镇","lng":113.26834603886051,"lat":34.436337039388754,"info":"直接查询获得"},{"name":"宣化镇","code":"410185106","level":4,"mergeName":"河南省,郑州市,登封市,宣化镇","lng":113.27227783224713,"lat":34.373418275860175,"info":"直接查询获得"},{"name":"徐庄镇","code":"410185107","level":4,"mergeName":"河南省,郑州市,登封市,徐庄镇","lng":113.18253181179782,"lat":34.326564973960195,"info":"直接查询获得"},{"name":"东华镇","code":"410185108","level":4,"mergeName":"河南省,郑州市,登封市,东华镇","lng":113.05866904638506,"lat":34.38311703486064,"info":"直接查询获得"},{"name":"唐庄镇","code":"410185109","level":4,"mergeName":"河南省,郑州市,登封市,唐庄镇","lng":113.15096382905783,"lat":34.500976648656284,"info":"直接查询获得"},{"name":"白坪乡","code":"410185202","level":4,"mergeName":"河南省,郑州市,登封市,白坪乡","lng":113.08228630671734,"lat":34.33245182981083,"info":"直接查询获得"},{"name":"君召乡","code":"410185203","level":4,"mergeName":"河南省,郑州市,登封市,君召乡","lng":112.8284810442003,"lat":34.424981789002246,"info":"直接查询获得"},{"name":"石道乡","code":"410185204","level":4,"mergeName":"河南省,郑州市,登封市,石道乡","lng":112.89221761674425,"lat":34.369447515426295,"info":"直接查询获得"},{"name":"送表矿区","code":"410185400","level":4,"mergeName":"河南省,郑州市,登封市,送表矿区","lng":112.90632325901467,"lat":34.3192104578561,"info":"直接查询获得"},{"name":"开封市","code":"4102","level":2,"mergeName":"河南省,开封市","lng":114.31459258497121,"lat":34.80288581121172,"info":"直接查询获得"},{"name":"龙亭区","code":"410202","level":3,"mergeName":"河南省,开封市,龙亭区","lng":114.36141316645679,"lat":34.82203561250629,"info":"直接查询获得"},{"name":"北书店街道","code":"410202001","level":4,"mergeName":"河南省,开封市,龙亭区,北书店街道","lng":114.3617889276516,"lat":34.807624482628356,"info":"直接查询获得"},{"name":"午朝门街道","code":"410202002","level":4,"mergeName":"河南省,开封市,龙亭区,午朝门街道","lng":114.361253268076,"lat":34.80625302227149,"info":"直接查询获得"},{"name":"大兴街道","code":"410202003","level":4,"mergeName":"河南省,开封市,龙亭区,大兴街道","lng":114.34885662778406,"lat":34.815110470368275,"info":"直接查询获得"},{"name":"北道门街道","code":"410202005","level":4,"mergeName":"河南省,开封市,龙亭区,北道门街道","lng":114.36235818385327,"lat":34.821093416352184,"info":"直接查询获得"},{"name":"城西街道","code":"410202006","level":4,"mergeName":"河南省,开封市,龙亭区,城西街道","lng":114.32035485549552,"lat":34.804047033805695,"info":"直接查询获得"},{"name":"梁苑街道","code":"410202007","level":4,"mergeName":"河南省,开封市,龙亭区,梁苑街道","lng":114.33399133795065,"lat":34.81554231627936,"info":"直接查询获得"},{"name":"宋城街道","code":"410202008","level":4,"mergeName":"河南省,开封市,龙亭区,宋城街道","lng":114.36141316645679,"lat":34.82203561250629,"info":"直接查询获得"},{"name":"新城街道","code":"410202009","level":4,"mergeName":"河南省,开封市,龙亭区,新城街道","lng":114.36141316645679,"lat":34.82203561250629,"info":"直接查询获得"},{"name":"杏花营镇","code":"410202100","level":4,"mergeName":"河南省,开封市,龙亭区,杏花营镇","lng":114.36141316645679,"lat":34.82203561250629,"info":"直接查询获得"},{"name":"北郊乡","code":"410202201","level":4,"mergeName":"河南省,开封市,龙亭区,北郊乡","lng":114.36949207706077,"lat":34.830335180988776,"info":"直接查询获得"},{"name":"柳园口乡","code":"410202202","level":4,"mergeName":"河南省,开封市,龙亭区,柳园口乡","lng":114.37004767901868,"lat":34.865731689450335,"info":"直接查询获得"},{"name":"西郊乡","code":"410202203","level":4,"mergeName":"河南省,开封市,龙亭区,西郊乡","lng":114.36141316645679,"lat":34.82203561250629,"info":"直接查询获得"},{"name":"水稻乡","code":"410202204","level":4,"mergeName":"河南省,开封市,龙亭区,水稻乡","lng":114.30978000303207,"lat":34.87765197946747,"info":"直接查询获得"},{"name":"杏花营农场","code":"410202400","level":4,"mergeName":"河南省,开封市,龙亭区,杏花营农场","lng":114.18106890312085,"lat":34.75298085271459,"info":"直接查询获得"},{"name":"顺河回族区","code":"410203","level":3,"mergeName":"河南省,开封市,顺河回族区","lng":114.36739165911733,"lat":34.80224135555935,"info":"直接查询获得"},{"name":"清平街道","code":"410203001","level":4,"mergeName":"河南省,开封市,顺河回族区,清平街道","lng":114.36727056753459,"lat":34.80217740619293,"info":"直接查询获得"},{"name":"铁塔街道","code":"410203002","level":4,"mergeName":"河南省,开封市,顺河回族区,铁塔街道","lng":114.36883496658021,"lat":34.815596190993574,"info":"直接查询获得"},{"name":"曹门街道","code":"410203003","level":4,"mergeName":"河南省,开封市,顺河回族区,曹门街道","lng":114.37005459597111,"lat":34.80546943673892,"info":"直接查询获得"},{"name":"宋门街道","code":"410203004","level":4,"mergeName":"河南省,开封市,顺河回族区,宋门街道","lng":114.37994315470291,"lat":34.792926126442325,"info":"直接查询获得"},{"name":"工业街道","code":"410203005","level":4,"mergeName":"河南省,开封市,顺河回族区,工业街道","lng":114.397984980379,"lat":34.79410752809353,"info":"直接查询获得"},{"name":"苹果园街道","code":"410203006","level":4,"mergeName":"河南省,开封市,顺河回族区,苹果园街道","lng":114.38371016113017,"lat":34.814398041821846,"info":"直接查询获得"},{"name":"东郊乡","code":"410203200","level":4,"mergeName":"河南省,开封市,顺河回族区,东郊乡","lng":114.40178346522794,"lat":34.80093516314552,"info":"直接查询获得"},{"name":"土柏岗乡","code":"410203201","level":4,"mergeName":"河南省,开封市,顺河回族区,土柏岗乡","lng":114.36739165911733,"lat":34.80224135555935,"info":"直接查询获得"},{"name":"鼓楼区","code":"410204","level":3,"mergeName":"河南省,开封市,鼓楼区","lng":114.3544048563596,"lat":34.79487425191384,"info":"直接查询获得"},{"name":"相国寺街道","code":"410204001","level":4,"mergeName":"河南省,开封市,鼓楼区,相国寺街道","lng":114.36230766135479,"lat":34.79959617412318,"info":"直接查询获得"},{"name":"新华街道","code":"410204002","level":4,"mergeName":"河南省,开封市,鼓楼区,新华街道","lng":114.36512999533487,"lat":34.79098393976201,"info":"直接查询获得"},{"name":"卧龙街道","code":"410204003","level":4,"mergeName":"河南省,开封市,鼓楼区,卧龙街道","lng":114.36512999533487,"lat":34.79098393976201,"info":"直接查询获得"},{"name":"州桥街道","code":"410204004","level":4,"mergeName":"河南省,开封市,鼓楼区,州桥街道","lng":114.35680899139594,"lat":34.8001009882639,"info":"直接查询获得"},{"name":"西司门街道","code":"410204005","level":4,"mergeName":"河南省,开封市,鼓楼区,西司门街道","lng":114.35680899139594,"lat":34.8001009882639,"info":"直接查询获得"},{"name":"南苑街道","code":"410204006","level":4,"mergeName":"河南省,开封市,鼓楼区,南苑街道","lng":114.32270634982899,"lat":34.77230283751645,"info":"直接查询获得"},{"name":"五一街道","code":"410204007","level":4,"mergeName":"河南省,开封市,鼓楼区,五一街道","lng":114.30814060805262,"lat":34.76432611754817,"info":"直接查询获得"},{"name":"仙人庄街道","code":"410204008","level":4,"mergeName":"河南省,开封市,鼓楼区,仙人庄街道","lng":114.31499951736724,"lat":34.711709166928124,"info":"直接查询获得"},{"name":"禹王台区","code":"410205","level":3,"mergeName":"河南省,开封市,禹王台区","lng":114.35439775974605,"lat":34.78347210591688,"info":"直接查询获得"},{"name":"三里堡街道","code":"410205001","level":4,"mergeName":"河南省,开封市,禹王台区,三里堡街道","lng":114.3506839851067,"lat":34.78261900064151,"info":"直接查询获得"},{"name":"新门关街道","code":"410205002","level":4,"mergeName":"河南省,开封市,禹王台区,新门关街道","lng":114.36436697463468,"lat":34.7836749672598,"info":"直接查询获得"},{"name":"繁塔街道","code":"410205003","level":4,"mergeName":"河南省,开封市,禹王台区,繁塔街道","lng":114.36874127331552,"lat":34.77533455694692,"info":"直接查询获得"},{"name":"官坊街道","code":"410205004","level":4,"mergeName":"河南省,开封市,禹王台区,官坊街道","lng":114.35772837384809,"lat":34.77775020558216,"info":"直接查询获得"},{"name":"菜市街道","code":"410205005","level":4,"mergeName":"河南省,开封市,禹王台区,菜市街道","lng":114.35651237091655,"lat":34.7833856840154,"info":"直接查询获得"},{"name":"南郊乡","code":"410205200","level":4,"mergeName":"河南省,开封市,禹王台区,南郊乡","lng":114.36713330645267,"lat":34.76833546579653,"info":"直接查询获得"},{"name":"汪屯乡","code":"410205201","level":4,"mergeName":"河南省,开封市,禹王台区,汪屯乡","lng":114.42122099985285,"lat":34.75518740397182,"info":"直接查询获得"},{"name":"祥符区","code":"410212","level":3,"mergeName":"河南省,开封市,祥符区","lng":114.4475325479012,"lat":34.76273957222411,"info":"直接查询获得"},{"name":"城关镇","code":"410212100","level":4,"mergeName":"河南省,开封市,祥符区,城关镇","lng":114.44632252588772,"lat":34.76196591061301,"info":"直接查询获得"},{"name":"陈留镇","code":"410212101","level":4,"mergeName":"河南省,开封市,祥符区,陈留镇","lng":114.53991823909158,"lat":34.67572521836033,"info":"直接查询获得"},{"name":"仇楼镇","code":"410212102","level":4,"mergeName":"河南省,开封市,祥符区,仇楼镇","lng":114.60522388186982,"lat":34.63978941287522,"info":"直接查询获得"},{"name":"八里湾镇","code":"410212103","level":4,"mergeName":"河南省,开封市,祥符区,八里湾镇","lng":114.59160170762486,"lat":34.750145169041375,"info":"直接查询获得"},{"name":"曲兴镇","code":"410212104","level":4,"mergeName":"河南省,开封市,祥符区,曲兴镇","lng":114.68693950021266,"lat":34.83404851192932,"info":"直接查询获得"},{"name":"朱仙镇","code":"410212106","level":4,"mergeName":"河南省,开封市,祥符区,朱仙镇","lng":114.27353867570696,"lat":34.62139412476245,"info":"直接查询获得"},{"name":"罗王镇","code":"410212107","level":4,"mergeName":"河南省,开封市,祥符区,罗王镇","lng":114.6990106601641,"lat":34.80039376927827,"info":"直接查询获得"},{"name":"半坡店乡","code":"410212200","level":4,"mergeName":"河南省,开封市,祥符区,半坡店乡","lng":114.51638245506905,"lat":34.633059867089585,"info":"直接查询获得"},{"name":"刘店乡","code":"410212203","level":4,"mergeName":"河南省,开封市,祥符区,刘店乡","lng":114.6261006815828,"lat":34.87169153419572,"info":"直接查询获得"},{"name":"袁坊乡","code":"410212204","level":4,"mergeName":"河南省,开封市,祥符区,袁坊乡","lng":114.51497804423475,"lat":34.86975593186859,"info":"直接查询获得"},{"name":"杜良乡","code":"410212205","level":4,"mergeName":"河南省,开封市,祥符区,杜良乡","lng":114.56903267999216,"lat":34.81482877259723,"info":"直接查询获得"},{"name":"兴隆乡","code":"410212206","level":4,"mergeName":"河南省,开封市,祥符区,兴隆乡","lng":114.51981901262803,"lat":34.77749477099378,"info":"直接查询获得"},{"name":"西姜寨乡","code":"410212208","level":4,"mergeName":"河南省,开封市,祥符区,西姜寨乡","lng":114.23066084693524,"lat":34.63525078708018,"info":"直接查询获得"},{"name":"万隆乡","code":"410212210","level":4,"mergeName":"河南省,开封市,祥符区,万隆乡","lng":114.44136693820292,"lat":34.6090419049275,"info":"直接查询获得"},{"name":"范村乡","code":"410212211","level":4,"mergeName":"河南省,开封市,祥符区,范村乡","lng":114.41428302707709,"lat":34.68531601080965,"info":"直接查询获得"},{"name":"杞县","code":"410221","level":3,"mergeName":"河南省,开封市,杞县","lng":114.7895921047377,"lat":34.55485678068698,"info":"直接查询获得"},{"name":"金城街道","code":"410221001","level":4,"mergeName":"河南省,开封市,杞县,金城街道","lng":114.7895921047377,"lat":34.55485678068698,"info":"直接查询获得"},{"name":"五里河镇","code":"410221101","level":4,"mergeName":"河南省,开封市,杞县,五里河镇","lng":114.79826093257007,"lat":34.52861389532862,"info":"直接查询获得"},{"name":"傅集镇","code":"410221102","level":4,"mergeName":"河南省,开封市,杞县,傅集镇","lng":114.81293250731179,"lat":34.406031046134736,"info":"直接查询获得"},{"name":"圉镇镇","code":"410221103","level":4,"mergeName":"河南省,开封市,杞县,圉镇镇","lng":114.71919531548164,"lat":34.33752145516759,"info":"直接查询获得"},{"name":"高阳镇","code":"410221104","level":4,"mergeName":"河南省,开封市,杞县,高阳镇","lng":114.6903722848885,"lat":34.50157044442005,"info":"直接查询获得"},{"name":"葛岗镇","code":"410221105","level":4,"mergeName":"河南省,开封市,杞县,葛岗镇","lng":114.68495828741041,"lat":34.589065758830685,"info":"直接查询获得"},{"name":"阳堌镇","code":"410221106","level":4,"mergeName":"河南省,开封市,杞县,阳堌镇","lng":114.81222033070348,"lat":34.70680684327146,"info":"直接查询获得"},{"name":"邢口镇","code":"410221107","level":4,"mergeName":"河南省,开封市,杞县,邢口镇","lng":114.80755974205661,"lat":34.459876493507316,"info":"直接查询获得"},{"name":"裴村店乡","code":"410221200","level":4,"mergeName":"河南省,开封市,杞县,裴村店乡","lng":114.88777150714522,"lat":34.51178820936965,"info":"直接查询获得"},{"name":"宗店乡","code":"410221202","level":4,"mergeName":"河南省,开封市,杞县,宗店乡","lng":114.84891206841128,"lat":34.30755074799269,"info":"直接查询获得"},{"name":"板木乡","code":"410221203","level":4,"mergeName":"河南省,开封市,杞县,板木乡","lng":114.7966022114459,"lat":34.3051870457173,"info":"直接查询获得"},{"name":"竹林乡","code":"410221204","level":4,"mergeName":"河南省,开封市,杞县,竹林乡","lng":114.72735803798972,"lat":34.26567397570495,"info":"直接查询获得"},{"name":"官庄乡","code":"410221205","level":4,"mergeName":"河南省,开封市,杞县,官庄乡","lng":114.66361589595161,"lat":34.30298289080531,"info":"直接查询获得"},{"name":"湖岗乡","code":"410221206","level":4,"mergeName":"河南省,开封市,杞县,湖岗乡","lng":114.70047840153684,"lat":34.39670968628958,"info":"直接查询获得"},{"name":"苏木乡","code":"410221207","level":4,"mergeName":"河南省,开封市,杞县,苏木乡","lng":114.75020482168608,"lat":34.45447344718037,"info":"直接查询获得"},{"name":"沙沃乡","code":"410221208","level":4,"mergeName":"河南省,开封市,杞县,沙沃乡","lng":114.66298959735005,"lat":34.44953271705013,"info":"直接查询获得"},{"name":"平城乡","code":"410221209","level":4,"mergeName":"河南省,开封市,杞县,平城乡","lng":114.69976954865892,"lat":34.672355306623466,"info":"直接查询获得"},{"name":"泥沟乡","code":"410221210","level":4,"mergeName":"河南省,开封市,杞县,泥沟乡","lng":114.73273107273656,"lat":34.72098013836097,"info":"直接查询获得"},{"name":"柿园乡","code":"410221211","level":4,"mergeName":"河南省,开封市,杞县,柿园乡","lng":114.80867283241403,"lat":34.63504956287799,"info":"直接查询获得"},{"name":"西寨乡","code":"410221212","level":4,"mergeName":"河南省,开封市,杞县,西寨乡","lng":114.88277782681526,"lat":34.644175290326956,"info":"直接查询获得"},{"name":"城郊乡","code":"410221213","level":4,"mergeName":"河南省,开封市,杞县,城郊乡","lng":114.76469296244267,"lat":34.57318899457471,"info":"直接查询获得"},{"name":"工业园区","code":"410221401","level":4,"mergeName":"河南省,开封市,杞县,工业园区","lng":114.7895921047377,"lat":34.55485678068698,"info":"直接查询获得"},{"name":"通许县","code":"410222","level":3,"mergeName":"河南省,开封市,通许县","lng":114.47343590592583,"lat":34.48677180265463,"info":"直接查询获得"},{"name":"咸平街道","code":"410222001","level":4,"mergeName":"河南省,开封市,通许县,咸平街道","lng":114.47343590592583,"lat":34.48677180265463,"info":"直接查询获得"},{"name":"竖岗镇","code":"410222101","level":4,"mergeName":"河南省,开封市,通许县,竖岗镇","lng":114.35452585811177,"lat":34.44702994221515,"info":"直接查询获得"},{"name":"玉皇庙镇","code":"410222102","level":4,"mergeName":"河南省,开封市,通许县,玉皇庙镇","lng":114.57448898765978,"lat":34.334235936794784,"info":"直接查询获得"},{"name":"四所楼镇","code":"410222103","level":4,"mergeName":"河南省,开封市,通许县,四所楼镇","lng":114.58105128907127,"lat":34.43162888116186,"info":"直接查询获得"},{"name":"朱砂镇","code":"410222104","level":4,"mergeName":"河南省,开封市,通许县,朱砂镇","lng":114.54054229192936,"lat":34.524858536877474,"info":"直接查询获得"},{"name":"长智镇","code":"410222105","level":4,"mergeName":"河南省,开封市,通许县,长智镇","lng":114.57581300015093,"lat":34.476943006516,"info":"直接查询获得"},{"name":"冯庄乡","code":"410222200","level":4,"mergeName":"河南省,开封市,通许县,冯庄乡","lng":114.4765170039945,"lat":34.5419650041778,"info":"直接查询获得"},{"name":"孙营乡","code":"410222201","level":4,"mergeName":"河南省,开封市,通许县,孙营乡","lng":114.37238632758336,"lat":34.50150789674576,"info":"直接查询获得"},{"name":"大岗李乡","code":"410222202","level":4,"mergeName":"河南省,开封市,通许县,大岗李乡","lng":114.42605064959668,"lat":34.388126147775516,"info":"直接查询获得"},{"name":"邸阁乡","code":"410222203","level":4,"mergeName":"河南省,开封市,通许县,邸阁乡","lng":114.4734973500227,"lat":34.3639228769501,"info":"直接查询获得"},{"name":"练城乡","code":"410222204","level":4,"mergeName":"河南省,开封市,通许县,练城乡","lng":114.56501536792099,"lat":34.378965595603916,"info":"直接查询获得"},{"name":"厉庄乡","code":"410222205","level":4,"mergeName":"河南省,开封市,通许县,厉庄乡","lng":114.47678074649222,"lat":34.448502368868176,"info":"直接查询获得"},{"name":"尉氏县","code":"410223","level":3,"mergeName":"河南省,开封市,尉氏县","lng":114.1995611508576,"lat":34.41722801035352,"info":"直接查询获得"},{"name":"两湖街道","code":"410223001","level":4,"mergeName":"河南省,开封市,尉氏县,两湖街道","lng":114.1995611508576,"lat":34.41722801035352,"info":"直接查询获得"},{"name":"洧川镇","code":"410223101","level":4,"mergeName":"河南省,开封市,尉氏县,洧川镇","lng":113.99564391365102,"lat":34.29450448368333,"info":"直接查询获得"},{"name":"朱曲镇","code":"410223102","level":4,"mergeName":"河南省,开封市,尉氏县,朱曲镇","lng":114.07280826712758,"lat":34.29647013151343,"info":"直接查询获得"},{"name":"蔡庄镇","code":"410223103","level":4,"mergeName":"河南省,开封市,尉氏县,蔡庄镇","lng":114.15462521433197,"lat":34.277308902042556,"info":"直接查询获得"},{"name":"永兴镇","code":"410223104","level":4,"mergeName":"河南省,开封市,尉氏县,永兴镇","lng":114.35771843589424,"lat":34.29758363505358,"info":"直接查询获得"},{"name":"张市镇","code":"410223105","level":4,"mergeName":"河南省,开封市,尉氏县,张市镇","lng":114.29746001245437,"lat":34.354172030812336,"info":"直接查询获得"},{"name":"十八里镇","code":"410223106","level":4,"mergeName":"河南省,开封市,尉氏县,十八里镇","lng":114.29555820985918,"lat":34.43708112912761,"info":"直接查询获得"},{"name":"水坡镇","code":"410223107","level":4,"mergeName":"河南省,开封市,尉氏县,水坡镇","lng":114.27378121819466,"lat":34.50015020636526,"info":"直接查询获得"},{"name":"大营镇","code":"410223108","level":4,"mergeName":"河南省,开封市,尉氏县,大营镇","lng":114.05163888931,"lat":34.42937366690981,"info":"直接查询获得"},{"name":"庄头镇","code":"410223109","level":4,"mergeName":"河南省,开封市,尉氏县,庄头镇","lng":114.1813760337747,"lat":34.522662968207804,"info":"直接查询获得"},{"name":"邢庄乡","code":"410223200","level":4,"mergeName":"河南省,开封市,尉氏县,邢庄乡","lng":114.17970689230663,"lat":34.445939652378335,"info":"直接查询获得"},{"name":"大马乡","code":"410223203","level":4,"mergeName":"河南省,开封市,尉氏县,大马乡","lng":114.01479758373479,"lat":34.37477290634457,"info":"直接查询获得"},{"name":"岗李乡","code":"410223204","level":4,"mergeName":"河南省,开封市,尉氏县,岗李乡","lng":113.92864101244226,"lat":34.37396248451743,"info":"直接查询获得"},{"name":"门楼任乡","code":"410223205","level":4,"mergeName":"河南省,开封市,尉氏县,门楼任乡","lng":114.11036390524434,"lat":34.37262169573559,"info":"直接查询获得"},{"name":"大桥乡","code":"410223206","level":4,"mergeName":"河南省,开封市,尉氏县,大桥乡","lng":114.16239537733217,"lat":34.40456143838597,"info":"直接查询获得"},{"name":"南曹乡","code":"410223207","level":4,"mergeName":"河南省,开封市,尉氏县,南曹乡","lng":114.21697812689891,"lat":34.29653328139288,"info":"直接查询获得"},{"name":"小陈乡","code":"410223208","level":4,"mergeName":"河南省,开封市,尉氏县,小陈乡","lng":114.2669660437821,"lat":34.32123082702896,"info":"直接查询获得"},{"name":"兰考县","code":"410225","level":3,"mergeName":"河南省,开封市,兰考县","lng":114.8274607124941,"lat":34.828492897237666,"info":"直接查询获得"},{"name":"兰阳街道","code":"410225001","level":4,"mergeName":"河南省,开封市,兰考县,兰阳街道","lng":114.8274607124941,"lat":34.828492897237666,"info":"直接查询获得"},{"name":"桐乡街道","code":"410225002","level":4,"mergeName":"河南省,开封市,兰考县,桐乡街道","lng":114.8274607124941,"lat":34.828492897237666,"info":"直接查询获得"},{"name":"惠安街道","code":"410225003","level":4,"mergeName":"河南省,开封市,兰考县,惠安街道","lng":114.8274607124941,"lat":34.828492897237666,"info":"直接查询获得"},{"name":"堌阳镇","code":"410225101","level":4,"mergeName":"河南省,开封市,兰考县,堌阳镇","lng":114.96854399453315,"lat":34.96466896399511,"info":"直接查询获得"},{"name":"南彰镇","code":"410225102","level":4,"mergeName":"河南省,开封市,兰考县,南彰镇","lng":115.1480878676597,"lat":34.94047958973706,"info":"直接查询获得"},{"name":"考城镇","code":"410225103","level":4,"mergeName":"河南省,开封市,兰考县,考城镇","lng":115.14255259893774,"lat":34.85472548109675,"info":"直接查询获得"},{"name":"红庙镇","code":"410225104","level":4,"mergeName":"河南省,开封市,兰考县,红庙镇","lng":114.93668019978873,"lat":34.864813544075346,"info":"直接查询获得"},{"name":"谷营镇","code":"410225105","level":4,"mergeName":"河南省,开封市,兰考县,谷营镇","lng":114.8655440952166,"lat":34.97926316783506,"info":"直接查询获得"},{"name":"东坝头镇","code":"410225106","level":4,"mergeName":"河南省,开封市,兰考县,东坝头镇","lng":114.79999448254324,"lat":34.93297834107209,"info":"直接查询获得"},{"name":"小宋镇","code":"410225107","level":4,"mergeName":"河南省,开封市,兰考县,小宋镇","lng":115.08765723905356,"lat":34.92814500028421,"info":"直接查询获得"},{"name":"仪封镇","code":"410225108","level":4,"mergeName":"河南省,开封市,兰考县,仪封镇","lng":114.9555258409131,"lat":34.82155436632486,"info":"直接查询获得"},{"name":"三义寨乡","code":"410225201","level":4,"mergeName":"河南省,开封市,兰考县,三义寨乡","lng":114.7618868356906,"lat":34.829701534889,"info":"直接查询获得"},{"name":"孟寨乡","code":"410225206","level":4,"mergeName":"河南省,开封市,兰考县,孟寨乡","lng":115.06685517835899,"lat":34.976741280918326,"info":"直接查询获得"},{"name":"许河乡","code":"410225207","level":4,"mergeName":"河南省,开封市,兰考县,许河乡","lng":115.23258266358931,"lat":34.87786652604339,"info":"直接查询获得"},{"name":"葡萄架乡","code":"410225208","level":4,"mergeName":"河南省,开封市,兰考县,葡萄架乡","lng":115.03152131926008,"lat":34.85493831076077,"info":"直接查询获得"},{"name":"阎楼乡","code":"410225209","level":4,"mergeName":"河南省,开封市,兰考县,阎楼乡","lng":115.00873094914972,"lat":34.91360210988916,"info":"直接查询获得"},{"name":"中原石油勘探三公司","code":"410225400","level":4,"mergeName":"河南省,开封市,兰考县,中原石油勘探三公司","lng":114.83763402239461,"lat":34.85835002624431,"info":"直接查询获得"},{"name":"仪封园艺场","code":"410225401","level":4,"mergeName":"河南省,开封市,兰考县,仪封园艺场","lng":114.96295294103905,"lat":34.826564269748,"info":"直接查询获得"},{"name":"造纸林场","code":"410225402","level":4,"mergeName":"河南省,开封市,兰考县,造纸林场","lng":114.8274607124941,"lat":34.828492897237666,"info":"直接查询获得"},{"name":"柳林林场","code":"410225403","level":4,"mergeName":"河南省,开封市,兰考县,柳林林场","lng":114.8274607124941,"lat":34.828492897237666,"info":"直接查询获得"},{"name":"西关农场","code":"410225404","level":4,"mergeName":"河南省,开封市,兰考县,西关农场","lng":114.80873274939154,"lat":34.83565601403204,"info":"直接查询获得"},{"name":"畜牧良种农场","code":"410225405","level":4,"mergeName":"河南省,开封市,兰考县,畜牧良种农场","lng":114.8274607124941,"lat":34.828492897237666,"info":"直接查询获得"},{"name":"固阳农科所","code":"410225406","level":4,"mergeName":"河南省,开封市,兰考县,固阳农科所","lng":114.8274607124941,"lat":34.828492897237666,"info":"直接查询获得"},{"name":"洛阳市","code":"4103","level":2,"mergeName":"河南省,洛阳市","lng":112.4594212983115,"lat":34.62426277921943,"info":"直接查询获得"},{"name":"老城区","code":"410302","level":3,"mergeName":"河南省,洛阳市,老城区","lng":112.4765035657198,"lat":34.68960106349699,"info":"直接查询获得"},{"name":"西关街道","code":"410302001","level":4,"mergeName":"河南省,洛阳市,老城区,西关街道","lng":112.47540134485905,"lat":34.6895528313715,"info":"直接查询获得"},{"name":"西南隅街道","code":"410302002","level":4,"mergeName":"河南省,洛阳市,老城区,西南隅街道","lng":112.48006678435567,"lat":34.68545893360671,"info":"直接查询获得"},{"name":"西北隅街道","code":"410302003","level":4,"mergeName":"河南省,洛阳市,老城区,西北隅街道","lng":112.4845078271359,"lat":34.69184300979696,"info":"直接查询获得"},{"name":"东南隅街道","code":"410302004","level":4,"mergeName":"河南省,洛阳市,老城区,东南隅街道","lng":112.48889182751624,"lat":34.685027715624884,"info":"直接查询获得"},{"name":"东北隅街道","code":"410302005","level":4,"mergeName":"河南省,洛阳市,老城区,东北隅街道","lng":112.48861757484406,"lat":34.691076507613204,"info":"直接查询获得"},{"name":"南关街道","code":"410302006","level":4,"mergeName":"河南省,洛阳市,老城区,南关街道","lng":112.4859081955954,"lat":34.68408557325328,"info":"直接查询获得"},{"name":"洛浦街道","code":"410302007","level":4,"mergeName":"河南省,洛阳市,老城区,洛浦街道","lng":112.4726960079852,"lat":34.67836896516935,"info":"直接查询获得"},{"name":"邙山街道","code":"410302008","level":4,"mergeName":"河南省,洛阳市,老城区,邙山街道","lng":112.42895868050152,"lat":34.72490033375956,"info":"直接查询获得"},{"name":"道北路街道","code":"410302009","level":4,"mergeName":"河南省,洛阳市,老城区,道北路街道","lng":112.4765035657198,"lat":34.68960106349699,"info":"直接查询获得"},{"name":"西工区","code":"410303","level":3,"mergeName":"河南省,洛阳市,西工区","lng":112.43439953731436,"lat":34.66676784751269,"info":"直接查询获得"},{"name":"王城路街道","code":"410303001","level":4,"mergeName":"河南省,洛阳市,西工区,王城路街道","lng":112.43452664754403,"lat":34.66619364942899,"info":"直接查询获得"},{"name":"金谷园路街道","code":"410303002","level":4,"mergeName":"河南省,洛阳市,西工区,金谷园路街道","lng":112.43439953731436,"lat":34.66676784751269,"info":"直接查询获得"},{"name":"西工街道","code":"410303003","level":4,"mergeName":"河南省,洛阳市,西工区,西工街道","lng":112.45496785891524,"lat":34.676432046582434,"info":"直接查询获得"},{"name":"邙岭路街道","code":"410303004","level":4,"mergeName":"河南省,洛阳市,西工区,邙岭路街道","lng":112.43140100879324,"lat":34.70779035071313,"info":"直接查询获得"},{"name":"唐宫路街道","code":"410303006","level":4,"mergeName":"河南省,洛阳市,西工区,唐宫路街道","lng":112.4612225805201,"lat":34.68532276365769,"info":"直接查询获得"},{"name":"汉屯路街道","code":"410303007","level":4,"mergeName":"河南省,洛阳市,西工区,汉屯路街道","lng":112.43081053731035,"lat":34.67874047664744,"info":"直接查询获得"},{"name":"凯旋东路街道","code":"410303008","level":4,"mergeName":"河南省,洛阳市,西工区,凯旋东路街道","lng":112.46586247669956,"lat":34.67639704314346,"info":"直接查询获得"},{"name":"洛北街道","code":"410303009","level":4,"mergeName":"河南省,洛阳市,西工区,洛北街道","lng":112.42171249551207,"lat":34.68672749623849,"info":"直接查询获得"},{"name":"红山街道","code":"410303010","level":4,"mergeName":"河南省,洛阳市,西工区,红山街道","lng":112.37493198204548,"lat":34.70368296311681,"info":"直接查询获得"},{"name":"瀍河回族区","code":"410304","level":3,"mergeName":"河南省,洛阳市,瀍河回族区","lng":112.50660380708702,"lat":34.6854624213354,"info":"直接查询获得"},{"name":"东关街道","code":"410304001","level":4,"mergeName":"河南省,洛阳市,瀍河回族区,东关街道","lng":112.49884118985311,"lat":34.69242593250942,"info":"直接查询获得"},{"name":"瀍西街道","code":"410304002","level":4,"mergeName":"河南省,洛阳市,瀍河回族区,瀍西街道","lng":112.49270468525334,"lat":34.69863451464675,"info":"直接查询获得"},{"name":"五股路街道","code":"410304003","level":4,"mergeName":"河南省,洛阳市,瀍河回族区,五股路街道","lng":112.48835814421277,"lat":34.70351892774194,"info":"直接查询获得"},{"name":"北窑街道","code":"410304004","level":4,"mergeName":"河南省,洛阳市,瀍河回族区,北窑街道","lng":112.49869054401908,"lat":34.69547314994219,"info":"直接查询获得"},{"name":"塔湾街道","code":"410304005","level":4,"mergeName":"河南省,洛阳市,瀍河回族区,塔湾街道","lng":112.52748696949796,"lat":34.70262004612046,"info":"直接查询获得"},{"name":"杨文街道","code":"410304006","level":4,"mergeName":"河南省,洛阳市,瀍河回族区,杨文街道","lng":112.53117803227909,"lat":34.73198093931615,"info":"直接查询获得"},{"name":"华林街道","code":"410304007","level":4,"mergeName":"河南省,洛阳市,瀍河回族区,华林街道","lng":112.51287893190495,"lat":34.68324248661392,"info":"直接查询获得"},{"name":"瀍河回族乡","code":"410304200","level":4,"mergeName":"河南省,洛阳市,瀍河回族区,瀍河回族乡","lng":112.51009623924872,"lat":34.70278302732877,"info":"直接查询获得"},{"name":"涧西区","code":"410305","level":3,"mergeName":"河南省,洛阳市,涧西区","lng":112.40255200189966,"lat":34.66346897430892,"info":"直接查询获得"},{"name":"湖北路街道","code":"410305001","level":4,"mergeName":"河南省,洛阳市,涧西区,湖北路街道","lng":112.40255200189966,"lat":34.66346897430892,"info":"直接查询获得"},{"name":"天津路街道","code":"410305002","level":4,"mergeName":"河南省,洛阳市,涧西区,天津路街道","lng":112.40255200189966,"lat":34.66346897430892,"info":"直接查询获得"},{"name":"长春路街道","code":"410305003","level":4,"mergeName":"河南省,洛阳市,涧西区,长春路街道","lng":112.41509701800761,"lat":34.6655320103076,"info":"直接查询获得"},{"name":"南昌路街道","code":"410305004","level":4,"mergeName":"河南省,洛阳市,涧西区,南昌路街道","lng":112.40255200189966,"lat":34.66346897430892,"info":"直接查询获得"},{"name":"长安路街道","code":"410305005","level":4,"mergeName":"河南省,洛阳市,涧西区,长安路街道","lng":112.40255200189966,"lat":34.66346897430892,"info":"直接查询获得"},{"name":"重庆路街道","code":"410305006","level":4,"mergeName":"河南省,洛阳市,涧西区,重庆路街道","lng":112.37201119917134,"lat":34.68385845877695,"info":"直接查询获得"},{"name":"郑州路街道","code":"410305007","level":4,"mergeName":"河南省,洛阳市,涧西区,郑州路街道","lng":112.40255200189966,"lat":34.66346897430892,"info":"直接查询获得"},{"name":"武汉路街道","code":"410305008","level":4,"mergeName":"河南省,洛阳市,涧西区,武汉路街道","lng":112.35534048055109,"lat":34.678895416845435,"info":"直接查询获得"},{"name":"珠江路街道","code":"410305010","level":4,"mergeName":"河南省,洛阳市,涧西区,珠江路街道","lng":112.40255200189966,"lat":34.66346897430892,"info":"直接查询获得"},{"name":"周山路街道","code":"410305011","level":4,"mergeName":"河南省,洛阳市,涧西区,周山路街道","lng":112.41070945584592,"lat":34.64347581551096,"info":"直接查询获得"},{"name":"工农街道","code":"410305012","level":4,"mergeName":"河南省,洛阳市,涧西区,工农街道","lng":112.39062807422133,"lat":34.67025614816015,"info":"直接查询获得"},{"name":"吉利区","code":"410306","level":3,"mergeName":"河南省,洛阳市,吉利区","lng":112.59547847119167,"lat":34.90701265711501,"info":"直接查询获得"},{"name":"西霞院街道","code":"410306002","level":4,"mergeName":"河南省,洛阳市,吉利区,西霞院街道","lng":112.56854996691905,"lat":34.90532796623104,"info":"直接查询获得"},{"name":"康乐街道","code":"410306003","level":4,"mergeName":"河南省,洛阳市,吉利区,康乐街道","lng":112.58298367036171,"lat":34.9060662624002,"info":"直接查询获得"},{"name":"吉利街道","code":"410306004","level":4,"mergeName":"河南省,洛阳市,吉利区,吉利街道","lng":112.59553811867751,"lat":34.90660665897887,"info":"直接查询获得"},{"name":"河阳街道","code":"410306005","level":4,"mergeName":"河南省,洛阳市,吉利区,河阳街道","lng":112.61377542731053,"lat":34.90622456300219,"info":"直接查询获得"},{"name":"洛龙区","code":"410311","level":3,"mergeName":"河南省,洛阳市,洛龙区","lng":112.47046928828706,"lat":34.62470471302437,"info":"直接查询获得"},{"name":"开元路街道","code":"410311002","level":4,"mergeName":"河南省,洛阳市,洛龙区,开元路街道","lng":112.46026525633812,"lat":34.626805481315124,"info":"直接查询获得"},{"name":"龙门石窟街道","code":"410311003","level":4,"mergeName":"河南省,洛阳市,洛龙区,龙门石窟街道","lng":112.47679418372176,"lat":34.56202785842126,"info":"直接查询获得"},{"name":"关林街道","code":"410311004","level":4,"mergeName":"河南省,洛阳市,洛龙区,关林街道","lng":112.46026525633812,"lat":34.626805481315124,"info":"直接查询获得"},{"name":"太康东路街道","code":"410311005","level":4,"mergeName":"河南省,洛阳市,洛龙区,太康东路街道","lng":112.49936355450717,"lat":34.63260574227338,"info":"直接查询获得"},{"name":"古城街道","code":"410311006","level":4,"mergeName":"河南省,洛阳市,洛龙区,古城街道","lng":112.42123113221642,"lat":34.590709549663096,"info":"直接查询获得"},{"name":"科技园街道","code":"410311007","level":4,"mergeName":"河南省,洛阳市,洛龙区,科技园街道","lng":112.47046928828706,"lat":34.62470471302437,"info":"直接查询获得"},{"name":"翠云路街道","code":"410311008","level":4,"mergeName":"河南省,洛阳市,洛龙区,翠云路街道","lng":112.47046928828706,"lat":34.62470471302437,"info":"直接查询获得"},{"name":"龙门街道","code":"410311009","level":4,"mergeName":"河南省,洛阳市,洛龙区,龙门街道","lng":112.48223691080668,"lat":34.585365978989564,"info":"直接查询获得"},{"name":"学府街道","code":"410311010","level":4,"mergeName":"河南省,洛阳市,洛龙区,学府街道","lng":112.47046928828706,"lat":34.62470471302437,"info":"直接查询获得"},{"name":"定鼎门街道","code":"410311011","level":4,"mergeName":"河南省,洛阳市,洛龙区,定鼎门街道","lng":112.47737992742276,"lat":34.66299761444988,"info":"直接查询获得"},{"name":"安乐镇","code":"410311102","level":4,"mergeName":"河南省,洛阳市,洛龙区,安乐镇","lng":112.48091038306009,"lat":34.650736147296016,"info":"直接查询获得"},{"name":"白马寺镇","code":"410311103","level":4,"mergeName":"河南省,洛阳市,洛龙区,白马寺镇","lng":112.56926581759689,"lat":34.725179180884695,"info":"直接查询获得"},{"name":"李楼镇","code":"410311107","level":4,"mergeName":"河南省,洛阳市,洛龙区,李楼镇","lng":112.53172698677623,"lat":34.64237195027765,"info":"直接查询获得"},{"name":"寇店镇","code":"410311194","level":4,"mergeName":"河南省,洛阳市,洛龙区,寇店镇","lng":112.66155539908075,"lat":34.59149328218538,"info":"直接查询获得"},{"name":"诸葛镇","code":"410311195","level":4,"mergeName":"河南省,洛阳市,洛龙区,诸葛镇","lng":112.53789241681342,"lat":34.583222544798815,"info":"直接查询获得"},{"name":"李村镇","code":"410311196","level":4,"mergeName":"河南省,洛阳市,洛龙区,李村镇","lng":112.60249019484979,"lat":34.60783832697742,"info":"直接查询获得"},{"name":"庞村镇","code":"410311197","level":4,"mergeName":"河南省,洛阳市,洛龙区,庞村镇","lng":112.65666304761233,"lat":34.63223110998296,"info":"直接查询获得"},{"name":"佃庄镇","code":"410311199","level":4,"mergeName":"河南省,洛阳市,洛龙区,佃庄镇","lng":112.47046928828706,"lat":34.62470471302437,"info":"直接查询获得"},{"name":"孟津县","code":"410322","level":3,"mergeName":"河南省,洛阳市,孟津县","lng":112.45141766570924,"lat":34.83173157028531,"info":"直接查询获得"},{"name":"城关镇","code":"410322100","level":4,"mergeName":"河南省,洛阳市,孟津县,城关镇","lng":112.45122858767058,"lat":34.83726094543553,"info":"直接查询获得"},{"name":"会盟镇","code":"410322101","level":4,"mergeName":"河南省,洛阳市,孟津县,会盟镇","lng":112.63360067059355,"lat":34.81998844451231,"info":"直接查询获得"},{"name":"平乐镇","code":"410322102","level":4,"mergeName":"河南省,洛阳市,孟津县,平乐镇","lng":112.60192246576749,"lat":34.752563781148915,"info":"直接查询获得"},{"name":"送庄镇","code":"410322103","level":4,"mergeName":"河南省,洛阳市,孟津县,送庄镇","lng":112.57786198149658,"lat":34.80061407685159,"info":"直接查询获得"},{"name":"白鹤镇","code":"410322104","level":4,"mergeName":"河南省,洛阳市,孟津县,白鹤镇","lng":112.56801870904044,"lat":34.86641140653993,"info":"直接查询获得"},{"name":"朝阳镇","code":"410322105","level":4,"mergeName":"河南省,洛阳市,孟津县,朝阳镇","lng":112.4766888861465,"lat":34.76756300720622,"info":"直接查询获得"},{"name":"小浪底镇","code":"410322106","level":4,"mergeName":"河南省,洛阳市,孟津县,小浪底镇","lng":112.34422180022003,"lat":34.900405753284225,"info":"直接查询获得"},{"name":"麻屯镇","code":"410322107","level":4,"mergeName":"河南省,洛阳市,孟津县,麻屯镇","lng":112.37538778226124,"lat":34.74677008507269,"info":"直接查询获得"},{"name":"横水镇","code":"410322108","level":4,"mergeName":"河南省,洛阳市,孟津县,横水镇","lng":112.3003317518166,"lat":34.86334826629176,"info":"直接查询获得"},{"name":"常袋镇","code":"410322109","level":4,"mergeName":"河南省,洛阳市,孟津县,常袋镇","lng":112.37431888853493,"lat":34.80099948399613,"info":"直接查询获得"},{"name":"新安县","code":"410323","level":3,"mergeName":"河南省,洛阳市,新安县","lng":112.14060970841214,"lat":34.73438332734371,"info":"直接查询获得"},{"name":"城关镇","code":"410323100","level":4,"mergeName":"河南省,洛阳市,新安县,城关镇","lng":112.16291135451148,"lat":34.7452207229902,"info":"直接查询获得"},{"name":"石寺镇","code":"410323101","level":4,"mergeName":"河南省,洛阳市,新安县,石寺镇","lng":112.11533175068357,"lat":34.82997643152745,"info":"直接查询获得"},{"name":"五头镇","code":"410323102","level":4,"mergeName":"河南省,洛阳市,新安县,五头镇","lng":112.2380438765686,"lat":34.76972557635119,"info":"直接查询获得"},{"name":"磁涧镇","code":"410323103","level":4,"mergeName":"河南省,洛阳市,新安县,磁涧镇","lng":112.27712106455814,"lat":34.689153097264594,"info":"直接查询获得"},{"name":"铁门镇","code":"410323104","level":4,"mergeName":"河南省,洛阳市,新安县,铁门镇","lng":112.0330247778235,"lat":34.7537122984253,"info":"直接查询获得"},{"name":"南李村镇","code":"410323105","level":4,"mergeName":"河南省,洛阳市,新安县,南李村镇","lng":112.146867035103,"lat":34.68533656618053,"info":"直接查询获得"},{"name":"北冶镇","code":"410323106","level":4,"mergeName":"河南省,洛阳市,新安县,北冶镇","lng":112.12312652725474,"lat":34.8975699009403,"info":"直接查询获得"},{"name":"仓头镇","code":"410323107","level":4,"mergeName":"河南省,洛阳市,新安县,仓头镇","lng":112.28130474280977,"lat":34.855490376767,"info":"直接查询获得"},{"name":"正村镇","code":"410323108","level":4,"mergeName":"河南省,洛阳市,新安县,正村镇","lng":112.18234462308351,"lat":34.82540662689521,"info":"直接查询获得"},{"name":"石井镇","code":"410323109","level":4,"mergeName":"河南省,洛阳市,新安县,石井镇","lng":112.09832709687134,"lat":34.977676057419565,"info":"直接查询获得"},{"name":"青要山镇","code":"410323110","level":4,"mergeName":"河南省,洛阳市,新安县,青要山镇","lng":112.0251299300185,"lat":34.88203037967761,"info":"直接查询获得"},{"name":"栾川县","code":"410324","level":3,"mergeName":"河南省,洛阳市,栾川县","lng":111.62242666650891,"lat":33.791822464323104,"info":"直接查询获得"},{"name":"城关镇","code":"410324100","level":4,"mergeName":"河南省,洛阳市,栾川县,城关镇","lng":111.6266036074692,"lat":33.79062378008502,"info":"直接查询获得"},{"name":"赤土店镇","code":"410324101","level":4,"mergeName":"河南省,洛阳市,栾川县,赤土店镇","lng":111.59262969308185,"lat":33.85218396601317,"info":"直接查询获得"},{"name":"合峪镇","code":"410324102","level":4,"mergeName":"河南省,洛阳市,栾川县,合峪镇","lng":111.90332131981539,"lat":33.84592936630741,"info":"直接查询获得"},{"name":"潭头镇","code":"410324103","level":4,"mergeName":"河南省,洛阳市,栾川县,潭头镇","lng":111.75922979228456,"lat":34.00798849752433,"info":"直接查询获得"},{"name":"三川镇","code":"410324104","level":4,"mergeName":"河南省,洛阳市,栾川县,三川镇","lng":111.39701378692352,"lat":33.93765501560375,"info":"直接查询获得"},{"name":"冷水镇","code":"410324105","level":4,"mergeName":"河南省,洛阳市,栾川县,冷水镇","lng":111.46475024441176,"lat":33.926696863710006,"info":"直接查询获得"},{"name":"陶湾镇","code":"410324106","level":4,"mergeName":"河南省,洛阳市,栾川县,陶湾镇","lng":111.47323725520893,"lat":33.83131496007906,"info":"直接查询获得"},{"name":"石庙镇","code":"410324107","level":4,"mergeName":"河南省,洛阳市,栾川县,石庙镇","lng":111.54801193636784,"lat":33.815097176645345,"info":"直接查询获得"},{"name":"庙子镇","code":"410324108","level":4,"mergeName":"河南省,洛阳市,栾川县,庙子镇","lng":111.74880235175529,"lat":33.7732237374704,"info":"直接查询获得"},{"name":"狮子庙镇","code":"410324109","level":4,"mergeName":"河南省,洛阳市,栾川县,狮子庙镇","lng":111.54779787016481,"lat":34.01957790467522,"info":"直接查询获得"},{"name":"白土镇","code":"410324110","level":4,"mergeName":"河南省,洛阳市,栾川县,白土镇","lng":111.44034858370817,"lat":34.03401658949215,"info":"直接查询获得"},{"name":"叫河镇","code":"410324111","level":4,"mergeName":"河南省,洛阳市,栾川县,叫河镇","lng":111.31385998145919,"lat":33.863943706281496,"info":"直接查询获得"},{"name":"栾川乡","code":"410324200","level":4,"mergeName":"河南省,洛阳市,栾川县,栾川乡","lng":111.62428544027016,"lat":33.786448467336655,"info":"直接查询获得"},{"name":"秋扒乡","code":"410324203","level":4,"mergeName":"河南省,洛阳市,栾川县,秋扒乡","lng":111.6625331329518,"lat":34.03265051230909,"info":"直接查询获得"},{"name":"重渡沟生态旅游示范区","code":"410324400","level":4,"mergeName":"河南省,洛阳市,栾川县,重渡沟生态旅游示范区","lng":111.70130804113722,"lat":33.935733048247684,"info":"直接查询获得"},{"name":"嵩县","code":"410325","level":3,"mergeName":"河南省,洛阳市,嵩县","lng":112.09240816186609,"lat":34.14072155640602,"info":"直接查询获得"},{"name":"城关镇","code":"410325100","level":4,"mergeName":"河南省,洛阳市,嵩县,城关镇","lng":111.99280800934534,"lat":34.20898855140926,"info":"直接查询获得"},{"name":"田湖镇","code":"410325101","level":4,"mergeName":"河南省,洛阳市,嵩县,田湖镇","lng":112.20904531707879,"lat":34.238470353610346,"info":"直接查询获得"},{"name":"旧县镇","code":"410325102","level":4,"mergeName":"河南省,洛阳市,嵩县,旧县镇","lng":111.86388561809682,"lat":34.029293076688276,"info":"直接查询获得"},{"name":"车村镇","code":"410325103","level":4,"mergeName":"河南省,洛阳市,嵩县,车村镇","lng":112.12952183367193,"lat":33.798516212906,"info":"直接查询获得"},{"name":"闫庄镇","code":"410325104","level":4,"mergeName":"河南省,洛阳市,嵩县,闫庄镇","lng":112.11199346774738,"lat":34.244303832246345,"info":"直接查询获得"},{"name":"德亭镇","code":"410325105","level":4,"mergeName":"河南省,洛阳市,嵩县,德亭镇","lng":111.9326890828698,"lat":34.14526035928458,"info":"直接查询获得"},{"name":"大章镇","code":"410325106","level":4,"mergeName":"河南省,洛阳市,嵩县,大章镇","lng":111.89648970641201,"lat":34.076848537417014,"info":"直接查询获得"},{"name":"白河镇","code":"410325107","level":4,"mergeName":"河南省,洛阳市,嵩县,白河镇","lng":111.9564913043066,"lat":33.63957713266518,"info":"直接查询获得"},{"name":"纸房镇","code":"410325108","level":4,"mergeName":"河南省,洛阳市,嵩县,纸房镇","lng":112.11242618151154,"lat":34.12329651257223,"info":"直接查询获得"},{"name":"饭坡镇","code":"410325109","level":4,"mergeName":"河南省,洛阳市,嵩县,饭坡镇","lng":112.22349312391796,"lat":34.19242610133335,"info":"直接查询获得"},{"name":"九皋镇","code":"410325110","level":4,"mergeName":"河南省,洛阳市,嵩县,九皋镇","lng":112.30422042653875,"lat":34.17364871440193,"info":"直接查询获得"},{"name":"陆浑镇","code":"410325111","level":4,"mergeName":"河南省,洛阳市,嵩县,陆浑镇","lng":112.09240816186609,"lat":34.14072155640602,"info":"直接查询获得"},{"name":"大坪乡","code":"410325201","level":4,"mergeName":"河南省,洛阳市,嵩县,大坪乡","lng":112.07068839226254,"lat":34.22984360771015,"info":"直接查询获得"},{"name":"何村乡","code":"410325203","level":4,"mergeName":"河南省,洛阳市,嵩县,何村乡","lng":112.06620845285373,"lat":34.13122912441793,"info":"直接查询获得"},{"name":"黄庄乡","code":"410325209","level":4,"mergeName":"河南省,洛阳市,嵩县,黄庄乡","lng":112.27680504067973,"lat":34.080905078332506,"info":"直接查询获得"},{"name":"木植街乡","code":"410325210","level":4,"mergeName":"河南省,洛阳市,嵩县,木植街乡","lng":112.1767073966862,"lat":33.964513347699636,"info":"直接查询获得"},{"name":"陶村林场","code":"410325400","level":4,"mergeName":"河南省,洛阳市,嵩县,陶村林场","lng":111.96936653752,"lat":34.21449330091575,"info":"直接查询获得"},{"name":"五马寺林场","code":"410325401","level":4,"mergeName":"河南省,洛阳市,嵩县,五马寺林场","lng":111.84789128849165,"lat":33.67460217325754,"info":"直接查询获得"},{"name":"王莽寨林场","code":"410325402","level":4,"mergeName":"河南省,洛阳市,嵩县,王莽寨林场","lng":111.85625091956753,"lat":34.26695078178354,"info":"直接查询获得"},{"name":"汝阳县","code":"410326","level":3,"mergeName":"河南省,洛阳市,汝阳县","lng":112.47950327730925,"lat":34.15984336489338,"info":"直接查询获得"},{"name":"城关镇","code":"410326100","level":4,"mergeName":"河南省,洛阳市,汝阳县,城关镇","lng":112.47417522790576,"lat":34.18370195112184,"info":"直接查询获得"},{"name":"上店镇","code":"410326101","level":4,"mergeName":"河南省,洛阳市,汝阳县,上店镇","lng":112.43238293127503,"lat":34.11995667329047,"info":"直接查询获得"},{"name":"付店镇","code":"410326102","level":4,"mergeName":"河南省,洛阳市,汝阳县,付店镇","lng":112.36486296541469,"lat":33.93751274898943,"info":"直接查询获得"},{"name":"小店镇","code":"410326103","level":4,"mergeName":"河南省,洛阳市,汝阳县,小店镇","lng":112.56234276567565,"lat":34.18544601392842,"info":"直接查询获得"},{"name":"三屯镇","code":"410326104","level":4,"mergeName":"河南省,洛阳市,汝阳县,三屯镇","lng":112.51064842764569,"lat":34.073296632524,"info":"直接查询获得"},{"name":"刘店镇","code":"410326105","level":4,"mergeName":"河南省,洛阳市,汝阳县,刘店镇","lng":112.59149250998279,"lat":34.09530998062102,"info":"直接查询获得"},{"name":"内埠镇","code":"410326106","level":4,"mergeName":"河南省,洛阳市,汝阳县,内埠镇","lng":112.53292299073222,"lat":34.30721200473609,"info":"直接查询获得"},{"name":"陶营镇","code":"410326107","level":4,"mergeName":"河南省,洛阳市,汝阳县,陶营镇","lng":112.51490010762443,"lat":34.26879103670053,"info":"直接查询获得"},{"name":"柏树乡","code":"410326200","level":4,"mergeName":"河南省,洛阳市,汝阳县,柏树乡","lng":112.39615606666862,"lat":34.137690845062245,"info":"直接查询获得"},{"name":"十八盘乡","code":"410326202","level":4,"mergeName":"河南省,洛阳市,汝阳县,十八盘乡","lng":112.41357358169324,"lat":34.03895484996211,"info":"直接查询获得"},{"name":"靳村乡","code":"410326203","level":4,"mergeName":"河南省,洛阳市,汝阳县,靳村乡","lng":112.27863273307034,"lat":33.9534046921988,"info":"直接查询获得"},{"name":"王坪乡","code":"410326204","level":4,"mergeName":"河南省,洛阳市,汝阳县,王坪乡","lng":112.47112388351219,"lat":33.9350762087847,"info":"直接查询获得"},{"name":"蔡店乡","code":"410326209","level":4,"mergeName":"河南省,洛阳市,汝阳县,蔡店乡","lng":112.44128298294568,"lat":34.3009220433555,"info":"直接查询获得"},{"name":"大安工业园区","code":"410326400","level":4,"mergeName":"河南省,洛阳市,汝阳县,大安工业园区","lng":112.47950327730925,"lat":34.15984336489338,"info":"直接查询获得"},{"name":"宜阳县","code":"410327","level":3,"mergeName":"河南省,洛阳市,宜阳县","lng":112.17946537426293,"lat":34.54104694255354,"info":"直接查询获得"},{"name":"城关镇","code":"410327100","level":4,"mergeName":"河南省,洛阳市,宜阳县,城关镇","lng":112.1837733079293,"lat":34.52342239643317,"info":"直接查询获得"},{"name":"柳泉镇","code":"410327102","level":4,"mergeName":"河南省,洛阳市,宜阳县,柳泉镇","lng":112.04756232538313,"lat":34.522382355912725,"info":"直接查询获得"},{"name":"韩城镇","code":"410327103","level":4,"mergeName":"河南省,洛阳市,宜阳县,韩城镇","lng":111.9352500620482,"lat":34.49643907213449,"info":"直接查询获得"},{"name":"白杨镇","code":"410327104","level":4,"mergeName":"河南省,洛阳市,宜阳县,白杨镇","lng":112.23112270210586,"lat":34.39521921104413,"info":"直接查询获得"},{"name":"香鹿山镇","code":"410327105","level":4,"mergeName":"河南省,洛阳市,宜阳县,香鹿山镇","lng":112.2311250377002,"lat":34.55502802516746,"info":"直接查询获得"},{"name":"锦屏镇","code":"410327106","level":4,"mergeName":"河南省,洛阳市,宜阳县,锦屏镇","lng":112.2024960410972,"lat":34.522132004922646,"info":"直接查询获得"},{"name":"三乡镇","code":"410327107","level":4,"mergeName":"河南省,洛阳市,宜阳县,三乡镇","lng":111.80701488439618,"lat":34.450229729716334,"info":"直接查询获得"},{"name":"张坞镇","code":"410327108","level":4,"mergeName":"河南省,洛阳市,宜阳县,张坞镇","lng":111.83620613041788,"lat":34.429194345822445,"info":"直接查询获得"},{"name":"莲庄镇","code":"410327109","level":4,"mergeName":"河南省,洛阳市,宜阳县,莲庄镇","lng":112.00490215603647,"lat":34.49493797038847,"info":"直接查询获得"},{"name":"赵保镇","code":"410327110","level":4,"mergeName":"河南省,洛阳市,宜阳县,赵保镇","lng":112.10315198559597,"lat":34.43338398593647,"info":"直接查询获得"},{"name":"樊村镇","code":"410327111","level":4,"mergeName":"河南省,洛阳市,宜阳县,樊村镇","lng":112.27064095810081,"lat":34.47250544187208,"info":"直接查询获得"},{"name":"高村镇","code":"410327112","level":4,"mergeName":"河南省,洛阳市,宜阳县,高村镇","lng":111.87843664023909,"lat":34.5855415436079,"info":"直接查询获得"},{"name":"盐镇乡","code":"410327203","level":4,"mergeName":"河南省,洛阳市,宜阳县,盐镇乡","lng":112.00357293337335,"lat":34.66946435744332,"info":"直接查询获得"},{"name":"花果山乡","code":"410327208","level":4,"mergeName":"河南省,洛阳市,宜阳县,花果山乡","lng":111.89956469600322,"lat":34.32438635376278,"info":"直接查询获得"},{"name":"上观乡","code":"410327209","level":4,"mergeName":"河南省,洛阳市,宜阳县,上观乡","lng":111.97601229151337,"lat":34.41080759394939,"info":"直接查询获得"},{"name":"董王庄乡","code":"410327212","level":4,"mergeName":"河南省,洛阳市,宜阳县,董王庄乡","lng":112.11731143636645,"lat":34.36461241529719,"info":"直接查询获得"},{"name":"洛宁县","code":"410328","level":3,"mergeName":"河南省,洛阳市,洛宁县","lng":111.65958740952347,"lat":34.39498456021476,"info":"直接查询获得"},{"name":"城关镇","code":"410328100","level":4,"mergeName":"河南省,洛阳市,洛宁县,城关镇","lng":111.66906954250358,"lat":34.40006066442969,"info":"直接查询获得"},{"name":"王范回族镇","code":"410328101","level":4,"mergeName":"河南省,洛阳市,洛宁县,王范回族镇","lng":111.64393317838439,"lat":34.39304715751009,"info":"直接查询获得"},{"name":"上戈镇","code":"410328102","level":4,"mergeName":"河南省,洛阳市,洛宁县,上戈镇","lng":111.26578446717619,"lat":34.35595298932058,"info":"直接查询获得"},{"name":"下峪镇","code":"410328103","level":4,"mergeName":"河南省,洛阳市,洛宁县,下峪镇","lng":111.3254523445738,"lat":34.222870005305104,"info":"直接查询获得"},{"name":"河底镇","code":"410328104","level":4,"mergeName":"河南省,洛阳市,洛宁县,河底镇","lng":111.77311490055227,"lat":34.58461074224312,"info":"直接查询获得"},{"name":"兴华镇","code":"410328105","level":4,"mergeName":"河南省,洛阳市,洛宁县,兴华镇","lng":111.44594215245769,"lat":34.26789209582251,"info":"直接查询获得"},{"name":"东宋镇","code":"410328106","level":4,"mergeName":"河南省,洛阳市,洛宁县,东宋镇","lng":111.72507954052557,"lat":34.46009823641432,"info":"直接查询获得"},{"name":"马店镇","code":"410328107","level":4,"mergeName":"河南省,洛阳市,洛宁县,马店镇","lng":111.5526901318027,"lat":34.37248597690832,"info":"直接查询获得"},{"name":"故县镇","code":"410328108","level":4,"mergeName":"河南省,洛阳市,洛宁县,故县镇","lng":111.2781640154092,"lat":34.248196122409844,"info":"直接查询获得"},{"name":"赵村镇","code":"410328109","level":4,"mergeName":"河南省,洛阳市,洛宁县,赵村镇","lng":111.60991803177411,"lat":34.32912899615935,"info":"直接查询获得"},{"name":"长水镇","code":"410328110","level":4,"mergeName":"河南省,洛阳市,洛宁县,长水镇","lng":111.46543223795494,"lat":34.34917875086921,"info":"直接查询获得"},{"name":"景阳镇","code":"410328111","level":4,"mergeName":"河南省,洛阳市,洛宁县,景阳镇","lng":111.57785247761214,"lat":34.27675086063622,"info":"直接查询获得"},{"name":"城郊乡","code":"410328200","level":4,"mergeName":"河南省,洛阳市,洛宁县,城郊乡","lng":111.69483700756555,"lat":34.40201903066423,"info":"直接查询获得"},{"name":"小界乡","code":"410328205","level":4,"mergeName":"河南省,洛阳市,洛宁县,小界乡","lng":111.57989046332264,"lat":34.47985492891377,"info":"直接查询获得"},{"name":"罗岭乡","code":"410328209","level":4,"mergeName":"河南省,洛阳市,洛宁县,罗岭乡","lng":111.39803551961057,"lat":34.37847571832701,"info":"直接查询获得"},{"name":"底张乡","code":"410328213","level":4,"mergeName":"河南省,洛阳市,洛宁县,底张乡","lng":111.51772731150653,"lat":34.252233961140035,"info":"直接查询获得"},{"name":"陈吴乡","code":"410328216","level":4,"mergeName":"河南省,洛阳市,洛宁县,陈吴乡","lng":111.68258151532349,"lat":34.3658978347723,"info":"直接查询获得"},{"name":"涧口乡","code":"410328217","level":4,"mergeName":"河南省,洛阳市,洛宁县,涧口乡","lng":111.73209800147504,"lat":34.379591475348796,"info":"直接查询获得"},{"name":"伊川县","code":"410329","level":3,"mergeName":"河南省,洛阳市,伊川县","lng":112.43240745501544,"lat":34.42764579642734,"info":"直接查询获得"},{"name":"城关街道","code":"410329001","level":4,"mergeName":"河南省,洛阳市,伊川县,城关街道","lng":112.44793897762186,"lat":34.422400626738806,"info":"直接查询获得"},{"name":"河滨街道","code":"410329002","level":4,"mergeName":"河南省,洛阳市,伊川县,河滨街道","lng":112.43240745501544,"lat":34.42764579642734,"info":"直接查询获得"},{"name":"鸣皋镇","code":"410329101","level":4,"mergeName":"河南省,洛阳市,伊川县,鸣皋镇","lng":112.30105497758268,"lat":34.31972080956133,"info":"直接查询获得"},{"name":"水寨镇","code":"410329102","level":4,"mergeName":"河南省,洛阳市,伊川县,水寨镇","lng":112.49018520778951,"lat":34.42095542959026,"info":"直接查询获得"},{"name":"彭婆镇","code":"410329103","level":4,"mergeName":"河南省,洛阳市,伊川县,彭婆镇","lng":112.49949560541712,"lat":34.49489981399322,"info":"直接查询获得"},{"name":"白沙镇","code":"410329104","level":4,"mergeName":"河南省,洛阳市,伊川县,白沙镇","lng":112.53708609778766,"lat":34.386610196324966,"info":"直接查询获得"},{"name":"江左镇","code":"410329105","level":4,"mergeName":"河南省,洛阳市,伊川县,江左镇","lng":112.69556030500823,"lat":34.41558297309126,"info":"直接查询获得"},{"name":"高山镇","code":"410329106","level":4,"mergeName":"河南省,洛阳市,伊川县,高山镇","lng":112.30455306906909,"lat":34.42987143162951,"info":"直接查询获得"},{"name":"吕店镇","code":"410329107","level":4,"mergeName":"河南省,洛阳市,伊川县,吕店镇","lng":112.6388625849488,"lat":34.441319343306986,"info":"直接查询获得"},{"name":"半坡镇","code":"410329108","level":4,"mergeName":"河南省,洛阳市,伊川县,半坡镇","lng":112.71784798335518,"lat":34.37451078640075,"info":"直接查询获得"},{"name":"酒后镇","code":"410329109","level":4,"mergeName":"河南省,洛阳市,伊川县,酒后镇","lng":112.30716084996456,"lat":34.28571553763687,"info":"直接查询获得"},{"name":"白元镇","code":"410329110","level":4,"mergeName":"河南省,洛阳市,伊川县,白元镇","lng":112.42098136825072,"lat":34.36428388704531,"info":"直接查询获得"},{"name":"鸦岭镇","code":"410329111","level":4,"mergeName":"河南省,洛阳市,伊川县,鸦岭镇","lng":112.39044401142233,"lat":34.47663091840997,"info":"直接查询获得"},{"name":"葛寨镇","code":"410329112","level":4,"mergeName":"河南省,洛阳市,伊川县,葛寨镇","lng":112.37837626503185,"lat":34.318212329965576,"info":"直接查询获得"},{"name":"平等乡","code":"410329203","level":4,"mergeName":"河南省,洛阳市,伊川县,平等乡","lng":112.37592029776756,"lat":34.38188632735609,"info":"直接查询获得"},{"name":"洛阳高新技术产业开发区","code":"410371","level":3,"mergeName":"河南省,洛阳市,洛阳高新技术产业开发区","lng":112.38490101727301,"lat":34.61429297993309,"info":"直接查询获得"},{"name":"瀛洲街道","code":"410371001","level":4,"mergeName":"河南省,洛阳市,洛阳高新技术产业开发区,瀛洲街道","lng":112.41090830924514,"lat":34.638658678013215,"info":"第二次通过省份查询成功"},{"name":"辛店街道","code":"410371002","level":4,"mergeName":"河南省,洛阳市,洛阳高新技术产业开发区,辛店街道","lng":113.75938408486323,"lat":34.771712921931496,"info":"第二次通过省份查询成功"},{"name":"徐家营街道","code":"410371003","level":4,"mergeName":"河南省,洛阳市,洛阳高新技术产业开发区,徐家营街道","lng":112.37616724195225,"lat":34.617983215773414,"info":"第二次通过省份查询成功"},{"name":"丰李镇","code":"410371101","level":4,"mergeName":"河南省,洛阳市,洛阳高新技术产业开发区,丰李镇","lng":112.36027282368252,"lat":34.55093690811951,"info":"第二次通过省份查询成功"},{"name":"偃师市","code":"410381","level":3,"mergeName":"河南省,洛阳市,偃师市","lng":112.79642141885469,"lat":34.733796624012776,"info":"直接查询获得"},{"name":"商城街道","code":"410381001","level":4,"mergeName":"河南省,洛阳市,偃师市,商城街道","lng":112.7892910290387,"lat":34.72825199211356,"info":"直接查询获得"},{"name":"槐新街道","code":"410381002","level":4,"mergeName":"河南省,洛阳市,偃师市,槐新街道","lng":112.79642141885469,"lat":34.733796624012776,"info":"直接查询获得"},{"name":"首阳山街道","code":"410381003","level":4,"mergeName":"河南省,洛阳市,偃师市,首阳山街道","lng":112.72067342367572,"lat":34.73541032616495,"info":"直接查询获得"},{"name":"伊洛街道","code":"410381004","level":4,"mergeName":"河南省,洛阳市,偃师市,伊洛街道","lng":112.79642141885469,"lat":34.733796624012776,"info":"直接查询获得"},{"name":"翟镇镇","code":"410381103","level":4,"mergeName":"河南省,洛阳市,偃师市,翟镇镇","lng":112.69254280696966,"lat":34.677277946609685,"info":"直接查询获得"},{"name":"岳滩镇","code":"410381104","level":4,"mergeName":"河南省,洛阳市,偃师市,岳滩镇","lng":112.77104015599245,"lat":34.698304420092605,"info":"直接查询获得"},{"name":"顾县镇","code":"410381105","level":4,"mergeName":"河南省,洛阳市,偃师市,顾县镇","lng":112.78865080670171,"lat":34.66515791537755,"info":"直接查询获得"},{"name":"缑氏镇","code":"410381106","level":4,"mergeName":"河南省,洛阳市,偃师市,缑氏镇","lng":112.79303678335418,"lat":34.62003038712558,"info":"直接查询获得"},{"name":"府店镇","code":"410381107","level":4,"mergeName":"河南省,洛阳市,偃师市,府店镇","lng":112.85894114675483,"lat":34.584094145917426,"info":"直接查询获得"},{"name":"高龙镇","code":"410381108","level":4,"mergeName":"河南省,洛阳市,偃师市,高龙镇","lng":112.71844993787742,"lat":34.63977857262536,"info":"直接查询获得"},{"name":"山化镇","code":"410381113","level":4,"mergeName":"河南省,洛阳市,偃师市,山化镇","lng":112.87250034978354,"lat":34.72089127684204,"info":"直接查询获得"},{"name":"邙岭镇","code":"410381114","level":4,"mergeName":"河南省,洛阳市,偃师市,邙岭镇","lng":112.75766115304906,"lat":34.782029604203004,"info":"直接查询获得"},{"name":"大口镇","code":"410381115","level":4,"mergeName":"河南省,洛阳市,偃师市,大口镇","lng":112.71715089827943,"lat":34.58419363164042,"info":"直接查询获得"},{"name":"平顶山市","code":"4104","level":2,"mergeName":"河南省,平顶山市","lng":113.19952856052156,"lat":33.772050748691015,"info":"直接查询获得"},{"name":"新华区","code":"410402","level":3,"mergeName":"河南省,平顶山市,新华区","lng":113.30043988964603,"lat":33.74365715164552,"info":"直接查询获得"},{"name":"曙光街街道","code":"410402001","level":4,"mergeName":"河南省,平顶山市,新华区,曙光街街道","lng":113.30083801864807,"lat":33.74311627270254,"info":"直接查询获得"},{"name":"光明路街道","code":"410402002","level":4,"mergeName":"河南省,平顶山市,新华区,光明路街道","lng":113.29938725524944,"lat":33.7452385667633,"info":"直接查询获得"},{"name":"中兴路街道","code":"410402003","level":4,"mergeName":"河南省,平顶山市,新华区,中兴路街道","lng":113.30620404661191,"lat":33.7490821863694,"info":"直接查询获得"},{"name":"矿工路街道","code":"410402004","level":4,"mergeName":"河南省,平顶山市,新华区,矿工路街道","lng":113.30857826807478,"lat":33.753422399969956,"info":"直接查询获得"},{"name":"西市场街道","code":"410402005","level":4,"mergeName":"河南省,平顶山市,新华区,西市场街道","lng":113.28992468466843,"lat":33.762252677098544,"info":"直接查询获得"},{"name":"新新街街道","code":"410402006","level":4,"mergeName":"河南省,平顶山市,新华区,新新街街道","lng":113.24332095413298,"lat":33.78960082346615,"info":"直接查询获得"},{"name":"青石山街道","code":"410402007","level":4,"mergeName":"河南省,平顶山市,新华区,青石山街道","lng":113.20720503025707,"lat":33.78474809964665,"info":"直接查询获得"},{"name":"湛河北路街道","code":"410402008","level":4,"mergeName":"河南省,平顶山市,新华区,湛河北路街道","lng":113.30981383879525,"lat":33.738998814920706,"info":"直接查询获得"},{"name":"西高皇街道","code":"410402010","level":4,"mergeName":"河南省,平顶山市,新华区,西高皇街道","lng":113.26760062494833,"lat":33.748501343201866,"info":"直接查询获得"},{"name":"焦店镇","code":"410402100","level":4,"mergeName":"河南省,平顶山市,新华区,焦店镇","lng":113.25435088816779,"lat":33.75605709719366,"info":"直接查询获得"},{"name":"香山管委会","code":"410402400","level":4,"mergeName":"河南省,平顶山市,新华区,香山管委会","lng":113.18338106982695,"lat":33.803257829709004,"info":"直接查询获得"},{"name":"卫东区","code":"410403","level":3,"mergeName":"河南省,平顶山市,卫东区","lng":113.3416111176099,"lat":33.74037565140009,"info":"直接查询获得"},{"name":"东安路街道","code":"410403001","level":4,"mergeName":"河南省,平顶山市,卫东区,东安路街道","lng":113.3417597871718,"lat":33.7410591451235,"info":"直接查询获得"},{"name":"优越路街道","code":"410403002","level":4,"mergeName":"河南省,平顶山市,卫东区,优越路街道","lng":113.31945972029355,"lat":33.74387279469977,"info":"直接查询获得"},{"name":"五一路街道","code":"410403003","level":4,"mergeName":"河南省,平顶山市,卫东区,五一路街道","lng":113.32629062223896,"lat":33.754922720167066,"info":"直接查询获得"},{"name":"建设路街道","code":"410403004","level":4,"mergeName":"河南省,平顶山市,卫东区,建设路街道","lng":113.32864417998019,"lat":33.740404574771354,"info":"直接查询获得"},{"name":"东环路街道","code":"410403005","level":4,"mergeName":"河南省,平顶山市,卫东区,东环路街道","lng":113.35674487053649,"lat":33.746991957886365,"info":"直接查询获得"},{"name":"东工人镇街道","code":"410403006","level":4,"mergeName":"河南省,平顶山市,卫东区,东工人镇街道","lng":113.39470303935227,"lat":33.75747605238116,"info":"直接查询获得"},{"name":"光华路街道","code":"410403007","level":4,"mergeName":"河南省,平顶山市,卫东区,光华路街道","lng":113.43715947300926,"lat":33.75791839236905,"info":"直接查询获得"},{"name":"鸿鹰街道","code":"410403008","level":4,"mergeName":"河南省,平顶山市,卫东区,鸿鹰街道","lng":113.36571454088417,"lat":33.73883069666576,"info":"直接查询获得"},{"name":"申楼街道","code":"410403009","level":4,"mergeName":"河南省,平顶山市,卫东区,申楼街道","lng":113.3416111176099,"lat":33.74037565140009,"info":"直接查询获得"},{"name":"北环路街道","code":"410403010","level":4,"mergeName":"河南省,平顶山市,卫东区,北环路街道","lng":113.31750302314697,"lat":33.770650718286454,"info":"直接查询获得"},{"name":"东高皇街道","code":"410403011","level":4,"mergeName":"河南省,平顶山市,卫东区,东高皇街道","lng":113.37920493371081,"lat":33.75658371167383,"info":"直接查询获得"},{"name":"蒲城街道","code":"410403012","level":4,"mergeName":"河南省,平顶山市,卫东区,蒲城街道","lng":113.3416111176099,"lat":33.74037565140009,"info":"直接查询获得"},{"name":"石龙区","code":"410404","level":3,"mergeName":"河南省,平顶山市,石龙区","lng":112.90545522640038,"lat":33.90475426839687,"info":"直接查询获得"},{"name":"高庄街道","code":"410404001","level":4,"mergeName":"河南省,平顶山市,石龙区,高庄街道","lng":112.87006982792113,"lat":33.89300605775418,"info":"直接查询获得"},{"name":"龙兴街道","code":"410404002","level":4,"mergeName":"河南省,平顶山市,石龙区,龙兴街道","lng":112.89685574775336,"lat":33.90754471042511,"info":"直接查询获得"},{"name":"人民路街道","code":"410404003","level":4,"mergeName":"河南省,平顶山市,石龙区,人民路街道","lng":112.90533539244535,"lat":33.90509217001147,"info":"直接查询获得"},{"name":"龙河街道","code":"410404004","level":4,"mergeName":"河南省,平顶山市,石龙区,龙河街道","lng":112.90079414188887,"lat":33.87704072219117,"info":"直接查询获得"},{"name":"湛河区","code":"410411","level":3,"mergeName":"河南省,平顶山市,湛河区","lng":113.25051467448745,"lat":33.685790171047444,"info":"直接查询获得"},{"name":"马庄街道","code":"410411001","level":4,"mergeName":"河南省,平顶山市,湛河区,马庄街道","lng":113.31510400845201,"lat":33.72535856713204,"info":"直接查询获得"},{"name":"南环路街道","code":"410411002","level":4,"mergeName":"河南省,平顶山市,湛河区,南环路街道","lng":113.30433395420124,"lat":33.72368535115398,"info":"直接查询获得"},{"name":"姚孟街道","code":"410411003","level":4,"mergeName":"河南省,平顶山市,湛河区,姚孟街道","lng":113.26874165260709,"lat":33.72963709112075,"info":"直接查询获得"},{"name":"九里山街道","code":"410411004","level":4,"mergeName":"河南省,平顶山市,湛河区,九里山街道","lng":113.2893736640686,"lat":33.733095843280786,"info":"直接查询获得"},{"name":"轻工路街道","code":"410411005","level":4,"mergeName":"河南省,平顶山市,湛河区,轻工路街道","lng":113.34097978849748,"lat":33.72862555966316,"info":"直接查询获得"},{"name":"高阳路街道","code":"410411006","level":4,"mergeName":"河南省,平顶山市,湛河区,高阳路街道","lng":113.38645569646516,"lat":33.72650037363519,"info":"直接查询获得"},{"name":"北渡街道","code":"410411007","level":4,"mergeName":"河南省,平顶山市,湛河区,北渡街道","lng":113.30879682580536,"lat":33.71353778084506,"info":"直接查询获得"},{"name":"荆山街道","code":"410411008","level":4,"mergeName":"河南省,平顶山市,湛河区,荆山街道","lng":113.25051467448745,"lat":33.685790171047444,"info":"直接查询获得"},{"name":"河滨街道","code":"410411009","level":4,"mergeName":"河南省,平顶山市,湛河区,河滨街道","lng":113.25051467448745,"lat":33.685790171047444,"info":"直接查询获得"},{"name":"曹镇乡","code":"410411200","level":4,"mergeName":"河南省,平顶山市,湛河区,曹镇乡","lng":113.23259096430795,"lat":33.70927008414824,"info":"直接查询获得"},{"name":"宝丰县","code":"410421","level":3,"mergeName":"河南省,平顶山市,宝丰县","lng":113.06144723583577,"lat":33.874745598630774,"info":"直接查询获得"},{"name":"铁路街道","code":"410421001","level":4,"mergeName":"河南省,平顶山市,宝丰县,铁路街道","lng":113.0556547786531,"lat":33.854958166840326,"info":"直接查询获得"},{"name":"城关镇","code":"410421100","level":4,"mergeName":"河南省,平顶山市,宝丰县,城关镇","lng":113.07789894038625,"lat":33.881563152255346,"info":"直接查询获得"},{"name":"周庄镇","code":"410421101","level":4,"mergeName":"河南省,平顶山市,宝丰县,周庄镇","lng":113.12776284349887,"lat":33.869204653859946,"info":"直接查询获得"},{"name":"闹店镇","code":"410421102","level":4,"mergeName":"河南省,平顶山市,宝丰县,闹店镇","lng":113.22917902031995,"lat":33.85888711184872,"info":"直接查询获得"},{"name":"石桥镇","code":"410421103","level":4,"mergeName":"河南省,平顶山市,宝丰县,石桥镇","lng":113.16554701053737,"lat":33.92359110004543,"info":"直接查询获得"},{"name":"商酒务镇","code":"410421104","level":4,"mergeName":"河南省,平顶山市,宝丰县,商酒务镇","lng":112.98953814925369,"lat":33.952161431204246,"info":"直接查询获得"},{"name":"大营镇","code":"410421105","level":4,"mergeName":"河南省,平顶山市,宝丰县,大营镇","lng":112.90588156219542,"lat":33.93716831303478,"info":"直接查询获得"},{"name":"张八桥镇","code":"410421106","level":4,"mergeName":"河南省,平顶山市,宝丰县,张八桥镇","lng":112.97351687048324,"lat":33.86962407972843,"info":"直接查询获得"},{"name":"杨庄镇","code":"410421107","level":4,"mergeName":"河南省,平顶山市,宝丰县,杨庄镇","lng":113.06135965104855,"lat":33.87482607652437,"info":"直接查询获得"},{"name":"赵庄镇","code":"410421108","level":4,"mergeName":"河南省,平顶山市,宝丰县,赵庄镇","lng":113.04726802234407,"lat":33.9912410756253,"info":"直接查询获得"},{"name":"肖旗乡","code":"410421200","level":4,"mergeName":"河南省,平顶山市,宝丰县,肖旗乡","lng":113.07194231876994,"lat":33.9215344572444,"info":"直接查询获得"},{"name":"前营乡","code":"410421202","level":4,"mergeName":"河南省,平顶山市,宝丰县,前营乡","lng":112.9169593759139,"lat":33.98303045681774,"info":"直接查询获得"},{"name":"李庄乡","code":"410421203","level":4,"mergeName":"河南省,平顶山市,宝丰县,李庄乡","lng":113.2795270678821,"lat":33.846520936129515,"info":"直接查询获得"},{"name":"叶县","code":"410422","level":3,"mergeName":"河南省,平顶山市,叶县","lng":113.36358241275624,"lat":33.632491674058336,"info":"直接查询获得"},{"name":"九龙街道","code":"410422001","level":4,"mergeName":"河南省,平顶山市,叶县,九龙街道","lng":113.36358241275624,"lat":33.632491674058336,"info":"直接查询获得"},{"name":"昆阳街道","code":"410422002","level":4,"mergeName":"河南省,平顶山市,叶县,昆阳街道","lng":113.3620442442315,"lat":33.618276000498604,"info":"直接查询获得"},{"name":"盐都街道","code":"410422003","level":4,"mergeName":"河南省,平顶山市,叶县,盐都街道","lng":113.36358241275624,"lat":33.632491674058336,"info":"直接查询获得"},{"name":"任店镇","code":"410422101","level":4,"mergeName":"河南省,平顶山市,叶县,任店镇","lng":113.24356268814573,"lat":33.63491069407838,"info":"直接查询获得"},{"name":"保安镇","code":"410422102","level":4,"mergeName":"河南省,平顶山市,叶县,保安镇","lng":113.24894695171142,"lat":33.389472655268726,"info":"直接查询获得"},{"name":"仙台镇","code":"410422103","level":4,"mergeName":"河南省,平顶山市,叶县,仙台镇","lng":113.47549655247897,"lat":33.54307863194713,"info":"直接查询获得"},{"name":"叶邑镇","code":"410422105","level":4,"mergeName":"河南省,平顶山市,叶县,叶邑镇","lng":113.31999195822347,"lat":33.50137295645086,"info":"直接查询获得"},{"name":"廉村镇","code":"410422106","level":4,"mergeName":"河南省,平顶山市,叶县,廉村镇","lng":113.49014413707373,"lat":33.61749140759134,"info":"直接查询获得"},{"name":"常村镇","code":"410422107","level":4,"mergeName":"河南省,平顶山市,叶县,常村镇","lng":113.13690732409879,"lat":33.5361899257628,"info":"直接查询获得"},{"name":"辛店镇","code":"410422108","level":4,"mergeName":"河南省,平顶山市,叶县,辛店镇","lng":113.3879903615984,"lat":33.418686528640876,"info":"直接查询获得"},{"name":"洪庄杨镇","code":"410422109","level":4,"mergeName":"河南省,平顶山市,叶县,洪庄杨镇","lng":113.5288990130463,"lat":33.73708907083102,"info":"直接查询获得"},{"name":"龚店镇","code":"410422110","level":4,"mergeName":"河南省,平顶山市,叶县,龚店镇","lng":113.44898503623426,"lat":33.670718381891724,"info":"直接查询获得"},{"name":"夏李乡","code":"410422201","level":4,"mergeName":"河南省,平顶山市,叶县,夏李乡","lng":113.2255908287909,"lat":33.5348939760881,"info":"直接查询获得"},{"name":"马庄回族乡","code":"410422203","level":4,"mergeName":"河南省,平顶山市,叶县,马庄回族乡","lng":113.35527946475806,"lat":33.5927001517979,"info":"直接查询获得"},{"name":"田庄乡","code":"410422204","level":4,"mergeName":"河南省,平顶山市,叶县,田庄乡","lng":113.36786535376672,"lat":33.57197561756476,"info":"直接查询获得"},{"name":"龙泉乡","code":"410422207","level":4,"mergeName":"河南省,平顶山市,叶县,龙泉乡","lng":113.43728334933907,"lat":33.493386513487216,"info":"直接查询获得"},{"name":"水寨乡","code":"410422208","level":4,"mergeName":"河南省,平顶山市,叶县,水寨乡","lng":113.550114384106,"lat":33.62578244412674,"info":"直接查询获得"},{"name":"邓李乡","code":"410422210","level":4,"mergeName":"河南省,平顶山市,叶县,邓李乡","lng":113.51301158179683,"lat":33.67838672219944,"info":"直接查询获得"},{"name":"鲁山县","code":"410423","level":3,"mergeName":"河南省,平顶山市,鲁山县","lng":112.91443396963372,"lat":33.74487886345235,"info":"直接查询获得"},{"name":"露峰街道","code":"410423001","level":4,"mergeName":"河南省,平顶山市,鲁山县,露峰街道","lng":112.94258876513089,"lat":33.76531057035747,"info":"直接查询获得"},{"name":"琴台街道","code":"410423002","level":4,"mergeName":"河南省,平顶山市,鲁山县,琴台街道","lng":112.91067276446343,"lat":33.745718569060074,"info":"直接查询获得"},{"name":"鲁阳街道","code":"410423003","level":4,"mergeName":"河南省,平顶山市,鲁山县,鲁阳街道","lng":112.91445445099934,"lat":33.74489417320076,"info":"直接查询获得"},{"name":"汇源街道","code":"410423004","level":4,"mergeName":"河南省,平顶山市,鲁山县,汇源街道","lng":112.92664957711115,"lat":33.737732061779596,"info":"直接查询获得"},{"name":"下汤镇","code":"410423101","level":4,"mergeName":"河南省,平顶山市,鲁山县,下汤镇","lng":112.69067253489787,"lat":33.72448413010282,"info":"直接查询获得"},{"name":"梁洼镇","code":"410423102","level":4,"mergeName":"河南省,平顶山市,鲁山县,梁洼镇","lng":112.93652851229604,"lat":33.85254336433713,"info":"直接查询获得"},{"name":"张官营镇","code":"410423103","level":4,"mergeName":"河南省,平顶山市,鲁山县,张官营镇","lng":113.19007694926778,"lat":33.65953463986036,"info":"直接查询获得"},{"name":"张良镇","code":"410423104","level":4,"mergeName":"河南省,平顶山市,鲁山县,张良镇","lng":113.0551567616716,"lat":33.67530977982044,"info":"直接查询获得"},{"name":"尧山镇","code":"410423105","level":4,"mergeName":"河南省,平顶山市,鲁山县,尧山镇","lng":112.39871075770846,"lat":33.75532322317918,"info":"直接查询获得"},{"name":"瓦屋镇","code":"410423106","level":4,"mergeName":"河南省,平顶山市,鲁山县,瓦屋镇","lng":112.6718267141124,"lat":33.89565790739834,"info":"直接查询获得"},{"name":"赵村镇","code":"410423107","level":4,"mergeName":"河南省,平顶山市,鲁山县,赵村镇","lng":112.49177134582848,"lat":33.757304968612765,"info":"直接查询获得"},{"name":"四棵树乡","code":"410423201","level":4,"mergeName":"河南省,平顶山市,鲁山县,四棵树乡","lng":112.59735916360735,"lat":33.67162319107985,"info":"直接查询获得"},{"name":"团城乡","code":"410423202","level":4,"mergeName":"河南省,平顶山市,鲁山县,团城乡","lng":112.69002943798328,"lat":33.64119767617703,"info":"直接查询获得"},{"name":"熊背乡","code":"410423203","level":4,"mergeName":"河南省,平顶山市,鲁山县,熊背乡","lng":112.82835851532873,"lat":33.66619945003345,"info":"直接查询获得"},{"name":"让河乡","code":"410423204","level":4,"mergeName":"河南省,平顶山市,鲁山县,让河乡","lng":112.87066618959327,"lat":33.6983624001371,"info":"直接查询获得"},{"name":"观音寺乡","code":"410423206","level":4,"mergeName":"河南省,平顶山市,鲁山县,观音寺乡","lng":112.7397038462435,"lat":33.87148940181011,"info":"直接查询获得"},{"name":"昭平台库区乡","code":"410423207","level":4,"mergeName":"河南省,平顶山市,鲁山县,昭平台库区乡","lng":112.91443396963372,"lat":33.74487886345235,"info":"直接查询获得"},{"name":"背孜乡","code":"410423208","level":4,"mergeName":"河南省,平顶山市,鲁山县,背孜乡","lng":112.61516348898456,"lat":33.968010568857494,"info":"直接查询获得"},{"name":"仓头乡","code":"410423209","level":4,"mergeName":"河南省,平顶山市,鲁山县,仓头乡","lng":112.80419715134906,"lat":33.88273164459607,"info":"直接查询获得"},{"name":"董周乡","code":"410423210","level":4,"mergeName":"河南省,平顶山市,鲁山县,董周乡","lng":112.82672880947253,"lat":33.76222078830368,"info":"直接查询获得"},{"name":"张店乡","code":"410423211","level":4,"mergeName":"河南省,平顶山市,鲁山县,张店乡","lng":112.92327401449631,"lat":33.75516511677141,"info":"直接查询获得"},{"name":"辛集乡","code":"410423212","level":4,"mergeName":"河南省,平顶山市,鲁山县,辛集乡","lng":113.00933123319943,"lat":33.7920634592403,"info":"直接查询获得"},{"name":"滚子营乡","code":"410423213","level":4,"mergeName":"河南省,平顶山市,鲁山县,滚子营乡","lng":112.91443396963372,"lat":33.74487886345235,"info":"直接查询获得"},{"name":"马楼乡","code":"410423214","level":4,"mergeName":"河南省,平顶山市,鲁山县,马楼乡","lng":113.00259106729696,"lat":33.68537787136312,"info":"直接查询获得"},{"name":"郏县","code":"410425","level":3,"mergeName":"河南省,平顶山市,郏县","lng":113.21960622765287,"lat":33.977486289176724,"info":"直接查询获得"},{"name":"龙山街道","code":"410425001","level":4,"mergeName":"河南省,平顶山市,郏县,龙山街道","lng":113.22020099573103,"lat":33.97739109044374,"info":"直接查询获得"},{"name":"东城街道","code":"410425002","level":4,"mergeName":"河南省,平顶山市,郏县,东城街道","lng":113.25404303886953,"lat":33.978485046127645,"info":"直接查询获得"},{"name":"冢头镇","code":"410425101","level":4,"mergeName":"河南省,平顶山市,郏县,冢头镇","lng":113.36138165408735,"lat":33.99185160734422,"info":"直接查询获得"},{"name":"安良镇","code":"410425102","level":4,"mergeName":"河南省,平顶山市,郏县,安良镇","lng":113.2737655160022,"lat":34.04810006296591,"info":"直接查询获得"},{"name":"堂街镇","code":"410425103","level":4,"mergeName":"河南省,平顶山市,郏县,堂街镇","lng":113.32214214229214,"lat":33.90318346881312,"info":"直接查询获得"},{"name":"薛店镇","code":"410425104","level":4,"mergeName":"河南省,平顶山市,郏县,薛店镇","lng":113.10146890223851,"lat":34.013337497711376,"info":"直接查询获得"},{"name":"长桥镇","code":"410425105","level":4,"mergeName":"河南省,平顶山市,郏县,长桥镇","lng":113.36672217017471,"lat":33.94525589704156,"info":"直接查询获得"},{"name":"茨芭镇","code":"410425106","level":4,"mergeName":"河南省,平顶山市,郏县,茨芭镇","lng":113.06826726109807,"lat":34.085889988830154,"info":"直接查询获得"},{"name":"黄道镇","code":"410425107","level":4,"mergeName":"河南省,平顶山市,郏县,黄道镇","lng":113.17115719793883,"lat":34.07104389010188,"info":"直接查询获得"},{"name":"李口镇","code":"410425108","level":4,"mergeName":"河南省,平顶山市,郏县,李口镇","lng":113.33012897658135,"lat":33.84877009302493,"info":"直接查询获得"},{"name":"王集乡","code":"410425200","level":4,"mergeName":"河南省,平顶山市,郏县,王集乡","lng":113.28314939771545,"lat":33.95139744088628,"info":"直接查询获得"},{"name":"姚庄回族乡","code":"410425202","level":4,"mergeName":"河南省,平顶山市,郏县,姚庄回族乡","lng":113.29384506957507,"lat":33.87765931414436,"info":"直接查询获得"},{"name":"白庙乡","code":"410425203","level":4,"mergeName":"河南省,平顶山市,郏县,白庙乡","lng":113.25222675495891,"lat":34.01040721929511,"info":"直接查询获得"},{"name":"广阔天地乡","code":"410425204","level":4,"mergeName":"河南省,平顶山市,郏县,广阔天地乡","lng":113.17993849362107,"lat":33.97232893744452,"info":"直接查询获得"},{"name":"渣元乡","code":"410425205","level":4,"mergeName":"河南省,平顶山市,郏县,渣元乡","lng":113.1619641190108,"lat":33.99072280487715,"info":"直接查询获得"},{"name":"平顶山高新技术产业开发区","code":"410471","level":3,"mergeName":"河南省,平顶山市,平顶山高新技术产业开发区","lng":113.39403784412212,"lat":33.738544518581435,"info":"直接查询获得"},{"name":"皇台街道","code":"410471001","level":4,"mergeName":"河南省,平顶山市,平顶山高新技术产业开发区,皇台街道","lng":113.38436875310437,"lat":33.737070907598294,"info":"第二次通过省份查询成功"},{"name":"遵化店镇","code":"410471100","level":4,"mergeName":"河南省,平顶山市,平顶山高新技术产业开发区,遵化店镇","lng":113.41398247220742,"lat":33.71029858830034,"info":"第二次通过省份查询成功"},{"name":"平顶山市城乡一体化示范区","code":"410472","level":3,"mergeName":"河南省,平顶山市,平顶山市城乡一体化示范区","lng":113.19952856052156,"lat":33.772050748691015,"info":"直接查询获得"},{"name":"湖滨路街道","code":"410472001","level":4,"mergeName":"河南省,平顶山市,平顶山市城乡一体化示范区,湖滨路街道","lng":113.19902029926402,"lat":33.77254545409015,"info":"第二次通过省份查询成功"},{"name":"滍阳镇","code":"410472101","level":4,"mergeName":"河南省,平顶山市,平顶山市城乡一体化示范区,滍阳镇","lng":113.15465802063707,"lat":33.78953106574631,"info":"第二次通过省份查询成功"},{"name":"滨湖管委会","code":"410472401","level":4,"mergeName":"河南省,平顶山市,平顶山市城乡一体化示范区,滨湖管委会","lng":120.29154752615551,"lat":31.534639699974193,"info":"直接查询获得"},{"name":"应滨管委会","code":"410472402","level":4,"mergeName":"河南省,平顶山市,平顶山市城乡一体化示范区,应滨管委会","lng":113.15465802063707,"lat":33.78953106574631,"info":"第二次通过省份查询成功"},{"name":"舞钢市","code":"410481","level":3,"mergeName":"河南省,平顶山市,舞钢市","lng":113.53141031593,"lat":33.2994311053011,"info":"直接查询获得"},{"name":"垭口街道","code":"410481001","level":4,"mergeName":"河南省,平顶山市,舞钢市,垭口街道","lng":113.52268157112009,"lat":33.320474504637744,"info":"直接查询获得"},{"name":"寺坡街道","code":"410481002","level":4,"mergeName":"河南省,平顶山市,舞钢市,寺坡街道","lng":113.53375803738032,"lat":33.28819547610308,"info":"直接查询获得"},{"name":"朱兰街道","code":"410481003","level":4,"mergeName":"河南省,平顶山市,舞钢市,朱兰街道","lng":113.52268157112009,"lat":33.320474504637744,"info":"直接查询获得"},{"name":"院岭街道","code":"410481004","level":4,"mergeName":"河南省,平顶山市,舞钢市,院岭街道","lng":113.48111984975104,"lat":33.28366767662626,"info":"直接查询获得"},{"name":"矿建街道","code":"410481005","level":4,"mergeName":"河南省,平顶山市,舞钢市,矿建街道","lng":113.51171557487825,"lat":33.371114733590666,"info":"直接查询获得"},{"name":"铁山街道","code":"410481006","level":4,"mergeName":"河南省,平顶山市,舞钢市,铁山街道","lng":113.5526713209096,"lat":33.339481643177,"info":"直接查询获得"},{"name":"红山街道","code":"410481007","level":4,"mergeName":"河南省,平顶山市,舞钢市,红山街道","lng":113.53141031593,"lat":33.2994311053011,"info":"直接查询获得"},{"name":"尚店镇","code":"410481100","level":4,"mergeName":"河南省,平顶山市,舞钢市,尚店镇","lng":113.46067333837733,"lat":33.233215537894985,"info":"直接查询获得"},{"name":"八台镇","code":"410481101","level":4,"mergeName":"河南省,平顶山市,舞钢市,八台镇","lng":113.509156054548,"lat":33.3925367489654,"info":"直接查询获得"},{"name":"尹集镇","code":"410481102","level":4,"mergeName":"河南省,平顶山市,舞钢市,尹集镇","lng":113.5894250416976,"lat":33.258149120502914,"info":"直接查询获得"},{"name":"枣林镇","code":"410481103","level":4,"mergeName":"河南省,平顶山市,舞钢市,枣林镇","lng":113.59830568996924,"lat":33.36956160501517,"info":"直接查询获得"},{"name":"庙街乡","code":"410481202","level":4,"mergeName":"河南省,平顶山市,舞钢市,庙街乡","lng":113.47796221605292,"lat":33.36506814892846,"info":"直接查询获得"},{"name":"武功乡","code":"410481204","level":4,"mergeName":"河南省,平顶山市,舞钢市,武功乡","lng":113.57938369287652,"lat":33.33711769599686,"info":"直接查询获得"},