[{"name":"河南省","code":"41","level":1,"mergeName":"河南省,河南省","lng":113.75937959333567,"lat":34.771712551287045,"info":"直接检索POI第一个结果成功!","tag":""},{"name":"郑州市","code":"4101","level":2,"mergeName":"河南省,郑州市","lng":113.63141597343932,"lat":34.75343959190901,"info":"直接检索POI第一个结果成功!","tag":""},{"name":"中原区","code":"410102","level":3,"mergeName":"河南省,郑州市,中原区","lng":113.6194774932117,"lat":34.754451671063606,"info":"直接检索POI第一个结果成功!","tag":""},{"name":"林山寨街道","code":"410102001","level":4,"mergeName":"河南省,郑州市,中原区,林山寨街道","lng":113.62522790610328,"lat":34.74221223659737,"info":"直接检索POI第一个结果成功!","tag":["行政地标","乡镇"]},{"name":"建设路街道","code":"410102002","level":4,"mergeName":"河南省,郑州市,中原区,建设路街道","lng":113.61899375569459,"lat":34.75983090264942,"info":"直接检索POI第一个结果成功!","tag":["行政地标","乡镇"]},{"name":"棉纺路街道","code":"410102003","level":4,"mergeName":"河南省,郑州市,中原区,棉纺路街道","lng":113.6275164292205,"lat":34.76585245249742,"info":"直接检索POI第一个结果成功!","tag":""},{"name":"秦岭路街道","code":"410102004","level":4,"mergeName":"河南省,郑州市,中原区,秦岭路街道","lng":113.61019754814087,"lat":34.76546421075588,"info":"直接检索POI第一个结果成功!","tag":["行政地标","乡镇"]},{"name":"桐柏路街道","code":"410102005","level":4,"mergeName":"河南省,郑州市,中原区,桐柏路街道","lng":113.62192133335161,"lat":34.77480040607341,"info":"直接检索POI第一个结果成功!","tag":["行政地标","乡镇"]},{"name":"三官庙街道","code":"410102006","level":4,"mergeName":"河南省,郑州市,中原区,三官庙街道","lng":113.60321169568142,"lat":34.76335616752951,"info":"直接检索POI第一个结果成功!","tag":["行政地标","乡镇"]},{"name":"绿东村街道","code":"410102007","level":4,"mergeName":"河南省,郑州市,中原区,绿东村街道","lng":113.61839943676918,"lat":34.74632398846859,"info":"直接检索POI第一个结果成功!","tag":["行政地标","乡镇"]},{"name":"汝河路街道","code":"410102008","level":4,"mergeName":"河南省,郑州市,中原区,汝河路街道","lng":113.61945602371001,"lat":34.72889502845768,"info":"直接检索POI第一个结果成功!","tag":""},{"name":"航海西路街道","code":"410102009","level":4,"mergeName":"河南省,郑州市,中原区,航海西路街道","lng":113.61324424110852,"lat":34.739303653087966,"info":"直接检索POI第一个结果成功!","tag":["行政地标","乡镇"]},{"name":"中原西路街道","code":"410102010","level":4,"mergeName":"河南省,郑州市,中原区,中原西路街道","lng":113.60916144256566,"lat":34.75378933525644,"info":"直接检索POI第一个结果成功!","tag":["行政地标","乡镇"]},{"name":"西流湖街道","code":"410102011","level":4,"mergeName":"河南省,郑州市,中原区,西流湖街道","lng":113.5698087442762,"lat":34.76874652643879,"info":"直接检索POI第一个结果成功!","tag":""},{"name":"须水街道","code":"410102012","level":4,"mergeName":"河南省,郑州市,中原区,须水街道","lng":113.51071048240247,"lat":34.75533895389734,"info":"直接检索POI第一个结果成功!","tag":["行政地标","乡镇"]},{"name":"莲湖街道","code":"410102013","level":4,"mergeName":"河南省,郑州市,中原区,莲湖街道","lng":113.57531904010496,"lat":34.760544938599466,"info":"直接检索POI第一个结果成功!","tag":""},{"name":"柳湖街道","code":"410102014","level":4,"mergeName":"河南省,郑州市,中原区,柳湖街道","lng":113.53028186454836,"lat":34.73304445692584,"info":"直接检索POI第一个结果成功!","tag":""},{"name":"二七区","code":"410103","level":3,"mergeName":"河南省,郑州市,二七区","lng":113.64640869240084,"lat":34.73104460223376,"info":"直接检索POI第一个结果成功!","tag":""},{"name":"淮河路街道","code":"410103001","level":4,"mergeName":"河南省,郑州市,二七区,淮河路街道","lng":113.64497427816251,"lat":34.73789240928549,"info":"直接检索POI第一个结果成功!","tag":["行政地标","乡镇"]},{"name":"解放路街道","code":"410103002","level":4,"mergeName":"河南省,郑州市,二七区,解放路街道","lng":113.67009323581583,"lat":34.75988761946972,"info":"直接检索POI第一个结果成功!","tag":["行政地标","乡镇"]},{"name":"铭功路街道","code":"410103003","level":4,"mergeName":"河南省,郑州市,二七区,铭功路街道","lng":113.66595599995907,"lat":34.76121196457999,"info":"直接检索POI第一个结果成功!","tag":["政府机构"]},{"name":"一马路街道","code":"410103004","level":4,"mergeName":"河南省,郑州市,二七区,一马路街道","lng":113.67157463143232,"lat":34.75526354968866,"info":"直接检索POI第一个结果成功!","tag":["行政地标","乡镇"]},{"name":"蜜蜂张街道","code":"410103005","level":4,"mergeName":"河南省,郑州市,二七区,蜜蜂张街道","lng":113.66019435824863,"lat":34.753833674034944,"info":"直接检索POI第一个结果成功!","tag":["行政地标","乡镇"]},{"name":"五里堡街道","code":"410103006","level":4,"mergeName":"河南省,郑州市,二七区,五里堡街道","lng":113.65319808544527,"lat":34.762265093893994,"info":"直接检索POI第一个结果成功!","tag":["行政地标","乡镇"]},{"name":"大学路街道","code":"410103007","level":4,"mergeName":"河南省,郑州市,二七区,大学路街道","lng":113.65331288888943,"lat":34.74580900191538,"info":"直接检索POI第一个结果成功!","tag":""},{"name":"建中街街道","code":"410103008","level":4,"mergeName":"河南省,郑州市,二七区,建中街街道","lng":113.65367831957089,"lat":34.74132807433067,"info":"直接检索POI第一个结果成功!","tag":""},{"name":"福华街街道","code":"410103009","level":4,"mergeName":"河南省,郑州市,二七区,福华街街道","lng":113.66308187147989,"lat":34.73695228345406,"info":"直接检索POI第一个结果成功!","tag":["行政地标","乡镇"]},{"name":"德化街街道","code":"410103010","level":4,"mergeName":"河南省,郑州市,二七区,德化街街道","lng":113.67318574236447,"lat":34.75407931636418,"info":"直接检索POI第一个结果成功!","tag":["道路"]},{"name":"嵩山路街道","code":"410103011","level":4,"mergeName":"河南省,郑州市,二七区,嵩山路街道","lng":113.63287859447065,"lat":34.693870829868416,"info":"直接检索POI第一个结果成功!","tag":["行政地标","乡镇"]},{"name":"京广路街道","code":"410103012","level":4,"mergeName":"河南省,郑州市,二七区,京广路街道","lng":113.67374403923893,"lat":34.71687497677794,"info":"直接检索POI第一个结果成功!","tag":["行政地标","乡镇"]},{"name":"长江路街道","code":"410103013","level":4,"mergeName":"河南省,郑州市,二七区,长江路街道","lng":113.64950595996869,"lat":34.72053219521506,"info":"直接检索POI第一个结果成功!","tag":""},{"name":"人和路街道","code":"410103015","level":4,"mergeName":"河南省,郑州市,二七区,人和路街道","lng":113.65507329819734,"lat":34.70671158623522,"info":"直接检索POI第一个结果成功!","tag":""},{"name":"侯寨街道","code":"410103016","level":4,"mergeName":"河南省,郑州市,二七区,侯寨街道","lng":113.59535188179133,"lat":34.67338107888391,"info":"直接检索POI第一个结果成功!","tag":["行政地标","乡镇"]},{"name":"马寨镇","code":"410103100","level":4,"mergeName":"河南省,郑州市,二七区,马寨镇","lng":113.53909648736501,"lat":34.72084410157247,"info":"直接检索POI第一个结果成功!","tag":["行政地标","乡镇"]},{"name":"管城回族区","code":"410104","level":3,"mergeName":"河南省,郑州市,管城回族区","lng":113.68352667607313,"lat":34.759673133300694,"info":"直接检索POI第一个结果成功!","tag":""},{"name":"北下街街道","code":"410104001","level":4,"mergeName":"河南省,郑州市,管城回族区,北下街街道","lng":113.67635792861186,"lat":34.758278700001966,"info":"直接检索POI第一个结果成功!","tag":["行政地标","乡镇"]},{"name":"西大街街道","code":"410104002","level":4,"mergeName":"河南省,郑州市,管城回族区,西大街街道","lng":113.67982835228857,"lat":34.75603797800284,"info":"直接检索POI第一个结果成功!","tag":["行政地标","乡镇"]},{"name":"南关街街道","code":"410104003","level":4,"mergeName":"河南省,郑州市,管城回族区,南关街街道","lng":113.68241951453209,"lat":34.74090908946396,"info":"直接检索POI第一个结果成功!","tag":["道路","乡道"]},{"name":"城东路街道","code":"410104004","level":4,"mergeName":"河南省,郑州市,管城回族区,城东路街道","lng":113.69778161671931,"lat":34.75859075915645,"info":"直接检索POI第一个结果成功!","tag":""},{"name":"东大街街道","code":"410104005","level":4,"mergeName":"河南省,郑州市,管城回族区,东大街街道","lng":113.69221616493225,"lat":34.75392272224493,"info":"直接检索POI第一个结果成功!","tag":["道路","县道"]},{"name":"二里岗街道","code":"410104006","level":4,"mergeName":"河南省,郑州市,管城回族区,二里岗街道","lng":113.70397534338007,"lat":34.74336275300247,"info":"直接检索POI第一个结果成功!","tag":""},{"name":"陇海马路街道","code":"410104007","level":4,"mergeName":"河南省,郑州市,管城回族区,陇海马路街道","lng":113.68898900238766,"lat":34.73848998464365,"info":"直接检索POI第一个结果成功!","tag":["政府机构","各级政府"]},{"name":"紫荆山南路街道","code":"410104008","level":4,"mergeName":"河南省,郑州市,管城回族区,紫荆山南路街道","lng":113.69821289319466,"lat":34.710917034433294,"info":"直接检索POI第一个结果成功!","tag":["行政地标","村庄"]},{"name":"航海东路街道","code":"410104009","level":4,"mergeName":"河南省,郑州市,管城回族区,航海东路街道","lng":113.7055010254582,"lat":34.72474464805068,"info":"直接检索POI第一个结果成功!","tag":["行政地标","乡镇"]},{"name":"十八里河街道","code":"410104010","level":4,"mergeName":"河南省,郑州市,管城回族区,十八里河街道","lng":113.70769594514128,"lat":34.68793013773626,"info":"直接检索POI第一个结果成功!","tag":["行政地标","乡镇"]},{"name":"南曹街道","code":"410104011","level":4,"mergeName":"河南省,郑州市,管城回族区,南曹街道","lng":113.76065985834849,"lat":34.67507285889771,"info":"直接检索POI第一个结果成功!","tag":""},{"name":"金岱街道","code":"410104012","level":4,"mergeName":"河南省,郑州市,管城回族区,金岱街道","lng":113.69724514866877,"lat":34.72124954097456,"info":"直接检索POI第一个结果成功!","tag":""},{"name":"圃田乡","code":"410104202","level":4,"mergeName":"河南省,郑州市,管城回族区,圃田乡","lng":113.82275486740352,"lat":34.75318319653595,"info":"直接检索POI第一个结果成功!","tag":["行政地标","乡镇"]},{"name":"商都路街道","code":"410104570","level":4,"mergeName":"河南省,郑州市,管城回族区,商都路街道","lng":113.68352469980101,"lat":34.75967387469872,"info":"检索POI失败,BMAP_STATUE_CODE:1 ,GetPoint结果: 直接查询获得"},{"name":"金水区","code":"410105","level":3,"mergeName":"河南省,郑州市,金水区","lng":113.66644988832846,"lat":34.80606963058667,"info":"直接检索POI第一个结果成功!","tag":""},{"name":"经八路街道","code":"410105001","level":4,"mergeName":"河南省,郑州市,金水区,经八路街道","lng":113.67583745039937,"lat":34.774485591955084,"info":"直接检索POI第一个结果成功!","tag":["行政地标","乡镇"]},{"name":"花园路街道","code":"410105002","level":4,"mergeName":"河南省,郑州市,金水区,花园路街道","lng":113.70555501361937,"lat":34.77485362859008,"info":"直接检索POI第一个结果成功!","tag":["行政地标","乡镇"]},{"name":"人民路街道","code":"410105003","level":4,"mergeName":"河南省,郑州市,金水区,人民路街道","lng":113.68964054337404,"lat":34.76374931226005,"info":"直接检索POI第一个结果成功!","tag":["行政地标","乡镇"]},{"name":"杜岭街道","code":"410105004","level":4,"mergeName":"河南省,郑州市,金水区,杜岭街道","lng":113.67935853850683,"lat":34.76655398145017,"info":"直接检索POI第一个结果成功!","tag":["行政地标","乡镇"]},{"name":"大石桥街道","code":"410105005","level":4,"mergeName":"河南省,郑州市,金水区,大石桥街道","lng":113.6622006337746,"lat":34.773185182577755,"info":"直接检索POI第一个结果成功!","tag":["行政地标","商圈","强商圈"]},{"name":"南阳路街道","code":"410105006","level":4,"mergeName":"河南省,郑州市,金水区,南阳路街道","lng":113.66461114678009,"lat":34.78167205077144,"info":"直接检索POI第一个结果成功!","tag":["行政地标","乡镇"]},{"name":"南阳新村街道","code":"410105007","level":4,"mergeName":"河南省,郑州市,金水区,南阳新村街道","lng":113.64837661028156,"lat":34.79627606472264,"info":"直接检索POI第一个结果成功!","tag":["行政地标","乡镇"]},{"name":"文化路街道","code":"410105008","level":4,"mergeName":"河南省,郑州市,金水区,文化路街道","lng":113.66550217601542,"lat":34.79401103865923,"info":"直接检索POI第一个结果成功!","tag":["行政地标","乡镇"]},{"name":"丰产路街道","code":"410105009","level":4,"mergeName":"河南省,郑州市,金水区,丰产路街道","lng":113.71175637587694,"lat":34.789676974459724,"info":"直接检索POI第一个结果成功!","tag":["行政地标","乡镇"]},{"name":"东风路街道","code":"410105010","level":4,"mergeName":"河南省,郑州市,金水区,东风路街道","lng":113.64642755681655,"lat":34.808351512512985,"info":"直接检索POI第一个结果成功!","tag":["行政地标","乡镇"]},{"name":"北林路街道","code":"410105011","level":4,"mergeName":"河南省,郑州市,金水区,北林路街道","lng":113.69793962865853,"lat":34.8115351188212,"info":"直接检索POI第一个结果成功!","tag":""},{"name":"未来路街道","code":"410105012","level":4,"mergeName":"河南省,郑州市,金水区,未来路街道","lng":113.71033660401842,"lat":34.76433053728929,"info":"直接检索POI第一个结果成功!","tag":["行政地标","乡镇"]},{"name":"凤凰台街道","code":"410105013","level":4,"mergeName":"河南省,郑州市,金水区,凤凰台街道","lng":113.72545697219293,"lat":34.74615254910035,"info":"直接检索POI第一个结果成功!","tag":["行政地标","乡镇"]},{"name":"龙子湖街道","code":"410105014","level":4,"mergeName":"河南省,郑州市,金水区,龙子湖街道","lng":113.80366048548343,"lat":34.81933953051157,"info":"直接检索POI第一个结果成功!","tag":["行政地标","乡镇"]},{"name":"祭城路街道","code":"410105015","level":4,"mergeName":"河南省,郑州市,金水区,祭城路街道","lng":113.77322571514426,"lat":34.786494591439855,"info":"直接检索POI第一个结果成功!","tag":["行政地标","乡镇"]},{"name":"兴达路街道","code":"410105016","level":4,"mergeName":"河南省,郑州市,金水区,兴达路街道","lng":113.80335874466262,"lat":34.819024517539575,"info":"直接检索POI第一个结果成功!","tag":""},{"name":"国基路街道","code":"410105017","level":4,"mergeName":"河南省,郑州市,金水区,国基路街道","lng":113.68923046690873,"lat":34.825455223482614,"info":"直接检索POI第一个结果成功!","tag":["行政地标","乡镇"]},{"name":"杨金路街道","code":"410105018","level":4,"mergeName":"河南省,郑州市,金水区,杨金路街道","lng":113.74648199231507,"lat":34.85000531842549,"info":"直接检索POI第一个结果成功!","tag":["政府机构"]},{"name":"丰庆路街道","code":"410105019","level":4,"mergeName":"河南省,郑州市,金水区,丰庆路街道","lng":113.65396254343425,"lat":34.827210533562685,"info":"直接检索POI第一个结果成功!","tag":["政府机构","各级政府","乡镇级政府"]},{"name":"如意湖街道","code":"410105560","level":4,"mergeName":"河南省,郑州市,金水区,如意湖街道","lng":113.73241336023165,"lat":34.77923169201559,"info":"直接检索POI第一个结果成功!","tag":["名称标注类"]},{"name":"博学路街道","code":"410105561","level":4,"mergeName":"河南省,郑州市,金水区,博学路街道","lng":113.80685288360478,"lat":34.77592726315752,"info":"直接检索POI第一个结果成功!","tag":["道路","乡道"]},{"name":"龙湖街道","code":"410105562","level":4,"mergeName":"河南省,郑州市,金水区,龙湖街道","lng":113.52445705737165,"lat":23.36064603232751,"info":"直接检索POI第一个结果成功!","tag":["行政地标","乡镇"]},{"name":"龙源路街道","code":"410105563","level":4,"mergeName":"河南省,郑州市,金水区,龙源路街道","lng":113.7034286346467,"lat":34.83824771300098,"info":"直接检索POI第一个结果成功!","tag":""},{"name":"金光路街道","code":"410105564","level":4,"mergeName":"河南省,郑州市,金水区,金光路街道","lng":113.67444902940316,"lat":34.7557901913971,"info":"直接检索POI第一个结果成功!","tag":["道路"]},{"name":"上街区","code":"410106","level":3,"mergeName":"河南省,郑州市,上街区","lng":113.31549989169027,"lat":34.808818610238696,"info":"直接检索POI第一个结果成功!","tag":""},{"name":"济源路街道","code":"410106001","level":4,"mergeName":"河南省,郑州市,上街区,济源路街道","lng":113.31343917885037,"lat":34.81449966510468,"info":"直接检索POI第一个结果成功!","tag":""},{"name":"中心路街道","code":"410106002","level":4,"mergeName":"河南省,郑州市,上街区,中心路街道","lng":113.30612607369365,"lat":34.80982296503406,"info":"直接检索POI第一个结果成功!","tag":""},{"name":"新安路街道","code":"410106003","level":4,"mergeName":"河南省,郑州市,上街区,新安路街道","lng":113.29517123799947,"lat":34.82349333551089,"info":"直接检索POI第一个结果成功!","tag":["道路","乡道"]},{"name":"工业路街道","code":"410106004","level":4,"mergeName":"河南省,郑州市,上街区,工业路街道","lng":113.30922783278903,"lat":34.825780953215514,"info":"直接检索POI第一个结果成功!","tag":["行政地标","乡镇"]},{"name":"矿山街道","code":"410106005","level":4,"mergeName":"河南省,郑州市,上街区,矿山街道","lng":113.1802506547858,"lat":34.71187029277316,"info":"直接检索POI第一个结果成功!","tag":""},{"name":"峡窝镇","code":"410106100","level":4,"mergeName":"河南省,郑州市,上街区,峡窝镇","lng":113.31583630710375,"lat":34.79533838830636,"info":"直接检索POI第一个结果成功!","tag":["行政地标","乡镇"]},{"name":"惠济区","code":"410108","level":3,"mergeName":"河南省,郑州市,惠济区","lng":113.62345698662091,"lat":34.873520700177004,"info":"直接检索POI第一个结果成功!","tag":""},{"name":"新城街道","code":"410108001","level":4,"mergeName":"河南省,郑州市,惠济区,新城街道","lng":113.63434633584342,"lat":34.875842303255155,"info":"直接检索POI第一个结果成功!","tag":["行政地标","乡镇"]},{"name":"刘寨街道","code":"410108002","level":4,"mergeName":"河南省,郑州市,惠济区,刘寨街道","lng":113.63718093888015,"lat":34.80974294312036,"info":"直接检索POI第一个结果成功!","tag":["行政地标","乡镇"]},{"name":"江山路街道","code":"410108003","level":4,"mergeName":"河南省,郑州市,惠济区,江山路街道","lng":113.60633402597301,"lat":34.85472925782841,"info":"直接检索POI第一个结果成功!","tag":["行政地标","乡镇"]},{"name":"长兴路街道","code":"410108004","level":4,"mergeName":"河南省,郑州市,惠济区,长兴路街道","lng":113.63359903548965,"lat":34.820568602896124,"info":"直接检索POI第一个结果成功!","tag":["道路","乡道"]},{"name":"迎宾路街道","code":"410108005","level":4,"mergeName":"河南省,郑州市,惠济区,迎宾路街道","lng":113.67422750726439,"lat":34.87663691034913,"info":"直接检索POI第一个结果成功!","tag":["行政地标","乡镇"]},{"name":"大河路街道","code":"410108006","level":4,"mergeName":"河南省,郑州市,惠济区,大河路街道","lng":113.58506520573546,"lat":34.895094370142594,"info":"直接检索POI第一个结果成功!","tag":["行政地标","乡镇"]},{"name":"花园口镇","code":"410108100","level":4,"mergeName":"河南省,郑州市,惠济区,花园口镇","lng":113.67944244024146,"lat":34.88097353834582,"info":"直接检索POI第一个结果成功!","tag":["行政地标","乡镇"]},{"name":"古荥镇","code":"410108101","level":4,"mergeName":"河南省,郑州市,惠济区,古荥镇","lng":113.54286532813214,"lat":34.88592678986848,"info":"直接检索POI第一个结果成功!","tag":["行政地标","乡镇"]},{"name":"中牟县","code":"410122","level":3,"mergeName":"河南省,郑州市,中牟县","lng":113.9824827497938,"lat":34.72501099726599,"info":"直接检索POI第一个结果成功!","tag":""},{"name":"青年路街道","code":"410122001","level":4,"mergeName":"河南省,郑州市,中牟县,青年路街道","lng":114.03816843886568,"lat":34.735963422880076,"info":"直接检索POI第一个结果成功!","tag":["行政地标","乡镇"]},{"name":"东风路街道","code":"410122002","level":4,"mergeName":"河南省,郑州市,中牟县,东风路街道","lng":113.64642755681655,"lat":34.808351512512985,"info":"直接检索POI第一个结果成功!","tag":["行政地标","乡镇"]},{"name":"广惠街街道","code":"410122003","level":4,"mergeName":"河南省,郑州市,中牟县,广惠街街道","lng":113.96980703023415,"lat":34.725583967788886,"info":"直接检索POI第一个结果成功!","tag":["政府机构"]},{"name":"韩寺镇","code":"410122101","level":4,"mergeName":"河南省,郑州市,中牟县,韩寺镇","lng":114.11566525521148,"lat":34.66576455695158,"info":"直接检索POI第一个结果成功!","tag":["行政地标","乡镇"]},{"name":"官渡镇","code":"410122102","level":4,"mergeName":"河南省,郑州市,中牟县,官渡镇","lng":114.09601033065316,"lat":34.737993340351395,"info":"直接检索POI第一个结果成功!","tag":["行政地标","乡镇"]},{"name":"狼城岗镇","code":"410122103","level":4,"mergeName":"河南省,郑州市,中牟县,狼城岗镇","lng":114.19645930193164,"lat":34.86725171561452,"info":"直接检索POI第一个结果成功!","tag":["行政地标","乡镇"]},{"name":"万滩镇","code":"410122104","level":4,"mergeName":"河南省,郑州市,中牟县,万滩镇","lng":113.94957278845244,"lat":34.866342028268924,"info":"直接检索POI第一个结果成功!","tag":["行政地标","乡镇"]},{"name":"白沙镇","code":"410122105","level":4,"mergeName":"河南省,郑州市,中牟县,白沙镇","lng":113.90808562644074,"lat":34.735768155989625,"info":"直接检索POI第一个结果成功!","tag":["行政地标","乡镇"]},{"name":"郑庵镇","code":"410122106","level":4,"mergeName":"河南省,郑州市,中牟县,郑庵镇","lng":113.92415388658935,"lat":34.679345236740495,"info":"直接检索POI第一个结果成功!","tag":["行政地标","乡镇"]},{"name":"黄店镇","code":"410122109","level":4,"mergeName":"河南省,郑州市,中牟县,黄店镇","lng":114.01424494618503,"lat":34.55574049946917,"info":"直接检索POI第一个结果成功!","tag":["行政地标","乡镇"]},{"name":"大孟镇","code":"410122110","level":4,"mergeName":"河南省,郑州市,中牟县,大孟镇","lng":114.04060302645883,"lat":34.7864669463578,"info":"直接检索POI第一个结果成功!","tag":""},{"name":"刘集镇","code":"410122112","level":4,"mergeName":"河南省,郑州市,中牟县,刘集镇","lng":113.93356462494243,"lat":34.80945575271774,"info":"直接检索POI第一个结果成功!","tag":["行政地标","乡镇"]},{"name":"雁鸣湖镇","code":"410122114","level":4,"mergeName":"河南省,郑州市,中牟县,雁鸣湖镇","lng":114.08514514584887,"lat":34.86949634753715,"info":"直接检索POI第一个结果成功!","tag":["行政地标","乡镇"]},{"name":"姚家镇","code":"410122115","level":4,"mergeName":"河南省,郑州市,中牟县,姚家镇","lng":114.02851964955245,"lat":34.6620022380483,"info":"直接检索POI第一个结果成功!","tag":["行政地标","乡镇"]},{"name":"刁家乡","code":"410122208","level":4,"mergeName":"河南省,郑州市,中牟县,刁家乡","lng":114.0914325657743,"lat":34.5493355163998,"info":"直接检索POI第一个结果成功!","tag":["行政地标","乡镇"]},{"name":"杨桥街道","code":"410122570","level":4,"mergeName":"河南省,郑州市,中牟县,杨桥街道","lng":113.88114706114641,"lat":34.86864902772335,"info":"直接检索POI第一个结果成功!","tag":["名称标注类"]},{"name":"豫兴街道","code":"410122571","level":4,"mergeName":"河南省,郑州市,中牟县,豫兴街道","lng":113.90656695114556,"lat":34.7864888104315,"info":"直接检索POI第一个结果成功!","tag":""},{"name":"郑州经济技术开发区","code":"410171","level":3,"mergeName":"河南省,郑州市,郑州经济技术开发区","lng":113.8323773363653,"lat":34.71287769303875,"info":"直接检索POI第一个结果成功!","tag":""},{"name":"九龙镇","code":"410171111","level":4,"mergeName":"河南省,郑州市,郑州经济技术开发区,九龙镇","lng":113.85718853455089,"lat":34.68842300426961,"info":"直接检索POI第一个结果成功!","tag":["行政地标","乡镇"]},{"name":"郑州经济技术开发区明湖街道","code":"410171560","level":4,"mergeName":"河南省,郑州市,郑州经济技术开发区,郑州经济技术开发区明湖街道","lng":113.74469104061981,"lat":34.72029394394668,"info":"直接检索POI第一个结果成功!","tag":""},{"name":"郑州经济技术开发区潮河街道","code":"410171561","level":4,"mergeName":"河南省,郑州市,郑州经济技术开发区,郑州经济技术开发区潮河街道","lng":113.8323773363653,"lat":34.71287769303875,"info":"直接检索POI第一个结果成功!","tag":""},{"name":"郑州经济技术开发区京航街道","code":"410171562","level":4,"mergeName":"河南省,郑州市,郑州经济技术开发区,郑州经济技术开发区京航街道","lng":113.8556279083884,"lat":34.70720523014401,"info":"直接检索POI第一个结果成功!","tag":""},{"name":"郑州经济技术开发区前程街道","code":"410171563","level":4,"mergeName":"河南省,郑州市,郑州经济技术开发区,郑州经济技术开发区前程街道","lng":113.8323773363653,"lat":34.71287769303875,"info":"直接检索POI第一个结果成功!","tag":""},{"name":"郑州经济技术开发区祥云街道","code":"410171565","level":4,"mergeName":"河南省,郑州市,郑州经济技术开发区,郑州经济技术开发区祥云街道","lng":113.80834622668456,"lat":34.64137556361027,"info":"直接检索POI第一个结果成功!","tag":""},{"name":"郑州高新技术产业开发区","code":"410172","level":3,"mergeName":"河南省,郑州市,郑州高新技术产业开发区","lng":113.57531993841047,"lat":34.80765249103363,"info":"直接检索POI第一个结果成功!","tag":""},{"name":"石佛镇","code":"410172160","level":4,"mergeName":"河南省,郑州市,郑州高新技术产业开发区,石佛镇","lng":113.59113586454136,"lat":34.78758408186558,"info":"直接检索POI第一个结果成功!","tag":["行政地标","乡镇"]},{"name":"沟赵乡","code":"410172360","level":4,"mergeName":"河南省,郑州市,郑州高新技术产业开发区,沟赵乡","lng":113.52652021022533,"lat":34.810861909095294,"info":"直接检索POI第一个结果成功!","tag":["行政地标","乡镇"]},{"name":"枫杨街道","code":"410172560","level":4,"mergeName":"河南省,郑州市,郑州高新技术产业开发区,枫杨街道","lng":113.5682850384702,"lat":34.82003830377174,"info":"直接检索POI第一个结果成功!","tag":["道路","乡道"]},{"name":"梧桐街道","code":"410172561","level":4,"mergeName":"河南省,郑州市,郑州高新技术产业开发区,梧桐街道","lng":120.57466970763511,"lat":30.654636609454613,"info":"直接检索POI第一个结果成功!","tag":["政府机构"]},{"name":"双桥街道","code":"410172562","level":4,"mergeName":"河南省,郑州市,郑州高新技术产业开发区,双桥街道","lng":118.8188294510467,"lat":30.95974189729201,"info":"直接检索POI第一个结果成功!","tag":["行政地标","乡镇"]},{"name":"郑州航空港经济综合实验区","code":"410173","level":3,"mergeName":"河南省,郑州市,郑州航空港经济综合实验区","lng":113.82650313697445,"lat":34.46635166250824,"info":"直接检索POI第一个结果成功!","tag":""},{"name":"张庄镇","code":"410173108","level":4,"mergeName":"河南省,郑州市,郑州航空港经济综合实验区,张庄镇","lng":113.89711965175823,"lat":34.57400177591392,"info":"直接检索POI第一个结果成功!","tag":["行政地标","乡镇"]},{"name":"八岗镇","code":"410173113","level":4,"mergeName":"河南省,郑州市,郑州航空港经济综合实验区,八岗镇","lng":113.94288077172531,"lat":34.598580497857355,"info":"直接检索POI第一个结果成功!","tag":["行政地标","乡镇"]},{"name":"三官庙镇","code":"410173116","level":4,"mergeName":"河南省,郑州市,郑州航空港经济综合实验区,三官庙镇","lng":113.9279972867138,"lat":34.51768370557083,"info":"直接检索POI第一个结果成功!","tag":["行政地标","乡镇"]},{"name":"八千乡","code":"410173202","level":4,"mergeName":"河南省,郑州市,郑州航空港经济综合实验区,八千乡","lng":113.83378848449092,"lat":34.381124909184585,"info":"直接检索POI第一个结果成功!","tag":["行政地标","乡镇"]},{"name":"龙王乡","code":"410173203","level":4,"mergeName":"河南省,郑州市,郑州航空港经济综合实验区,龙王乡","lng":113.85927718469213,"lat":34.47049299585271,"info":"直接检索POI第一个结果成功!","tag":""},{"name":"新港街道","code":"410173400","level":4,"mergeName":"河南省,郑州市,郑州航空港经济综合实验区,新港街道","lng":113.84795975247039,"lat":34.56672264807901,"info":"检索POI失败,BMAP_STATUE_CODE:1 ,GetPoint结果: 第二次通过省份查询成功"},{"name":"郑港街道","code":"410173401","level":4,"mergeName":"河南省,郑州市,郑州航空港经济综合实验区,郑港街道","lng":113.83741494383469,"lat":34.56323218113709,"info":"直接检索POI第一个结果成功!","tag":""},{"name":"银河街道","code":"410173404","level":4,"mergeName":"河南省,郑州市,郑州航空港经济综合实验区,银河街道","lng":113.62643594735309,"lat":34.832324015539385,"info":"直接检索POI第一个结果成功!","tag":["道路"]},{"name":"明港街道","code":"410173405","level":4,"mergeName":"河南省,郑州市,郑州航空港经济综合实验区,明港街道","lng":113.93727696229297,"lat":32.49528235787437,"info":"直接检索POI第一个结果成功!","tag":""},{"name":"滨河街道","code":"410173580","level":4,"mergeName":"河南省,郑州市,郑州航空港经济综合实验区,滨河街道","lng":112.8127901621964,"lat":32.70001731885079,"info":"直接检索POI第一个结果成功!","tag":""},{"name":"冯堂街道","code":"410173581","level":4,"mergeName":"河南省,郑州市,郑州航空港经济综合实验区,冯堂街道","lng":113.99165516769509,"lat":34.474780237773736,"info":"直接检索POI第一个结果成功!","tag":["行政地标","村庄"]},{"name":"清河街道","code":"410173582","level":4,"mergeName":"河南省,郑州市,郑州航空港经济综合实验区,清河街道","lng":116.34119137481372,"lat":40.04126011426212,"info":"直接检索POI第一个结果成功!","tag":["名称标注类"]},{"name":"龙港街道","code":"410173583","level":4,"mergeName":"河南省,郑州市,郑州航空港经济综合实验区,龙港街道","lng":113.40489081197148,"lat":34.77919440860364,"info":"直接检索POI第一个结果成功!","tag":["道路"]},{"name":"巩义市","code":"410181","level":3,"mergeName":"河南省,郑州市,巩义市","lng":113.02842839986661,"lat":34.75409763014549,"info":"直接检索POI第一个结果成功!","tag":""},{"name":"新华路街道","code":"410181001","level":4,"mergeName":"河南省,郑州市,巩义市,新华路街道","lng":112.99039126999651,"lat":34.75735437810264,"info":"直接检索POI第一个结果成功!","tag":["行政地标","乡镇"]},{"name":"杜甫路街道","code":"410181002","level":4,"mergeName":"河南省,郑州市,巩义市,杜甫路街道","lng":112.98916948467239,"lat":34.7495628792989,"info":"直接检索POI第一个结果成功!","tag":["行政地标","乡镇"]},{"name":"永安路街道","code":"410181003","level":4,"mergeName":"河南省,郑州市,巩义市,永安路街道","lng":112.97033641982516,"lat":34.708282052010276,"info":"直接检索POI第一个结果成功!","tag":["行政地标","乡镇"]},{"name":"孝义街道","code":"410181004","level":4,"mergeName":"河南省,郑州市,巩义市,孝义街道","lng":112.98240542384336,"lat":34.765543979497835,"info":"直接检索POI第一个结果成功!","tag":["行政地标","乡镇"]},{"name":"紫荆路街道","code":"410181005","level":4,"mergeName":"河南省,郑州市,巩义市,紫荆路街道","lng":113.03086577220684,"lat":34.759928841081745,"info":"直接检索POI第一个结果成功!","tag":""},{"name":"米河镇","code":"410181100","level":4,"mergeName":"河南省,郑州市,巩义市,米河镇","lng":113.2458696265259,"lat":34.72979386168764,"info":"直接检索POI第一个结果成功!","tag":["行政地标","乡镇"]},{"name":"新中镇","code":"410181101","level":4,"mergeName":"河南省,郑州市,巩义市,新中镇","lng":113.21740978085042,"lat":34.69353129277815,"info":"直接检索POI第一个结果成功!","tag":""},{"name":"小关镇","code":"410181102","level":4,"mergeName":"河南省,郑州市,巩义市,小关镇","lng":113.17766218745878,"lat":34.7124682063538,"info":"直接检索POI第一个结果成功!","tag":["行政地标","乡镇"]},{"name":"竹林镇","code":"410181103","level":4,"mergeName":"河南省,郑州市,巩义市,竹林镇","lng":113.13209052012374,"lat":34.70615673405527,"info":"直接检索POI第一个结果成功!","tag":""},{"name":"大峪沟镇","code":"410181104","level":4,"mergeName":"河南省,郑州市,巩义市,大峪沟镇","lng":113.10426218322178,"lat":34.719368970594594,"info":"直接检索POI第一个结果成功!","tag":["行政地标","乡镇"]},{"name":"河洛镇","code":"410181105","level":4,"mergeName":"河南省,郑州市,巩义市,河洛镇","lng":113.12989362416853,"lat":34.826748208032875,"info":"直接检索POI第一个结果成功!","tag":["行政地标","乡镇"]},{"name":"站街镇","code":"410181106","level":4,"mergeName":"河南省,郑州市,巩义市,站街镇","lng":113.06828594585268,"lat":34.79478717509748,"info":"直接检索POI第一个结果成功!","tag":["行政地标","乡镇"]},{"name":"康店镇","code":"410181108","level":4,"mergeName":"河南省,郑州市,巩义市,康店镇","lng":112.95674784220627,"lat":34.761191057546135,"info":"直接检索POI第一个结果成功!","tag":["行政地标","乡镇"]},{"name":"北山口镇","code":"410181110","level":4,"mergeName":"河南省,郑州市,巩义市,北山口镇","lng":113.00976682154123,"lat":34.7344155139552,"info":"直接检索POI第一个结果成功!","tag":["行政地标","乡镇"]},{"name":"西村镇","code":"410181111","level":4,"mergeName":"河南省,郑州市,巩义市,西村镇","lng":112.96909514127147,"lat":34.64986747930338,"info":"直接检索POI第一个结果成功!","tag":["行政地标","乡镇"]},{"name":"芝田镇","code":"410181112","level":4,"mergeName":"河南省,郑州市,巩义市,芝田镇","lng":112.95207791118209,"lat":34.69886118028831,"info":"直接检索POI第一个结果成功!","tag":["行政地标","乡镇"]},{"name":"回郭镇","code":"410181113","level":4,"mergeName":"河南省,郑州市,巩义市,回郭镇","lng":112.87811520837364,"lat":34.685271041279954,"info":"直接检索POI第一个结果成功!","tag":["行政地标","乡镇"]},{"name":"鲁庄镇","code":"410181114","level":4,"mergeName":"河南省,郑州市,巩义市,鲁庄镇","lng":112.87861637301768,"lat":34.62320705947711,"info":"直接检索POI第一个结果成功!","tag":["行政地标","乡镇"]},{"name":"夹津口镇","code":"410181115","level":4,"mergeName":"河南省,郑州市,巩义市,夹津口镇","lng":113.03655411218767,"lat":34.63184327462766,"info":"直接检索POI第一个结果成功!","tag":["行政地标","乡镇"]},{"name":"涉村镇","code":"410181116","level":4,"mergeName":"河南省,郑州市,巩义市,涉村镇","lng":113.06850046120846,"lat":34.623767967975,"info":"直接检索POI第一个结果成功!","tag":["行政地标","乡镇"]},{"name":"荥阳市","code":"410182","level":3,"mergeName":"河南省,郑州市,荥阳市","lng":113.38942145210635,"lat":34.79381109321685,"info":"直接检索POI第一个结果成功!","tag":""},{"name":"索河街道","code":"410182001","level":4,"mergeName":"河南省,郑州市,荥阳市,索河街道","lng":113.38328198309841,"lat":34.79374550685509,"info":"直接检索POI第一个结果成功!","tag":["行政地标","乡镇"]},{"name":"京城路街道","code":"410182002","level":4,"mergeName":"河南省,郑州市,荥阳市,京城路街道","lng":113.42273906448813,"lat":34.79278949628367,"info":"直接检索POI第一个结果成功!","tag":["行政地标","乡镇"]},{"name":"乔楼镇","code":"410182101","level":4,"mergeName":"河南省,郑州市,荥阳市,乔楼镇","lng":113.39188703123959,"lat":34.767901199667314,"info":"直接检索POI第一个结果成功!","tag":["行政地标","乡镇"]},{"name":"豫龙镇","code":"410182102","level":4,"mergeName":"河南省,郑州市,荥阳市,豫龙镇","lng":113.43702382887726,"lat":34.77655450709667,"info":"直接检索POI第一个结果成功!","tag":["行政地标","乡镇"]},{"name":"广武镇","code":"410182103","level":4,"mergeName":"河南省,郑州市,荥阳市,广武镇","lng":113.45223780048589,"lat":34.90005520009624,"info":"直接检索POI第一个结果成功!","tag":["行政地标","乡镇"]},{"name":"王村镇","code":"410182104","level":4,"mergeName":"河南省,郑州市,荥阳市,王村镇","lng":113.28383049025818,"lat":34.88490197839994,"info":"直接检索POI第一个结果成功!","tag":["行政地标","乡镇"]},{"name":"汜水镇","code":"410182105","level":4,"mergeName":"河南省,郑州市,荥阳市,汜水镇","lng":113.22505840311514,"lat":34.849925780254786,"info":"直接检索POI第一个结果成功!","tag":["行政地标","乡镇"]},{"name":"高山镇","code":"410182106","level":4,"mergeName":"河南省,郑州市,荥阳市,高山镇","lng":113.22372064654968,"lat":34.791770258120515,"info":"直接检索POI第一个结果成功!","tag":["行政地标","乡镇"]},{"name":"刘河镇","code":"410182108","level":4,"mergeName":"河南省,郑州市,荥阳市,刘河镇","lng":113.29394720691157,"lat":34.68977484732008,"info":"直接检索POI第一个结果成功!","tag":["行政地标","乡镇"]},{"name":"崔庙镇","code":"410182109","level":4,"mergeName":"河南省,郑州市,荥阳市,崔庙镇","lng":113.36102853019138,"lat":34.6785106384424,"info":"直接检索POI第一个结果成功!","tag":["行政地标","乡镇"]},{"name":"贾峪镇","code":"410182110","level":4,"mergeName":"河南省,郑州市,荥阳市,贾峪镇","lng":113.45721585029997,"lat":34.679798006105095,"info":"直接检索POI第一个结果成功!","tag":["行政地标","乡镇"]},{"name":"城关乡","code":"410182200","level":4,"mergeName":"河南省,郑州市,荥阳市,城关乡","lng":113.71340773089595,"lat":34.394787813434796,"info":"直接检索POI第一个结果成功!","tag":["行政地标","乡镇"]},{"name":"高村乡","code":"410182201","level":4,"mergeName":"河南省,郑州市,荥阳市,高村乡","lng":113.3790674929678,"lat":34.89085042791012,"info":"直接检索POI第一个结果成功!","tag":["行政地标","村庄"]},{"name":"金寨回族乡","code":"410182204","level":4,"mergeName":"河南省,郑州市,荥阳市,金寨回族乡","lng":113.36829195905341,"lat":34.829282854640134,"info":"直接检索POI第一个结果成功!","tag":["行政地标","乡镇"]},{"name":"新密市","code":"410183","level":3,"mergeName":"河南省,郑州市,新密市","lng":113.39738942197985,"lat":34.54589813211077,"info":"直接检索POI第一个结果成功!","tag":""},{"name":"青屏街街道","code":"410183001","level":4,"mergeName":"河南省,郑州市,新密市,青屏街街道","lng":113.37665401555414,"lat":34.548558467794834,"info":"直接检索POI第一个结果成功!","tag":["行政地标","乡镇"]},{"name":"新华路街道","code":"410183002","level":4,"mergeName":"河南省,郑州市,新密市,新华路街道","lng":112.99039126999651,"lat":34.75735437810264,"info":"直接检索POI第一个结果成功!","tag":["行政地标","乡镇"]},{"name":"西大街街道","code":"410183003","level":4,"mergeName":"河南省,郑州市,新密市,西大街街道","lng":113.67982835228857,"lat":34.75603797800284,"info":"直接检索POI第一个结果成功!","tag":["行政地标","乡镇"]},{"name":"城关镇","code":"410183100","level":4,"mergeName":"河南省,郑州市,新密市,城关镇","lng":113.37769119909595,"lat":34.51944776631113,"info":"直接检索POI第一个结果成功!","tag":["行政地标","乡镇"]},{"name":"米村镇","code":"410183101","level":4,"mergeName":"河南省,郑州市,新密市,米村镇","lng":113.29186358728117,"lat":34.55931385242651,"info":"直接检索POI第一个结果成功!","tag":["行政地标","村庄"]},{"name":"牛店镇","code":"410183102","level":4,"mergeName":"河南省,郑州市,新密市,牛店镇","lng":113.2742700043766,"lat":34.51291146614755,"info":"直接检索POI第一个结果成功!","tag":["行政地标","乡镇"]},{"name":"平陌镇","code":"410183103","level":4,"mergeName":"河南省,郑州市,新密市,平陌镇","lng":113.31993168192373,"lat":34.460673946683634,"info":"直接检索POI第一个结果成功!","tag":["行政地标","乡镇"]},{"name":"超化镇","code":"410183104","level":4,"mergeName":"河南省,郑州市,新密市,超化镇","lng":113.41488670653376,"lat":34.45686035889902,"info":"直接检索POI第一个结果成功!","tag":["行政地标","乡镇"]},{"name":"苟堂镇","code":"410183105","level":4,"mergeName":"河南省,郑州市,新密市,苟堂镇","lng":113.50246251070152,"lat":34.404480574579885,"info":"直接检索POI第一个结果成功!","tag":["行政地标","乡镇"]},{"name":"大隗镇","code":"410183106","level":4,"mergeName":"河南省,郑州市,新密市,大隗镇","lng":113.50820771342111,"lat":34.443816113547896,"info":"直接检索POI第一个结果成功!","tag":["行政地标","乡镇"]},{"name":"刘寨镇","code":"410183107","level":4,"mergeName":"河南省,郑州市,新密市,刘寨镇","lng":113.55070286404559,"lat":34.502312460005086,"info":"直接检索POI第一个结果成功!","tag":["行政地标","乡镇"]},{"name":"白寨镇","code":"410183108","level":4,"mergeName":"河南省,郑州市,新密市,白寨镇","lng":113.53298109294475,"lat":34.600516429387895,"info":"直接检索POI第一个结果成功!","tag":["行政地标","乡镇"]},{"name":"岳村镇","code":"410183109","level":4,"mergeName":"河南省,郑州市,新密市,岳村镇","lng":113.5013857118867,"lat":34.557974281282846,"info":"直接检索POI第一个结果成功!","tag":""},{"name":"来集镇","code":"410183110","level":4,"mergeName":"河南省,郑州市,新密市,来集镇","lng":113.46886480666171,"lat":34.49279553217209,"info":"直接检索POI第一个结果成功!","tag":["行政地标","乡镇"]},{"name":"曲梁镇","code":"410183113","level":4,"mergeName":"河南省,郑州市,新密市,曲梁镇","lng":113.601579833892,"lat":34.520625272976766,"info":"直接检索POI第一个结果成功!","tag":["行政地标","乡镇"]},{"name":"袁庄乡","code":"410183200","level":4,"mergeName":"河南省,郑州市,新密市,袁庄乡","lng":113.38198312316153,"lat":34.56874761002751,"info":"直接检索POI第一个结果成功!","tag":["行政地标","乡镇"]},{"name":"矿区街道","code":"410183400","level":4,"mergeName":"河南省,郑州市,新密市,矿区街道","lng":113.40597605485807,"lat":34.51982728279714,"info":"直接检索POI第一个结果成功!","tag":["道路","乡道"]},{"name":"尖山风景区管理委员会","code":"410183401","level":4,"mergeName":"河南省,郑州市,新密市,尖山风景区管理委员会","lng":113.25508246817512,"lat":34.609328907091765,"info":"直接检索POI第一个结果成功!","tag":["政府机构"]},{"name":"郑州曲梁产业集聚区管理委员会","code":"410183402","level":4,"mergeName":"河南省,郑州市,新密市,郑州曲梁产业集聚区管理委员会","lng":113.65627603944463,"lat":34.53288600349085,"info":"直接检索POI第一个结果成功!","tag":""},{"name":"新郑市","code":"410184","level":3,"mergeName":"河南省,郑州市,新郑市","lng":113.74643501093689,"lat":34.401767123732576,"info":"直接检索POI第一个结果成功!","tag":""},{"name":"新建路街道","code":"410184001","level":4,"mergeName":"河南省,郑州市,新郑市,新建路街道","lng":113.73834828507496,"lat":34.410391912989716,"info":"直接检索POI第一个结果成功!","tag":["道路","乡道"]},{"name":"新华路街道","code":"410184002","level":4,"mergeName":"河南省,郑州市,新郑市,新华路街道","lng":112.99039126999651,"lat":34.75735437810264,"info":"直接检索POI第一个结果成功!","tag":["行政地标","乡镇"]},{"name":"新烟街道","code":"410184003","level":4,"mergeName":"河南省,郑州市,新郑市,新烟街道","lng":113.7765873540237,"lat":34.3899229854216,"info":"直接检索POI第一个结果成功!","tag":["行政地标","乡镇"]},{"name":"新村镇","code":"410184101","level":4,"mergeName":"河南省,郑州市,新郑市,新村镇","lng":113.71818959078665,"lat":34.44065842749946,"info":"直接检索POI第一个结果成功!","tag":["行政地标","乡镇"]},{"name":"辛店镇","code":"410184102","level":4,"mergeName":"河南省,郑州市,新郑市,辛店镇","lng":113.61349513783745,"lat":34.38722603865147,"info":"直接检索POI第一个结果成功!","tag":["行政地标","乡镇"]},{"name":"观音寺镇","code":"410184103","level":4,"mergeName":"河南省,郑州市,新郑市,观音寺镇","lng":113.6961774227396,"lat":34.33542137049694,"info":"直接检索POI第一个结果成功!","tag":["行政地标","乡镇"]},{"name":"梨河镇","code":"410184104","level":4,"mergeName":"河南省,郑州市,新郑市,梨河镇","lng":113.74340260102686,"lat":34.356826765573636,"info":"直接检索POI第一个结果成功!","tag":""},{"name":"和庄镇","code":"410184105","level":4,"mergeName":"河南省,郑州市,新郑市,和庄镇","lng":113.79845049318665,"lat":34.3964321464138,"info":"直接检索POI第一个结果成功!","tag":["行政地标","乡镇"]},{"name":"薛店镇","code":"410184106","level":4,"mergeName":"河南省,郑州市,新郑市,薛店镇","lng":113.80489637420406,"lat":34.50319629546915,"info":"直接检索POI第一个结果成功!","tag":""},{"name":"孟庄镇","code":"410184107","level":4,"mergeName":"河南省,郑州市,新郑市,孟庄镇","lng":113.8249998227035,"lat":34.5852046791309,"info":"直接检索POI第一个结果成功!","tag":["行政地标","乡镇"]},{"name":"郭店镇","code":"410184108","level":4,"mergeName":"河南省,郑州市,新郑市,郭店镇","lng":113.72979677594218,"lat":34.535526537779454,"info":"直接检索POI第一个结果成功!","tag":["行政地标","乡镇"]},{"name":"龙湖镇","code":"410184109","level":4,"mergeName":"河南省,郑州市,新郑市,龙湖镇","lng":113.6925773735778,"lat":34.6149497585131,"info":"直接检索POI第一个结果成功!","tag":["行政地标","乡镇"]},{"name":"城关乡","code":"410184200","level":4,"mergeName":"河南省,郑州市,新郑市,城关乡","lng":113.71340773089595,"lat":34.394787813434796,"info":"直接检索POI第一个结果成功!","tag":["行政地标","乡镇"]},{"name":"具茨山国家级森林公园管理委员会","code":"410184402","level":4,"mergeName":"河南省,郑州市,新郑市,具茨山国家级森林公园管理委员会","lng":113.55409244022638,"lat":34.343927574154165,"info":"直接检索POI第一个结果成功!","tag":["政府机构","各级政府","村民委员会"]},{"name":"新郑新区管理委员会","code":"410184403","level":4,"mergeName":"河南省,郑州市,新郑市,新郑新区管理委员会","lng":113.77207615358316,"lat":34.425576502757586,"info":"直接检索POI第一个结果成功!","tag":""},{"name":"登封市","code":"410185","level":3,"mergeName":"河南省,郑州市,登封市","lng":113.05641959955753,"lat":34.45969746171987,"info":"直接检索POI第一个结果成功!","tag":""},{"name":"嵩阳街道","code":"410185001","level":4,"mergeName":"河南省,郑州市,登封市,嵩阳街道","lng":113.03831488081778,"lat":34.47373480362988,"info":"直接检索POI第一个结果成功!","tag":""},{"name":"少林街道","code":"410185002","level":4,"mergeName":"河南省,郑州市,登封市,少林街道","lng":113.05181452619117,"lat":34.461409855876596,"info":"直接检索POI第一个结果成功!","tag":["行政地标","乡镇"]},{"name":"中岳街道","code":"410185003","level":4,"mergeName":"河南省,郑州市,登封市,中岳街道","lng":113.09435602937995,"lat":34.460051953212336,"info":"直接检索POI第一个结果成功!","tag":["行政地标","乡镇"]},{"name":"大金店镇","code":"410185100","level":4,"mergeName":"河南省,郑州市,登封市,大金店镇","lng":112.97902501037876,"lat":34.375110554941315,"info":"直接检索POI第一个结果成功!","tag":["行政地标","乡镇"]},{"name":"颍阳镇","code":"410185101","level":4,"mergeName":"河南省,郑州市,登封市,颍阳镇","lng":112.76504962603808,"lat":34.419042754702645,"info":"直接检索POI第一个结果成功!","tag":["行政地标","乡镇"]},{"name":"卢店镇","code":"410185102","level":4,"mergeName":"河南省,郑州市,登封市,卢店镇","lng":113.16136683567723,"lat":34.46622264475045,"info":"直接检索POI第一个结果成功!","tag":["行政地标","乡镇"]},{"name":"告成镇","code":"410185103","level":4,"mergeName":"河南省,郑州市,登封市,告成镇","lng":113.15037310335447,"lat":34.40978108230519,"info":"直接检索POI第一个结果成功!","tag":["行政地标","乡镇"]},{"name":"大冶镇","code":"410185105","level":4,"mergeName":"河南省,郑州市,登封市,大冶镇","lng":113.26835017106585,"lat":34.436335625187624,"info":"直接检索POI第一个结果成功!","tag":["行政地标","乡镇"]},{"name":"宣化镇","code":"410185106","level":4,"mergeName":"河南省,郑州市,登封市,宣化镇","lng":113.27229579835733,"lat":34.37341440247616,"info":"直接检索POI第一个结果成功!","tag":["行政地标","乡镇"]},{"name":"徐庄镇","code":"410185107","level":4,"mergeName":"河南省,郑州市,登封市,徐庄镇","lng":113.18253190162837,"lat":34.32656594285251,"info":"直接检索POI第一个结果成功!","tag":["行政地标","乡镇"]},{"name":"东华镇","code":"410185108","level":4,"mergeName":"河南省,郑州市,登封市,东华镇","lng":113.05855011073554,"lat":34.383024084459144,"info":"直接检索POI第一个结果成功!","tag":["行政地标","乡镇"]},{"name":"唐庄镇","code":"410185109","level":4,"mergeName":"河南省,郑州市,登封市,唐庄镇","lng":113.15096391888838,"lat":34.50097568180098,"info":"直接检索POI第一个结果成功!","tag":["行政地标","乡镇"]},{"name":"白坪乡","code":"410185202","level":4,"mergeName":"河南省,郑州市,登封市,白坪乡","lng":113.08228702536175,"lat":34.33245145718632,"info":"直接检索POI第一个结果成功!","tag":["行政地标","乡镇"]},{"name":"君召乡","code":"410185203","level":4,"mergeName":"河南省,郑州市,登封市,君召乡","lng":112.82864184088658,"lat":34.4249592331205,"info":"直接检索POI第一个结果成功!","tag":["行政地标","乡镇"]},{"name":"石道乡","code":"410185204","level":4,"mergeName":"河南省,郑州市,登封市,石道乡","lng":112.8922175269137,"lat":34.36944840932688,"info":"直接检索POI第一个结果成功!","tag":["行政地标","乡镇"]},{"name":"送表矿区","code":"410185400","level":4,"mergeName":"河南省,郑州市,登封市,送表矿区","lng":112.9043180614553,"lat":34.31930459774462,"info":"直接检索POI第一个结果成功!","tag":""},{"name":"开封市","code":"4102","level":2,"mergeName":"河南省,开封市","lng":114.31459527988774,"lat":34.80288521840674,"info":"直接检索POI第一个结果成功!","tag":""},{"name":"龙亭区","code":"410202","level":3,"mergeName":"河南省,开封市,龙亭区","lng":114.3614149630678,"lat":34.822036131089,"info":"直接检索POI第一个结果成功!","tag":""},{"name":"北书店街道","code":"410202001","level":4,"mergeName":"河南省,开封市,龙亭区,北书店街道","lng":114.36255958394861,"lat":34.80584667020183,"info":"直接检索POI第一个结果成功!","tag":["道路"]},{"name":"午朝门街道","code":"410202002","level":4,"mergeName":"河南省,开封市,龙亭区,午朝门街道","lng":114.36114960362016,"lat":34.80636505771633,"info":"直接检索POI第一个结果成功!","tag":["行政地标","乡镇"]},{"name":"大兴街道","code":"410202003","level":4,"mergeName":"河南省,开封市,龙亭区,大兴街道","lng":114.34310246626359,"lat":34.81097623510914,"info":"直接检索POI第一个结果成功!","tag":["行政地标","村庄"]},{"name":"北道门街道","code":"410202005","level":4,"mergeName":"河南省,开封市,龙亭区,北道门街道","lng":114.36484577147151,"lat":34.81761309336527,"info":"直接检索POI第一个结果成功!","tag":["行政地标","村庄"]},{"name":"城西街道","code":"410202006","level":4,"mergeName":"河南省,开封市,龙亭区,城西街道","lng":114.33116165044166,"lat":34.79714948065195,"info":"直接检索POI第一个结果成功!","tag":""},{"name":"梁苑街道","code":"410202007","level":4,"mergeName":"河南省,开封市,龙亭区,梁苑街道","lng":114.34011263603472,"lat":34.808500518755984,"info":"直接检索POI第一个结果成功!","tag":""},{"name":"宋城街道","code":"410202008","level":4,"mergeName":"河南省,开封市,龙亭区,宋城街道","lng":114.35045563584606,"lat":34.818737507955035,"info":"直接检索POI第一个结果成功!","tag":""},{"name":"新城街道","code":"410202009","level":4,"mergeName":"河南省,开封市,龙亭区,新城街道","lng":114.25350295944297,"lat":34.79835999034534,"info":"直接检索POI第一个结果成功!","tag":""},{"name":"杏花营镇","code":"410202100","level":4,"mergeName":"河南省,开封市,龙亭区,杏花营镇","lng":114.2674298389169,"lat":34.779977801412585,"info":"直接检索POI第一个结果成功!","tag":["政府机构","各级政府","乡镇级政府"]},{"name":"北郊乡","code":"410202201","level":4,"mergeName":"河南省,开封市,龙亭区,北郊乡","lng":114.3694951312995,"lat":34.830334069853095,"info":"直接检索POI第一个结果成功!","tag":["行政地标","乡镇"]},{"name":"柳园口乡","code":"410202202","level":4,"mergeName":"河南省,开封市,龙亭区,柳园口乡","lng":114.36999773323232,"lat":34.865967073602704,"info":"直接检索POI第一个结果成功!","tag":["行政地标","乡镇"]},{"name":"西郊乡","code":"410202203","level":4,"mergeName":"河南省,开封市,龙亭区,西郊乡","lng":114.32778240477423,"lat":34.80804616371362,"info":"直接检索POI第一个结果成功!","tag":""},{"name":"水稻乡","code":"410202204","level":4,"mergeName":"河南省,开封市,龙亭区,水稻乡","lng":114.30978188947363,"lat":34.877648351863506,"info":"直接检索POI第一个结果成功!","tag":["行政地标","乡镇"]},{"name":"杏花营农场","code":"410202400","level":4,"mergeName":"河南省,开封市,龙亭区,杏花营农场","lng":114.18058920797851,"lat":34.75608120341704,"info":"直接检索POI第一个结果成功!","tag":["行政地标","乡镇"]},{"name":"顺河回族区","code":"410203","level":3,"mergeName":"河南省,开封市,顺河回族区","lng":114.34733438352109,"lat":34.82978064832529,"info":"直接检索POI第一个结果成功!","tag":""},{"name":"清平街道","code":"410203001","level":4,"mergeName":"河南省,开封市,顺河回族区,清平街道","lng":114.36900339886334,"lat":34.802087595410725,"info":"直接检索POI第一个结果成功!","tag":""},{"name":"铁塔街道","code":"410203002","level":4,"mergeName":"河南省,开封市,顺河回族区,铁塔街道","lng":114.36890548356274,"lat":34.815676873972244,"info":"直接检索POI第一个结果成功!","tag":["行政地标","乡镇"]},{"name":"曹门街道","code":"410203003","level":4,"mergeName":"河南省,开封市,顺河回族区,曹门街道","lng":114.37841997620222,"lat":34.806492949841825,"info":"直接检索POI第一个结果成功!","tag":["名称标注类"]},{"name":"宋门街道","code":"410203004","level":4,"mergeName":"河南省,开封市,顺河回族区,宋门街道","lng":114.3831445242014,"lat":34.7971271747954,"info":"直接检索POI第一个结果成功!","tag":["行政地标","乡镇"]},{"name":"工业街道","code":"410203005","level":4,"mergeName":"河南省,开封市,顺河回族区,工业街道","lng":114.39788652609509,"lat":34.79434267429453,"info":"直接检索POI第一个结果成功!","tag":["行政地标","村庄"]},{"name":"苹果园街道","code":"410203006","level":4,"mergeName":"河南省,开封市,顺河回族区,苹果园街道","lng":114.38387026522292,"lat":34.81348706963918,"info":"直接检索POI第一个结果成功!","tag":""},{"name":"东郊乡","code":"410203200","level":4,"mergeName":"河南省,开封市,顺河回族区,东郊乡","lng":114.40178355505849,"lat":34.80093516314552,"info":"直接检索POI第一个结果成功!","tag":["行政地标","乡镇"]},{"name":"土柏岗乡","code":"410203201","level":4,"mergeName":"河南省,开封市,顺河回族区,土柏岗乡","lng":114.45434385960006,"lat":34.80788159646427,"info":"直接检索POI第一个结果成功!","tag":["行政地标","乡镇"]},{"name":"鼓楼区","code":"410204","level":3,"mergeName":"河南省,开封市,鼓楼区","lng":114.3544048563596,"lat":34.79487425191384,"info":"直接检索POI第一个结果成功!","tag":""},{"name":"相国寺街道","code":"410204001","level":4,"mergeName":"河南省,开封市,鼓楼区,相国寺街道","lng":114.35406341043523,"lat":34.79141978784712,"info":"直接检索POI第一个结果成功!","tag":""},{"name":"新华街道","code":"410204002","level":4,"mergeName":"河南省,开封市,鼓楼区,新华街道","lng":114.36061717794438,"lat":34.791659536652894,"info":"直接检索POI第一个结果成功!","tag":""},{"name":"卧龙街道","code":"410204003","level":4,"mergeName":"河南省,开封市,鼓楼区,卧龙街道","lng":114.36508193599009,"lat":34.79085795025481,"info":"直接检索POI第一个结果成功!","tag":""},{"name":"州桥街道","code":"410204004","level":4,"mergeName":"河南省,开封市,鼓楼区,州桥街道","lng":114.35622302671177,"lat":34.79776589058404,"info":"直接检索POI第一个结果成功!","tag":""},{"name":"西司门街道","code":"410204005","level":4,"mergeName":"河南省,开封市,鼓楼区,西司门街道","lng":114.34849885695368,"lat":34.800477801904094,"info":"直接检索POI第一个结果成功!","tag":""},{"name":"南苑街道","code":"410204006","level":4,"mergeName":"河南省,开封市,鼓楼区,南苑街道","lng":114.32271021254267,"lat":34.77230691457593,"info":"直接检索POI第一个结果成功!","tag":["行政地标","乡镇"]},{"name":"五一街道","code":"410204007","level":4,"mergeName":"河南省,开封市,鼓楼区,五一街道","lng":114.3005868342735,"lat":34.76167154728331,"info":"直接检索POI第一个结果成功!","tag":""},{"name":"仙人庄街道","code":"410204008","level":4,"mergeName":"河南省,开封市,鼓楼区,仙人庄街道","lng":114.31478338506153,"lat":34.711703677367986,"info":"直接检索POI第一个结果成功!","tag":["行政地标","乡镇"]},{"name":"禹王台区","code":"410205","level":3,"mergeName":"河南省,开封市,禹王台区","lng":114.35439775974605,"lat":34.78347210591688,"info":"直接检索POI第一个结果成功!","tag":""},{"name":"三里堡街道","code":"410205001","level":4,"mergeName":"河南省,开封市,禹王台区,三里堡街道","lng":114.35026573406125,"lat":34.78246994719012,"info":"直接检索POI第一个结果成功!","tag":""},{"name":"新门关街道","code":"410205002","level":4,"mergeName":"河南省,开封市,禹王台区,新门关街道","lng":114.3619599650207,"lat":34.78449463461779,"info":"直接检索POI第一个结果成功!","tag":""},{"name":"繁塔街道","code":"410205003","level":4,"mergeName":"河南省,开封市,禹王台区,繁塔街道","lng":114.3712293100865,"lat":34.776247779333396,"info":"直接检索POI第一个结果成功!","tag":""},{"name":"官坊街道","code":"410205004","level":4,"mergeName":"河南省,开封市,禹王台区,官坊街道","lng":114.35853813967209,"lat":34.777256611361935,"info":"直接检索POI第一个结果成功!","tag":""},{"name":"菜市街道","code":"410205005","level":4,"mergeName":"河南省,开封市,禹王台区,菜市街道","lng":114.35670900999268,"lat":34.78347247650803,"info":"直接检索POI第一个结果成功!","tag":["行政地标","村庄"]},{"name":"南郊乡","code":"410205200","level":4,"mergeName":"河南省,开封市,禹王台区,南郊乡","lng":114.36713824713296,"lat":34.76833746735923,"info":"直接检索POI第一个结果成功!","tag":["行政地标","乡镇"]},{"name":"汪屯乡","code":"410205201","level":4,"mergeName":"河南省,开封市,禹王台区,汪屯乡","lng":114.42122099985285,"lat":34.755187478115694,"info":"直接检索POI第一个结果成功!","tag":["行政地标","乡镇"]},{"name":"祥符区","code":"410212","level":3,"mergeName":"河南省,开封市,祥符区","lng":114.4475325479012,"lat":34.76273957222411,"info":"直接检索POI第一个结果成功!","tag":""},{"name":"城关镇","code":"410212100","level":4,"mergeName":"河南省,开封市,祥符区,城关镇","lng":114.42976990389965,"lat":34.75977752207677,"info":"直接检索POI第一个结果成功!","tag":["行政地标","乡镇"]},{"name":"陈留镇","code":"410212101","level":4,"mergeName":"河南省,开封市,祥符区,陈留镇","lng":114.53991805943048,"lat":34.67572417933914,"info":"直接检索POI第一个结果成功!","tag":["行政地标","乡镇"]},{"name":"仇楼镇","code":"410212102","level":4,"mergeName":"河南省,开封市,祥符区,仇楼镇","lng":114.60522388186982,"lat":34.63978941287522,"info":"直接检索POI第一个结果成功!","tag":["行政地标","乡镇"]},{"name":"八里湾镇","code":"410212103","level":4,"mergeName":"河南省,开封市,祥符区,八里湾镇","lng":114.59211985024301,"lat":34.75019062202025,"info":"直接检索POI第一个结果成功!","tag":["行政地标","乡镇"]},{"name":"曲兴镇","code":"410212104","level":4,"mergeName":"河南省,开封市,祥符区,曲兴镇","lng":114.68693950021266,"lat":34.83404962301442,"info":"直接检索POI第一个结果成功!","tag":["行政地标","乡镇"]},{"name":"朱仙镇","code":"410212106","level":4,"mergeName":"河南省,开封市,祥符区,朱仙镇","lng":114.2735385858764,"lat":34.62139405049756,"info":"直接检索POI第一个结果成功!","tag":["行政地标","乡镇"]},{"name":"罗王镇","code":"410212107","level":4,"mergeName":"河南省,开封市,祥符区,罗王镇","lng":114.6990106601641,"lat":34.80039376927827,"info":"直接检索POI第一个结果成功!","tag":["行政地标","乡镇"]},{"name":"半坡店乡","code":"410212200","level":4,"mergeName":"河南省,开封市,祥符区,半坡店乡","lng":114.5163823652385,"lat":34.633059792835226,"info":"直接检索POI第一个结果成功!","tag":["行政地标","乡镇"]},{"name":"刘店乡","code":"410212203","level":4,"mergeName":"河南省,开封市,祥符区,刘店乡","lng":114.62610059175225,"lat":34.87169545821754,"info":"直接检索POI第一个结果成功!","tag":["行政地标","乡镇"]},{"name":"袁坊乡","code":"410212204","level":4,"mergeName":"河南省,开封市,祥符区,袁坊乡","lng":114.5149779544042,"lat":34.86975593186859,"info":"直接检索POI第一个结果成功!","tag":["行政地标","乡镇"]},{"name":"杜良乡","code":"410212205","level":4,"mergeName":"河南省,开封市,祥符区,杜良乡","lng":114.56916733598811,"lat":34.81404289845536,"info":"直接检索POI第一个结果成功!","tag":["行政地标","乡镇"]},{"name":"兴隆乡","code":"410212206","level":4,"mergeName":"河南省,开封市,祥符区,兴隆乡","lng":114.51981892279748,"lat":34.77749477099378,"info":"直接检索POI第一个结果成功!","tag":["行政地标","乡镇"]},{"name":"西姜寨乡","code":"410212208","level":4,"mergeName":"河南省,开封市,祥符区,西姜寨乡","lng":114.23066075710469,"lat":34.63524974754684,"info":"直接检索POI第一个结果成功!","tag":["行政地标","乡镇"]},{"name":"万隆乡","code":"410212210","level":4,"mergeName":"河南省,开封市,祥符区,万隆乡","lng":114.44176731296872,"lat":34.609193947865414,"info":"直接检索POI第一个结果成功!","tag":["行政地标","乡镇"]},{"name":"范村乡","code":"410212211","level":4,"mergeName":"河南省,开封市,祥符区,范村乡","lng":114.41428275758543,"lat":34.68531541715265,"info":"直接检索POI第一个结果成功!","tag":["行政地标","乡镇"]},{"name":"杞县","code":"410221","level":3,"mergeName":"河南省,开封市,杞县","lng":114.7895922843988,"lat":34.5548566320371,"info":"直接检索POI第一个结果成功!","tag":""},{"name":"金城街道","code":"410221001","level":4,"mergeName":"河南省,开封市,杞县,金城街道","lng":114.75540223770571,"lat":34.55649243338172,"info":"直接检索POI第一个结果成功!","tag":["道路"]},{"name":"五里河镇","code":"410221101","level":4,"mergeName":"河南省,开封市,杞县,五里河镇","lng":114.79795775446046,"lat":34.52861962016995,"info":"直接检索POI第一个结果成功!","tag":["行政地标","乡镇"]},{"name":"傅集镇","code":"410221102","level":4,"mergeName":"河南省,开封市,杞县,傅集镇","lng":114.81293268697289,"lat":34.406030971675854,"info":"直接检索POI第一个结果成功!","tag":["行政地标","乡镇"]},{"name":"圉镇镇","code":"410221103","level":4,"mergeName":"河南省,开封市,杞县,圉镇镇","lng":114.71929448840996,"lat":34.33735363515767,"info":"直接检索POI第一个结果成功!","tag":["行政地标","乡镇"]},{"name":"高阳镇","code":"410221104","level":4,"mergeName":"河南省,开封市,杞县,高阳镇","lng":114.69038692726832,"lat":34.501672335298124,"info":"直接检索POI第一个结果成功!","tag":["行政地标","乡镇"]},{"name":"葛岗镇","code":"410221105","level":4,"mergeName":"河南省,开封市,杞县,葛岗镇","lng":114.68495738910491,"lat":34.589068730593915,"info":"直接检索POI第一个结果成功!","tag":["行政地标","乡镇"]},{"name":"阳堌镇","code":"410221106","level":4,"mergeName":"河南省,开封市,杞县,阳堌镇","lng":114.81222024087293,"lat":34.706807807711286,"info":"直接检索POI第一个结果成功!","tag":["行政地标","乡镇"]},{"name":"邢口镇","code":"410221107","level":4,"mergeName":"河南省,开封市,杞县,邢口镇","lng":114.80755965222606,"lat":34.45987746084344,"info":"直接检索POI第一个结果成功!","tag":["行政地标","乡镇"]},{"name":"裴村店乡","code":"410221200","level":4,"mergeName":"河南省,开封市,杞县,裴村店乡","lng":114.88777168680632,"lat":34.511787242640914,"info":"直接检索POI第一个结果成功!","tag":["行政地标","乡镇"]},{"name":"宗店乡","code":"410221202","level":4,"mergeName":"河南省,开封市,杞县,宗店乡","lng":114.84896219385874,"lat":34.3074666586862,"info":"直接检索POI第一个结果成功!","tag":["行政地标","乡镇"]},{"name":"板木乡","code":"410221203","level":4,"mergeName":"河南省,开封市,杞县,板木乡","lng":114.7966020317848,"lat":34.3051870457173,"info":"直接检索POI第一个结果成功!","tag":["行政地标","乡镇"]},{"name":"竹林乡","code":"410221204","level":4,"mergeName":"河南省,开封市,杞县,竹林乡","lng":114.72735812782028,"lat":34.26567397570495,"info":"直接检索POI第一个结果成功!","tag":["行政地标","乡镇"]},{"name":"官庄乡","code":"410221205","level":4,"mergeName":"河南省,开封市,杞县,官庄乡","lng":114.66361400951003,"lat":34.30298490369073,"info":"直接检索POI第一个结果成功!","tag":["行政地标","乡镇"]},{"name":"湖岗乡","code":"410221206","level":4,"mergeName":"河南省,开封市,杞县,湖岗乡","lng":114.70047840153684,"lat":34.396708643748184,"info":"直接检索POI第一个结果成功!","tag":["行政地标","乡镇"]},{"name":"苏木乡","code":"410221207","level":4,"mergeName":"河南省,开封市,杞县,苏木乡","lng":114.75020482168608,"lat":34.454473521595695,"info":"直接检索POI第一个结果成功!","tag":["行政地标","乡镇"]},{"name":"沙沃乡","code":"410221208","level":4,"mergeName":"河南省,开封市,杞县,沙沃乡","lng":114.65953992453063,"lat":34.44944043647918,"info":"直接检索POI第一个结果成功!","tag":["行政地标","乡镇"]},{"name":"平城乡","code":"410221209","level":4,"mergeName":"河南省,开封市,杞县,平城乡","lng":114.69976954865892,"lat":34.672355306623466,"info":"直接检索POI第一个结果成功!","tag":["名称标注类"]},{"name":"泥沟乡","code":"410221210","level":4,"mergeName":"河南省,开封市,杞县,泥沟乡","lng":114.73273008460049,"lat":34.720981176808884,"info":"直接检索POI第一个结果成功!","tag":["行政地标","乡镇"]},{"name":"柿园乡","code":"410221211","level":4,"mergeName":"河南省,开封市,杞县,柿园乡","lng":114.80867283241403,"lat":34.63504956287799,"info":"直接检索POI第一个结果成功!","tag":["行政地标","乡镇"]},{"name":"西寨乡","code":"410221212","level":4,"mergeName":"河南省,开封市,杞县,西寨乡","lng":114.8827777369847,"lat":34.644174250906495,"info":"直接检索POI第一个结果成功!","tag":["行政地标","乡镇"]},{"name":"城郊乡","code":"410221213","level":4,"mergeName":"河南省,开封市,杞县,城郊乡","lng":114.7646901776956,"lat":34.57318981196718,"info":"直接检索POI第一个结果成功!","tag":["行政地标","乡镇"]},{"name":"工业园区","code":"410221401","level":4,"mergeName":"河南省,开封市,杞县,工业园区","lng":114.0887619933237,"lat":34.43255403941944,"info":"直接检索POI第一个结果成功!","tag":""},{"name":"通许县","code":"410222","level":3,"mergeName":"河南省,开封市,通许县","lng":114.47343366016204,"lat":34.4867710587919,"info":"直接检索POI第一个结果成功!","tag":""},{"name":"咸平街道","code":"410222001","level":4,"mergeName":"河南省,开封市,通许县,咸平街道","lng":114.49253163530418,"lat":34.49275521774176,"info":"直接检索POI第一个结果成功!","tag":""},{"name":"竖岗镇","code":"410222101","level":4,"mergeName":"河南省,开封市,通许县,竖岗镇","lng":114.35452666658674,"lat":34.44702897472882,"info":"直接检索POI第一个结果成功!","tag":["行政地标","乡镇"]},{"name":"玉皇庙镇","code":"410222102","level":4,"mergeName":"河南省,开封市,通许县,玉皇庙镇","lng":114.57448880799866,"lat":34.33423601131808,"info":"直接检索POI第一个结果成功!","tag":["行政地标","乡镇"]},{"name":"四所楼镇","code":"410222103","level":4,"mergeName":"河南省,开封市,通许县,四所楼镇","lng":114.58105236703787,"lat":34.43162776462382,"info":"直接检索POI第一个结果成功!","tag":["行政地标","乡镇"]},{"name":"朱砂镇","code":"410222104","level":4,"mergeName":"河南省,开封市,通许县,朱砂镇","lng":114.54054229192936,"lat":34.524858611229455,"info":"直接检索POI第一个结果成功!","tag":["行政地标","乡镇"]},{"name":"长智镇","code":"410222105","level":4,"mergeName":"河南省,开封市,通许县,长智镇","lng":114.57572325943048,"lat":34.476941369823415,"info":"直接检索POI第一个结果成功!","tag":["行政地标","乡镇"]},{"name":"冯庄乡","code":"410222200","level":4,"mergeName":"河南省,开封市,通许县,冯庄乡","lng":114.47651161416144,"lat":34.54196299709066,"info":"直接检索POI第一个结果成功!","tag":["行政地标","乡镇"]},{"name":"孙营乡","code":"410222201","level":4,"mergeName":"河南省,开封市,通许县,孙营乡","lng":114.37238632758336,"lat":34.50150782237276,"info":"直接检索POI第一个结果成功!","tag":["行政地标","乡镇"]},{"name":"大岗李乡","code":"410222202","level":4,"mergeName":"河南省,开封市,通许县,大岗李乡","lng":114.42605073942725,"lat":34.38812622225046,"info":"直接检索POI第一个结果成功!","tag":["行政地标","乡镇"]},{"name":"邸阁乡","code":"410222203","level":4,"mergeName":"河南省,开封市,通许县,邸阁乡","lng":114.4734973500227,"lat":34.3639228769501,"info":"直接检索POI第一个结果成功!","tag":["行政地标","乡镇"]},{"name":"练城乡","code":"410222204","level":4,"mergeName":"河南省,开封市,通许县,练城乡","lng":114.56501545775154,"lat":34.37896663836835,"info":"直接检索POI第一个结果成功!","tag":["行政地标","乡镇"]},{"name":"厉庄乡","code":"410222205","level":4,"mergeName":"河南省,开封市,通许县,厉庄乡","lng":114.47678164479773,"lat":34.44850132697836,"info":"直接检索POI第一个结果成功!","tag":["行政地标","乡镇"]},{"name":"尉氏县","code":"410223","level":3,"mergeName":"河南省,开封市,尉氏县","lng":114.19955827627997,"lat":34.41722786145589,"info":"直接检索POI第一个结果成功!","tag":""},{"name":"两湖街道","code":"410223001","level":4,"mergeName":"河南省,开封市,尉氏县,两湖街道","lng":114.2101674440139,"lat":34.41645641928143,"info":"直接检索POI第一个结果成功!","tag":""},{"name":"洧川镇","code":"410223101","level":4,"mergeName":"河南省,开封市,尉氏县,洧川镇","lng":113.99564373398994,"lat":34.294503514417514,"info":"直接检索POI第一个结果成功!","tag":["行政地标","乡镇"]},{"name":"朱曲镇","code":"410223102","level":4,"mergeName":"河南省,开封市,尉氏县,朱曲镇","lng":114.07280835695813,"lat":34.29647020607057,"info":"直接检索POI第一个结果成功!","tag":["行政地标","乡镇"]},{"name":"蔡庄镇","code":"410223103","level":4,"mergeName":"河南省,开封市,尉氏县,蔡庄镇","lng":114.15456898040705,"lat":34.277431054667346,"info":"直接检索POI第一个结果成功!","tag":["行政地标","乡镇"]},{"name":"永兴镇","code":"410223104","level":4,"mergeName":"河南省,开封市,尉氏县,永兴镇","lng":114.35771843589424,"lat":34.29758266582362,"info":"直接检索POI第一个结果成功!","tag":["行政地标","乡镇"]},{"name":"张市镇","code":"410223105","level":4,"mergeName":"河南省,开封市,尉氏县,张市镇","lng":114.29746055143768,"lat":34.35417150927438,"info":"直接检索POI第一个结果成功!","tag":["行政地标","乡镇"]},{"name":"十八里镇","code":"410223106","level":4,"mergeName":"河南省,开封市,尉氏县,十八里镇","lng":114.29555829968973,"lat":34.43708008709404,"info":"直接检索POI第一个结果成功!","tag":["行政地标","乡镇"]},{"name":"水坡镇","code":"410223107","level":4,"mergeName":"河南省,开封市,尉氏县,水坡镇","lng":114.27378121819466,"lat":34.50015028073949,"info":"直接检索POI第一个结果成功!","tag":["行政地标","乡镇"]},{"name":"大营镇","code":"410223108","level":4,"mergeName":"河南省,开封市,尉氏县,大营镇","lng":114.05163888931,"lat":34.42937262477926,"info":"直接检索POI第一个结果成功!","tag":["行政地标","乡镇"]},{"name":"庄头镇","code":"410223109","level":4,"mergeName":"河南省,开封市,尉氏县,庄头镇","lng":114.1813749558081,"lat":34.52266571930401,"info":"直接检索POI第一个结果成功!","tag":["行政地标","乡镇"]},{"name":"邢庄乡","code":"410223200","level":4,"mergeName":"河南省,开封市,尉氏县,邢庄乡","lng":114.17970707196773,"lat":34.44593957795534,"info":"直接检索POI第一个结果成功!","tag":["行政地标","乡镇"]},{"name":"大马乡","code":"410223203","level":4,"mergeName":"河南省,开封市,尉氏县,大马乡","lng":114.01479758373479,"lat":34.37477283185763,"info":"直接检索POI第一个结果成功!","tag":["行政地标","乡镇"]},{"name":"岗李乡","code":"410223204","level":4,"mergeName":"河南省,开封市,尉氏县,岗李乡","lng":113.92864200057831,"lat":34.37396144169013,"info":"直接检索POI第一个结果成功!","tag":["行政地标","乡镇"]},{"name":"门楼任乡","code":"410223205","level":4,"mergeName":"河南省,开封市,尉氏县,门楼任乡","lng":114.11036390524434,"lat":34.37262169573559,"info":"直接检索POI第一个结果成功!","tag":["行政地标","乡镇"]},{"name":"大桥乡","code":"410223206","level":4,"mergeName":"河南省,开封市,尉氏县,大桥乡","lng":114.16239537733217,"lat":34.40456143838597,"info":"直接检索POI第一个结果成功!","tag":["行政地标","乡镇"]},{"name":"南曹乡","code":"410223207","level":4,"mergeName":"河南省,开封市,尉氏县,南曹乡","lng":114.21697821672946,"lat":34.2965332068358,"info":"直接检索POI第一个结果成功!","tag":["行政地标","乡镇"]},{"name":"小陈乡","code":"410223208","level":4,"mergeName":"河南省,开封市,尉氏县,小陈乡","lng":114.2669660437821,"lat":34.32123172144848,"info":"直接检索POI第一个结果成功!","tag":["行政地标","乡镇"]},{"name":"兰考县","code":"410225","level":3,"mergeName":"河南省,开封市,兰考县","lng":114.82523704703472,"lat":34.862210841892356,"info":"直接检索POI第一个结果成功!","tag":""},{"name":"兰阳街道","code":"410225001","level":4,"mergeName":"河南省,开封市,兰考县,兰阳街道","lng":114.82722329034782,"lat":34.83892973315723,"info":"直接检索POI第一个结果成功!","tag":""},{"name":"桐乡街道","code":"410225002","level":4,"mergeName":"河南省,开封市,兰考县,桐乡街道","lng":114.81875676091627,"lat":34.837706196194205,"info":"直接检索POI第一个结果成功!","tag":["行政地标","乡镇"]},{"name":"惠安街道","code":"410225003","level":4,"mergeName":"河南省,开封市,兰考县,惠安街道","lng":114.82121263835,"lat":34.800695515659484,"info":"直接检索POI第一个结果成功!","tag":""},{"name":"堌阳镇","code":"410225101","level":4,"mergeName":"河南省,开封市,兰考县,堌阳镇","lng":114.96854309622763,"lat":34.96466792864526,"info":"直接检索POI第一个结果成功!","tag":["行政地标","乡镇"]},{"name":"南彰镇","code":"410225102","level":4,"mergeName":"河南省,开封市,兰考县,南彰镇","lng":115.14802786085163,"lat":34.940599504073774,"info":"直接检索POI第一个结果成功!","tag":["行政地标","乡镇"]},{"name":"考城镇","code":"410225103","level":4,"mergeName":"河南省,开封市,兰考县,考城镇","lng":115.14255268876832,"lat":34.8547254070432,"info":"直接检索POI第一个结果成功!","tag":""},{"name":"红庙镇","code":"410225104","level":4,"mergeName":"河南省,开封市,兰考县,红庙镇","lng":114.93668019978873,"lat":34.864813544075346,"info":"直接检索POI第一个结果成功!","tag":["行政地标","乡镇"]},{"name":"谷营镇","code":"410225105","level":4,"mergeName":"河南省,开封市,兰考县,谷营镇","lng":114.89089033404531,"lat":34.95227110833845,"info":"直接检索POI第一个结果成功!","tag":["行政地标","乡镇"]},{"name":"东坝头镇","code":"410225106","level":4,"mergeName":"河南省,开封市,兰考县,东坝头镇","lng":114.80002709103324,"lat":34.9329696111468,"info":"直接检索POI第一个结果成功!","tag":["行政地标","乡镇"]},{"name":"小宋镇","code":"410225107","level":4,"mergeName":"河南省,开封市,兰考县,小宋镇","lng":115.0876573288841,"lat":34.92814492629739,"info":"直接检索POI第一个结果成功!","tag":["行政地标","乡镇"]},{"name":"仪封镇","code":"410225108","level":4,"mergeName":"河南省,开封市,兰考县,仪封镇","lng":114.9555258409131,"lat":34.82155436632486,"info":"直接检索POI第一个结果成功!","tag":["行政地标","乡镇"]},{"name":"三义寨乡","code":"410225201","level":4,"mergeName":"河南省,开封市,兰考县,三义寨乡","lng":114.7618868356906,"lat":34.829701534889,"info":"直接检索POI第一个结果成功!","tag":["行政地标","乡镇"]},{"name":"孟寨乡","code":"410225206","level":4,"mergeName":"河南省,开封市,兰考县,孟寨乡","lng":115.06685472920624,"lat":34.976741576688575,"info":"直接检索POI第一个结果成功!","tag":["行政地标","乡镇"]},{"name":"许河乡","code":"410225207","level":4,"mergeName":"河南省,开封市,兰考县,许河乡","lng":115.23249723473532,"lat":34.8778879214439,"info":"直接检索POI第一个结果成功!","tag":["行政地标","乡镇"]},{"name":"葡萄架乡","code":"410225208","level":4,"mergeName":"河南省,开封市,兰考县,葡萄架乡","lng":115.03152140909063,"lat":34.854939273454576,"info":"直接检索POI第一个结果成功!","tag":["行政地标","乡镇"]},{"name":"阎楼乡","code":"410225209","level":4,"mergeName":"河南省,开封市,兰考县,阎楼乡","lng":114.6804873310567,"lat":34.76369571183571,"info":"直接检索POI第一个结果成功!","tag":["名称标注类"]},{"name":"中原石油勘探三公司","code":"410225400","level":4,"mergeName":"河南省,开封市,兰考县,中原石油勘探三公司","lng":114.4036297525426,"lat":34.799662444654956,"info":"直接检索POI第一个结果成功!","tag":""},{"name":"仪封园艺场","code":"410225401","level":4,"mergeName":"河南省,开封市,兰考县,仪封园艺场","lng":114.96295294103905,"lat":34.826564269748,"info":"直接检索POI第一个结果成功!","tag":["名称标注类"]},{"name":"造纸林场","code":"410225402","level":4,"mergeName":"河南省,开封市,兰考县,造纸林场","lng":114.90738088761418,"lat":34.802245505226814,"info":"直接检索POI第一个结果成功!","tag":""},{"name":"柳林林场","code":"410225403","level":4,"mergeName":"河南省,开封市,兰考县,柳林林场","lng":114.88544732129925,"lat":34.79070972705649,"info":"直接检索POI第一个结果成功!","tag":""},{"name":"西关农场","code":"410225404","level":4,"mergeName":"河南省,开封市,兰考县,西关农场","lng":114.80084993888039,"lat":34.83446820473262,"info":"直接检索POI第一个结果成功!","tag":""},{"name":"畜牧良种农场","code":"410225405","level":4,"mergeName":"河南省,开封市,兰考县,畜牧良种农场","lng":114.40447856141897,"lat":34.388971508620294,"info":"直接检索POI第一个结果成功!","tag":""},{"name":"固阳农科所","code":"410225406","level":4,"mergeName":"河南省,开封市,兰考县,固阳农科所","lng":114.362032727767,"lat":34.82757899943036,"info":"直接检索POI第一个结果成功!","tag":["交通设施","公交车站","公交车站主点"]},{"name":"洛阳市","code":"4103","level":2,"mergeName":"河南省,洛阳市","lng":112.45942372373638,"lat":34.62426359610481,"info":"直接检索POI第一个结果成功!","tag":""},{"name":"老城区","code":"410302","level":3,"mergeName":"河南省,洛阳市,老城区","lng":112.47650051148106,"lat":34.68960143451322,"info":"直接检索POI第一个结果成功!","tag":""},{"name":"西关街道","code":"410302001","level":4,"mergeName":"河南省,洛阳市,老城区,西关街道","lng":112.47506052774855,"lat":34.68699351991212,"info":"直接检索POI第一个结果成功!","tag":""},{"name":"西南隅街道","code":"410302002","level":4,"mergeName":"河南省,洛阳市,老城区,西南隅街道","lng":112.48003911654597,"lat":34.685097841573885,"info":"直接检索POI第一个结果成功!","tag":["行政地标","乡镇"]},{"name":"西北隅街道","code":"410302003","level":4,"mergeName":"河南省,洛阳市,老城区,西北隅街道","lng":112.4844667745741,"lat":34.69186489915393,"info":"直接检索POI第一个结果成功!","tag":["行政地标","乡镇"]},{"name":"东南隅街道","code":"410302004","level":4,"mergeName":"河南省,洛阳市,老城区,东南隅街道","lng":112.48661273660687,"lat":34.68739690059982,"info":"直接检索POI第一个结果成功!","tag":""},{"name":"东北隅街道","code":"410302005","level":4,"mergeName":"河南省,洛阳市,老城区,东北隅街道","lng":112.48928205142977,"lat":34.691645337508795,"info":"直接检索POI第一个结果成功!","tag":["行政地标","村庄"]},{"name":"南关街道","code":"410302006","level":4,"mergeName":"河南省,洛阳市,老城区,南关街道","lng":112.4859081955954,"lat":34.68408557325328,"info":"直接检索POI第一个结果成功!","tag":["行政地标","乡镇"]},{"name":"洛浦街道","code":"410302007","level":4,"mergeName":"河南省,洛阳市,老城区,洛浦街道","lng":112.47702736766266,"lat":34.678212226302534,"info":"直接检索POI第一个结果成功!","tag":["行政地标","村庄"]},{"name":"邙山街道","code":"410302008","level":4,"mergeName":"河南省,洛阳市,老城区,邙山街道","lng":112.42895364999069,"lat":34.72490055627347,"info":"直接检索POI第一个结果成功!","tag":["行政地标","乡镇"]},{"name":"道北路街道","code":"410302009","level":4,"mergeName":"河南省,洛阳市,老城区,道北路街道","lng":112.44862618133699,"lat":34.69401841231311,"info":"直接检索POI第一个结果成功!","tag":["行政地标","乡镇"]},{"name":"西工区","code":"410303","level":3,"mergeName":"河南省,洛阳市,西工区","lng":112.4343969322284,"lat":34.6667677732888,"info":"直接检索POI第一个结果成功!","tag":""},{"name":"王城路街道","code":"410303001","level":4,"mergeName":"河南省,洛阳市,西工区,王城路街道","lng":112.4332902198401,"lat":34.669785290409116,"info":"直接检索POI第一个结果成功!","tag":""},{"name":"金谷园路街道","code":"410303002","level":4,"mergeName":"河南省,洛阳市,西工区,金谷园路街道","lng":112.44635580399107,"lat":34.68625324143685,"info":"直接检索POI第一个结果成功!","tag":["道路"]},{"name":"西工街道","code":"410303003","level":4,"mergeName":"河南省,洛阳市,西工区,西工街道","lng":112.45492653686176,"lat":34.67643323402498,"info":"直接检索POI第一个结果成功!","tag":["行政地标","乡镇"]},{"name":"邙岭路街道","code":"410303004","level":4,"mergeName":"河南省,洛阳市,西工区,邙岭路街道","lng":112.42963869777259,"lat":34.70501370743855,"info":"直接检索POI第一个结果成功!","tag":["行政地标","乡镇"]},{"name":"唐宫路街道","code":"410303006","level":4,"mergeName":"河南省,洛阳市,西工区,唐宫路街道","lng":112.44593297158752,"lat":34.68023904752104,"info":"直接检索POI第一个结果成功!","tag":""},{"name":"汉屯路街道","code":"410303007","level":4,"mergeName":"河南省,洛阳市,西工区,汉屯路街道","lng":112.43205343281396,"lat":34.67741487205314,"info":"直接检索POI第一个结果成功!","tag":["道路","乡道"]},{"name":"凯旋东路街道","code":"410303008","level":4,"mergeName":"河南省,洛阳市,西工区,凯旋东路街道","lng":112.45458850449837,"lat":34.677306444932185,"info":"直接检索POI第一个结果成功!","tag":["道路","乡道"]},{"name":"洛北街道","code":"410303009","level":4,"mergeName":"河南省,洛阳市,西工区,洛北街道","lng":112.46004903420186,"lat":34.6725810058238,"info":"直接检索POI第一个结果成功!","tag":["行政地标","乡镇"]},{"name":"红山街道","code":"410303010","level":4,"mergeName":"河南省,洛阳市,西工区,红山街道","lng":112.37493063458722,"lat":34.70368860159515,"info":"直接检索POI第一个结果成功!","tag":["行政地标","乡镇"]},{"name":"瀍河回族区","code":"410304","level":3,"mergeName":"河南省,洛阳市,瀍河回族区","lng":112.50660272912042,"lat":34.68546264395638,"info":"直接检索POI第一个结果成功!","tag":""},{"name":"东关街道","code":"410304001","level":4,"mergeName":"河南省,洛阳市,瀍河回族区,东关街道","lng":112.49884118985311,"lat":34.69242593250942,"info":"直接检索POI第一个结果成功!","tag":["行政地标","村庄"]},{"name":"瀍西街道","code":"410304002","level":4,"mergeName":"河南省,洛阳市,瀍河回族区,瀍西街道","lng":112.49269956491193,"lat":34.69863154684368,"info":"直接检索POI第一个结果成功!","tag":""},{"name":"五股路街道","code":"410304003","level":4,"mergeName":"河南省,洛阳市,瀍河回族区,五股路街道","lng":112.48726005555737,"lat":34.70341988315722,"info":"直接检索POI第一个结果成功!","tag":["道路","省道"]},{"name":"北窑街道","code":"410304004","level":4,"mergeName":"河南省,洛阳市,瀍河回族区,北窑街道","lng":112.49846677611656,"lat":34.70294832542598,"info":"直接检索POI第一个结果成功!","tag":["行政地标","乡镇"]},{"name":"塔湾街道","code":"410304005","level":4,"mergeName":"河南省,洛阳市,瀍河回族区,塔湾街道","lng":112.52144597004508,"lat":34.70119383382461,"info":"直接检索POI第一个结果成功!","tag":""},{"name":"杨文街道","code":"410304006","level":4,"mergeName":"河南省,洛阳市,瀍河回族区,杨文街道","lng":112.53116770176572,"lat":34.73184024839993,"info":"直接检索POI第一个结果成功!","tag":["行政地标","乡镇"]},{"name":"华林街道","code":"410304007","level":4,"mergeName":"河南省,洛阳市,瀍河回族区,华林街道","lng":112.49809990814629,"lat":34.6857423296315,"info":"直接检索POI第一个结果成功!","tag":""},{"name":"瀍河回族乡","code":"410304200","level":4,"mergeName":"河南省,洛阳市,瀍河回族区,瀍河回族乡","lng":112.51006920025287,"lat":34.70287161171853,"info":"直接检索POI第一个结果成功!","tag":["行政地标","乡镇"]},{"name":"涧西区","code":"410305","level":3,"mergeName":"河南省,洛阳市,涧西区","lng":112.40255200189966,"lat":34.663468454720764,"info":"直接检索POI第一个结果成功!","tag":""},{"name":"湖北路街道","code":"410305001","level":4,"mergeName":"河南省,洛阳市,涧西区,湖北路街道","lng":112.39691270939969,"lat":34.666512813802704,"info":"直接检索POI第一个结果成功!","tag":["道路","乡道"]},{"name":"天津路街道","code":"410305002","level":4,"mergeName":"河南省,洛阳市,涧西区,天津路街道","lng":112.40910576940882,"lat":34.673530627853275,"info":"直接检索POI第一个结果成功!","tag":["行政地标","乡镇"]},{"name":"长春路街道","code":"410305003","level":4,"mergeName":"河南省,洛阳市,涧西区,长春路街道","lng":112.41505830104015,"lat":34.667955050178264,"info":"直接检索POI第一个结果成功!","tag":["道路","乡道"]},{"name":"南昌路街道","code":"410305004","level":4,"mergeName":"河南省,洛阳市,涧西区,南昌路街道","lng":112.42768308667736,"lat":34.6335258861413,"info":"直接检索POI第一个结果成功!","tag":["道路"]},{"name":"长安路街道","code":"410305005","level":4,"mergeName":"河南省,洛阳市,涧西区,长安路街道","lng":112.38448222724426,"lat":34.672299494032316,"info":"直接检索POI第一个结果成功!","tag":["道路","乡道"]},{"name":"重庆路街道","code":"410305006","level":4,"mergeName":"河南省,洛阳市,涧西区,重庆路街道","lng":112.36943363368,"lat":34.68089129170422,"info":"直接检索POI第一个结果成功!","tag":["道路","乡道"]},{"name":"郑州路街道","code":"410305007","level":4,"mergeName":"河南省,洛阳市,涧西区,郑州路街道","lng":112.37948198928407,"lat":34.67418136679647,"info":"直接检索POI第一个结果成功!","tag":["道路","乡道"]},{"name":"武汉路街道","code":"410305008","level":4,"mergeName":"河南省,洛阳市,涧西区,武汉路街道","lng":112.37128845489701,"lat":34.67660229598151,"info":"直接检索POI第一个结果成功!","tag":["行政地标","乡镇"]},{"name":"珠江路街道","code":"410305010","level":4,"mergeName":"河南省,洛阳市,涧西区,珠江路街道","lng":112.42235065533959,"lat":34.65369961612171,"info":"直接检索POI第一个结果成功!","tag":["行政地标","村庄"]},{"name":"周山路街道","code":"410305011","level":4,"mergeName":"河南省,洛阳市,涧西区,周山路街道","lng":112.40793069597122,"lat":34.642098798979795,"info":"直接检索POI第一个结果成功!","tag":["行政地标","乡镇"]},{"name":"工农街道","code":"410305012","level":4,"mergeName":"河南省,洛阳市,涧西区,工农街道","lng":112.39062807422133,"lat":34.67025614816015,"info":"直接检索POI第一个结果成功!","tag":""},{"name":"吉利区","code":"410306","level":3,"mergeName":"河南省,洛阳市,吉利区","lng":112.59548107627764,"lat":34.90701347118142,"info":"直接检索POI第一个结果成功!","tag":""},{"name":"西霞院街道","code":"410306002","level":4,"mergeName":"河南省,洛阳市,吉利区,西霞院街道","lng":112.56854906861354,"lat":34.905330186458116,"info":"直接检索POI第一个结果成功!","tag":""},{"name":"康乐街道","code":"410306003","level":4,"mergeName":"河南省,洛阳市,吉利区,康乐街道","lng":112.5829857364644,"lat":34.906063228117304,"info":"直接检索POI第一个结果成功!","tag":""},{"name":"吉利街道","code":"410306004","level":4,"mergeName":"河南省,洛阳市,吉利区,吉利街道","lng":112.59909756443025,"lat":34.90608898251488,"info":"直接检索POI第一个结果成功!","tag":["行政地标","乡镇"]},{"name":"河阳街道","code":"410306005","level":4,"mergeName":"河南省,洛阳市,吉利区,河阳街道","lng":112.6138259120802,"lat":34.906279550002246,"info":"直接检索POI第一个结果成功!","tag":""},{"name":"洛龙区","code":"410311","level":3,"mergeName":"河南省,洛阳市,洛龙区","lng":112.47047288150911,"lat":34.62470545564345,"info":"直接检索POI第一个结果成功!","tag":""},{"name":"开元路街道","code":"410311002","level":4,"mergeName":"河南省,洛阳市,洛龙区,开元路街道","lng":112.46502708401596,"lat":34.6351290130831,"info":"直接检索POI第一个结果成功!","tag":""},{"name":"龙门石窟街道","code":"410311003","level":4,"mergeName":"河南省,洛阳市,洛龙区,龙门石窟街道","lng":112.49647451415652,"lat":34.57642796002275,"info":"直接检索POI第一个结果成功!","tag":""},{"name":"关林街道","code":"410311004","level":4,"mergeName":"河南省,洛阳市,洛龙区,关林街道","lng":112.48883173087764,"lat":34.615820875149744,"info":"直接检索POI第一个结果成功!","tag":["行政地标","乡镇"]},{"name":"太康东路街道","code":"410311005","level":4,"mergeName":"河南省,洛阳市,洛龙区,太康东路街道","lng":112.48861029856941,"lat":34.616433896877815,"info":"直接检索POI第一个结果成功!","tag":""},{"name":"古城街道","code":"410311006","level":4,"mergeName":"河南省,洛阳市,洛龙区,古城街道","lng":112.44039051642152,"lat":34.63766751808545,"info":"直接检索POI第一个结果成功!","tag":["行政地标","乡镇"]},{"name":"科技园街道","code":"410311007","level":4,"mergeName":"河南省,洛阳市,洛龙区,科技园街道","lng":112.43365070984125,"lat":34.63421733592701,"info":"直接检索POI第一个结果成功!","tag":["政府机构"]},{"name":"翠云路街道","code":"410311008","level":4,"mergeName":"河南省,洛阳市,洛龙区,翠云路街道","lng":112.47578105859812,"lat":34.614949387159506,"info":"直接检索POI第一个结果成功!","tag":["道路","乡道"]},{"name":"龙门街道","code":"410311009","level":4,"mergeName":"河南省,洛阳市,洛龙区,龙门街道","lng":112.48223691080668,"lat":34.585365978989564,"info":"直接检索POI第一个结果成功!","tag":""},{"name":"学府街道","code":"410311010","level":4,"mergeName":"河南省,洛阳市,洛龙区,学府街道","lng":112.40613112054308,"lat":34.60469003022541,"info":"直接检索POI第一个结果成功!","tag":""},{"name":"定鼎门街道","code":"410311011","level":4,"mergeName":"河南省,洛阳市,洛龙区,定鼎门街道","lng":112.47509313623857,"lat":34.619823407160915,"info":"直接检索POI第一个结果成功!","tag":["道路","乡道"]},{"name":"安乐镇","code":"410311102","level":4,"mergeName":"河南省,洛阳市,洛龙区,安乐镇","lng":112.47569787550789,"lat":34.66287827466855,"info":"直接检索POI第一个结果成功!","tag":["行政地标","乡镇"]},{"name":"白马寺镇","code":"410311103","level":4,"mergeName":"河南省,洛阳市,洛龙区,白马寺镇","lng":112.60043783625113,"lat":34.72533660819069,"info":"直接检索POI第一个结果成功!","tag":["行政地标","乡镇"]},{"name":"李楼镇","code":"410311107","level":4,"mergeName":"河南省,洛阳市,洛龙区,李楼镇","lng":112.53173111898158,"lat":34.6423718760317,"info":"直接检索POI第一个结果成功!","tag":""},{"name":"寇店镇","code":"410311194","level":4,"mergeName":"河南省,洛阳市,洛龙区,寇店镇","lng":112.66155144653652,"lat":34.59149424797997,"info":"直接检索POI第一个结果成功!","tag":["行政地标","乡镇"]},{"name":"诸葛镇","code":"410311195","level":4,"mergeName":"河南省,洛阳市,洛龙区,诸葛镇","lng":112.53788711681091,"lat":34.582908852325346,"info":"直接检索POI第一个结果成功!","tag":["行政地标","乡镇"]},{"name":"李村镇","code":"410311196","level":4,"mergeName":"河南省,洛阳市,洛龙区,李村镇","lng":112.60249019484979,"lat":34.60783832697742,"info":"直接检索POI第一个结果成功!","tag":["行政地标","乡镇"]},{"name":"庞村镇","code":"410311197","level":4,"mergeName":"河南省,洛阳市,洛龙区,庞村镇","lng":112.65666304761233,"lat":34.63223110998296,"info":"直接检索POI第一个结果成功!","tag":["行政地标","乡镇"]},{"name":"佃庄镇","code":"410311199","level":4,"mergeName":"河南省,洛阳市,洛龙区,佃庄镇","lng":112.62340732848017,"lat":34.680275262830655,"info":"直接检索POI第一个结果成功!","tag":["行政地标","乡镇"]},{"name":"孟津县","code":"410322","level":3,"mergeName":"河南省,洛阳市,孟津县","lng":112.45141982164247,"lat":34.831731199913094,"info":"直接检索POI第一个结果成功!","tag":""},{"name":"城关镇","code":"410322100","level":4,"mergeName":"河南省,洛阳市,孟津县,城关镇","lng":112.16797955018181,"lat":34.72982834927495,"info":"直接检索POI第一个结果成功!","tag":["行政地标","乡镇"]},{"name":"会盟镇","code":"410322101","level":4,"mergeName":"河南省,洛阳市,孟津县,会盟镇","lng":112.63360067059355,"lat":34.81998844451231,"info":"直接检索POI第一个结果成功!","tag":["行政地标","乡镇"]},{"name":"平乐镇","code":"410322102","level":4,"mergeName":"河南省,洛阳市,孟津县,平乐镇","lng":112.60192246576749,"lat":34.752563781148915,"info":"直接检索POI第一个结果成功!","tag":["行政地标","乡镇"]},{"name":"送庄镇","code":"410322103","level":4,"mergeName":"河南省,洛阳市,孟津县,送庄镇","lng":112.577858298444,"lat":34.80061704095886,"info":"直接检索POI第一个结果成功!","tag":["行政地标","乡镇"]},{"name":"白鹤镇","code":"410322104","level":4,"mergeName":"河南省,洛阳市,孟津县,白鹤镇","lng":112.56801592429338,"lat":34.86640637161937,"info":"直接检索POI第一个结果成功!","tag":["行政地标","乡镇"]},{"name":"朝阳镇","code":"410322105","level":4,"mergeName":"河南省,洛阳市,孟津县,朝阳镇","lng":112.4766940064879,"lat":34.76756093149193,"info":"直接检索POI第一个结果成功!","tag":["行政地标","乡镇"]},{"name":"小浪底镇","code":"410322106","level":4,"mergeName":"河南省,洛阳市,孟津县,小浪底镇","lng":112.36894702158526,"lat":34.86178773758667,"info":"直接检索POI第一个结果成功!","tag":["行政地标","乡镇"]},{"name":"麻屯镇","code":"410322107","level":4,"mergeName":"河南省,洛阳市,孟津县,麻屯镇","lng":112.37538562632803,"lat":34.746768972800275,"info":"直接检索POI第一个结果成功!","tag":["行政地标","乡镇"]},{"name":"横水镇","code":"410322108","level":4,"mergeName":"河南省,洛阳市,孟津县,横水镇","lng":112.3003317518166,"lat":34.86334826629176,"info":"直接检索POI第一个结果成功!","tag":["行政地标","乡镇"]},{"name":"常袋镇","code":"410322109","level":4,"mergeName":"河南省,洛阳市,孟津县,常袋镇","lng":112.37431897836548,"lat":34.800998446563455,"info":"直接检索POI第一个结果成功!","tag":["行政地标","乡镇"]},{"name":"新安县","code":"410323","level":3,"mergeName":"河南省,洛阳市,新安县","lng":112.1406061151901,"lat":34.73438384648272,"info":"直接检索POI第一个结果成功!","tag":""},{"name":"城关镇","code":"410323100","level":4,"mergeName":"河南省,洛阳市,新安县,城关镇","lng":112.16797955018181,"lat":34.72982834927495,"info":"直接检索POI第一个结果成功!","tag":["行政地标","乡镇"]},{"name":"石寺镇","code":"410323101","level":4,"mergeName":"河南省,洛阳市,新安县,石寺镇","lng":112.11533175068357,"lat":34.82997643152745,"info":"直接检索POI第一个结果成功!","tag":["行政地标","乡镇"]},{"name":"五头镇","code":"410323102","level":4,"mergeName":"河南省,洛阳市,新安县,五头镇","lng":112.23804028334655,"lat":34.76972705896504,"info":"直接检索POI第一个结果成功!","tag":["行政地标","乡镇"]},{"name":"磁涧镇","code":"410323103","level":4,"mergeName":"河南省,洛阳市,新安县,磁涧镇","lng":112.27712223235531,"lat":34.68915413611574,"info":"直接检索POI第一个结果成功!","tag":["行政地标","乡镇"]},{"name":"铁门镇","code":"410323104","level":4,"mergeName":"河南省,洛阳市,新安县,铁门镇","lng":112.03302064561814,"lat":34.753710296504764,"info":"直接检索POI第一个结果成功!","tag":["行政地标","乡镇"]},{"name":"南李村镇","code":"410323105","level":4,"mergeName":"河南省,洛阳市,新安县,南李村镇","lng":112.14686380120315,"lat":34.68533344948202,"info":"直接检索POI第一个结果成功!","tag":["行政地标","乡镇"]},{"name":"北冶镇","code":"410323106","level":4,"mergeName":"河南省,洛阳市,新安县,北冶镇","lng":112.1231264374242,"lat":34.897569974954926,"info":"直接检索POI第一个结果成功!","tag":["行政地标","乡镇"]},{"name":"仓头镇","code":"410323107","level":4,"mergeName":"河南省,洛阳市,新安县,仓头镇","lng":112.28130465297922,"lat":34.85549133945429,"info":"直接检索POI第一个结果成功!","tag":["行政地标","乡镇"]},{"name":"正村镇","code":"410323108","level":4,"mergeName":"河南省,洛阳市,新安县,正村镇","lng":112.18234462308351,"lat":34.82540670097539,"info":"直接检索POI第一个结果成功!","tag":["行政地标","乡镇"]},{"name":"石井镇","code":"410323109","level":4,"mergeName":"河南省,洛阳市,新安县,石井镇","lng":112.09847361050001,"lat":34.977594056019996,"info":"直接检索POI第一个结果成功!","tag":["行政地标","乡镇"]},{"name":"青要山镇","code":"410323110","level":4,"mergeName":"河南省,洛阳市,新安县,青要山镇","lng":112.0251297503574,"lat":34.88203045370638,"info":"直接检索POI第一个结果成功!","tag":["行政地标","乡镇"]},{"name":"栾川县","code":"410324","level":3,"mergeName":"河南省,洛阳市,栾川县","lng":111.62242756481442,"lat":33.79182216429788,"info":"直接检索POI第一个结果成功!","tag":""},{"name":"城关镇","code":"410324100","level":4,"mergeName":"河南省,洛阳市,栾川县,城关镇","lng":112.16797955018181,"lat":34.72982834927495,"info":"直接检索POI第一个结果成功!","tag":["行政地标","乡镇"]},{"name":"赤土店镇","code":"410324101","level":4,"mergeName":"河南省,洛阳市,栾川县,赤土店镇","lng":111.59262969308185,"lat":33.85218299162565,"info":"直接检索POI第一个结果成功!","tag":["行政地标","乡镇"]},{"name":"合峪镇","code":"410324102","level":4,"mergeName":"河南省,洛阳市,栾川县,合峪镇","lng":111.90332015201824,"lat":33.84592936630741,"info":"直接检索POI第一个结果成功!","tag":["行政地标","乡镇"]},{"name":"潭头镇","code":"410324103","level":4,"mergeName":"河南省,洛阳市,栾川县,潭头镇","lng":111.75922979228456,"lat":34.007987450119685,"info":"直接检索POI第一个结果成功!","tag":["行政地标","乡镇"]},{"name":"三川镇","code":"410324104","level":4,"mergeName":"河南省,洛阳市,栾川县,三川镇","lng":111.39701360726242,"lat":33.93765501560375,"info":"直接检索POI第一个结果成功!","tag":["行政地标","乡镇"]},{"name":"冷水镇","code":"410324105","level":4,"mergeName":"河南省,洛阳市,栾川县,冷水镇","lng":111.46475015458121,"lat":33.92669589018124,"info":"直接检索POI第一个结果成功!","tag":["行政地标","乡镇"]},{"name":"陶湾镇","code":"410324106","level":4,"mergeName":"河南省,洛阳市,栾川县,陶湾镇","lng":111.473238243345,"lat":33.83131398545132,"info":"直接检索POI第一个结果成功!","tag":["行政地标","乡镇"]},{"name":"石庙镇","code":"410324107","level":4,"mergeName":"河南省,洛阳市,栾川县,石庙镇","lng":111.54788213122166,"lat":33.81518048573629,"info":"直接检索POI第一个结果成功!","tag":["行政地标","乡镇"]},{"name":"庙子镇","code":"410324108","level":4,"mergeName":"河南省,洛阳市,栾川县,庙子镇","lng":111.74880244158584,"lat":33.77322471276612,"info":"直接检索POI第一个结果成功!","tag":["行政地标","乡镇"]},{"name":"狮子庙镇","code":"410324109","level":4,"mergeName":"河南省,洛阳市,栾川县,狮子庙镇","lng":111.54779787016481,"lat":34.01957782987091,"info":"直接检索POI第一个结果成功!","tag":["行政地标","乡镇"]},{"name":"白土镇","code":"410324110","level":4,"mergeName":"河南省,洛阳市,栾川县,白土镇","lng":111.44034867353872,"lat":34.034016514700674,"info":"直接检索POI第一个结果成功!","tag":["行政地标","乡镇"]},{"name":"叫河镇","code":"410324111","level":4,"mergeName":"河南省,洛阳市,栾川县,叫河镇","lng":111.3138601611203,"lat":33.863944755476055,"info":"直接检索POI第一个结果成功!","tag":["行政地标","乡镇"]},{"name":"栾川乡","code":"410324200","level":4,"mergeName":"河南省,洛阳市,栾川县,栾川乡","lng":111.62428957247549,"lat":33.78644899241407,"info":"直接检索POI第一个结果成功!","tag":["行政地标","乡镇"]},{"name":"秋扒乡","code":"410324203","level":4,"mergeName":"河南省,洛阳市,栾川县,秋扒乡","lng":111.6625331329518,"lat":34.03265051230909,"info":"直接检索POI第一个结果成功!","tag":["行政地标","乡镇"]},{"name":"重渡沟生态旅游示范区","code":"410324400","level":4,"mergeName":"河南省,洛阳市,栾川县,重渡沟生态旅游示范区","lng":111.70130804113722,"lat":33.935733048247684,"info":"直接检索POI第一个结果成功!","tag":["<font color=\"#c60a00\">旅游</font>景点"]},{"name":"嵩县","code":"410325","level":3,"mergeName":"河南省,洛阳市,嵩县","lng":112.09241202457979,"lat":34.14072170579878,"info":"直接检索POI第一个结果成功!","tag":""},{"name":"城关镇","code":"410325100","level":4,"mergeName":"河南省,洛阳市,嵩县,城关镇","lng":112.16797955018181,"lat":34.72982834927495,"info":"直接检索POI第一个结果成功!","tag":["行政地标","乡镇"]},{"name":"田湖镇","code":"410325101","level":4,"mergeName":"河南省,洛阳市,嵩县,田湖镇","lng":112.20896734416053,"lat":34.23846938369252,"info":"直接检索POI第一个结果成功!","tag":["行政地标","乡镇"]},{"name":"旧县镇","code":"410325102","level":4,"mergeName":"河南省,洛阳市,嵩县,旧县镇","lng":111.8638847197913,"lat":34.02929412382759,"info":"直接检索POI第一个结果成功!","tag":["行政地标","乡镇"]},{"name":"车村镇","code":"410325103","level":4,"mergeName":"河南省,洛阳市,嵩县,车村镇","lng":112.12952183367193,"lat":33.79851523790098,"info":"直接检索POI第一个结果成功!","tag":["行政地标","村庄"]},{"name":"闫庄镇","code":"410325104","level":4,"mergeName":"河南省,洛阳市,嵩县,闫庄镇","lng":112.11199346774738,"lat":34.244303832246345,"info":"直接检索POI第一个结果成功!","tag":["行政地标","乡镇"]},{"name":"德亭镇","code":"410325105","level":4,"mergeName":"河南省,洛阳市,嵩县,德亭镇","lng":111.93269114897248,"lat":34.145263272285646,"info":"直接检索POI第一个结果成功!","tag":["行政地标","乡镇"]},{"name":"大章镇","code":"410325106","level":4,"mergeName":"河南省,洛阳市,嵩县,大章镇","lng":111.89648988607313,"lat":34.07684756562371,"info":"直接检索POI第一个结果成功!","tag":["行政地标","乡镇"]},{"name":"白河镇","code":"410325107","level":4,"mergeName":"河南省,洛阳市,嵩县,白河镇","lng":111.9564914839677,"lat":33.63957705752451,"info":"直接检索POI第一个结果成功!","tag":["行政地标","乡镇"]},{"name":"纸房镇","code":"410325108","level":4,"mergeName":"河南省,洛阳市,嵩县,纸房镇","lng":112.11242618151154,"lat":34.12329651257223,"info":"直接检索POI第一个结果成功!","tag":["行政地标","乡镇"]},{"name":"饭坡镇","code":"410325109","level":4,"mergeName":"河南省,洛阳市,嵩县,饭坡镇","lng":112.22349303408741,"lat":34.19242714643647,"info":"直接检索POI第一个结果成功!","tag":["行政地标","乡镇"]},{"name":"九皋镇","code":"410325110","level":4,"mergeName":"河南省,洛阳市,嵩县,九皋镇","lng":112.3042205163693,"lat":34.173647818397974,"info":"直接检索POI第一个结果成功!","tag":["行政地标","乡镇"]},{"name":"陆浑镇","code":"410325111","level":4,"mergeName":"河南省,洛阳市,嵩县,陆浑镇","lng":112.14269781957007,"lat":34.191896754922354,"info":"直接检索POI第一个结果成功!","tag":["行政地标","乡镇"]},{"name":"大坪乡","code":"410325201","level":4,"mergeName":"河南省,洛阳市,嵩县,大坪乡","lng":112.07068848209309,"lat":34.22984368232693,"info":"直接检索POI第一个结果成功!","tag":["行政地标","乡镇"]},{"name":"何村乡","code":"410325203","level":4,"mergeName":"河南省,洛阳市,嵩县,何村乡","lng":112.06618347996056,"lat":34.13121799339381,"info":"直接检索POI第一个结果成功!","tag":["行政地标","乡镇"]},{"name":"黄庄乡","code":"410325209","level":4,"mergeName":"河南省,洛阳市,嵩县,黄庄乡","lng":112.27680324406872,"lat":34.08090889056795,"info":"直接检索POI第一个结果成功!","tag":["行政地标","乡镇"]},{"name":"木植街乡","code":"410325210","level":4,"mergeName":"河南省,洛阳市,嵩县,木植街乡","lng":112.1767073966862,"lat":33.964513347699636,"info":"直接检索POI第一个结果成功!","tag":["行政地标","乡镇"]},{"name":"陶村林场","code":"410325400","level":4,"mergeName":"河南省,洛阳市,嵩县,陶村林场","lng":111.96936653752,"lat":34.21449330091575,"info":"直接检索POI第一个结果成功!","tag":""},{"name":"五马寺林场","code":"410325401","level":4,"mergeName":"河南省,洛阳市,嵩县,五马寺林场","lng":111.84789128849165,"lat":33.67460217325754,"info":"直接检索POI第一个结果成功!","tag":""},{"name":"王莽寨林场","code":"410325402","level":4,"mergeName":"河南省,洛阳市,嵩县,王莽寨林场","lng":111.85625091956753,"lat":34.26695078178354,"info":"直接检索POI第一个结果成功!","tag":""},{"name":"汝阳县","code":"410326","level":3,"mergeName":"河南省,洛阳市,汝阳县","lng":112.47950085188438,"lat":34.15984366361067,"info":"直接检索POI第一个结果成功!","tag":""},{"name":"城关镇","code":"410326100","level":4,"mergeName":"河南省,洛阳市,汝阳县,城关镇","lng":112.16797955018181,"lat":34.72982834927495,"info":"直接检索POI第一个结果成功!","tag":["行政地标","乡镇"]},{"name":"上店镇","code":"410326101","level":4,"mergeName":"河南省,洛阳市,汝阳县,上店镇","lng":112.43238302110558,"lat":34.11995577671154,"info":"直接检索POI第一个结果成功!","tag":["行政地标","乡镇"]},{"name":"付店镇","code":"410326102","level":4,"mergeName":"河南省,洛阳市,汝阳县,付店镇","lng":112.36486395355074,"lat":33.93751177558545,"info":"直接检索POI第一个结果成功!","tag":["行政地标","乡镇"]},{"name":"小店镇","code":"410326103","level":4,"mergeName":"河南省,洛阳市,汝阳县,小店镇","lng":112.5623426758451,"lat":34.18544504339445,"info":"直接检索POI第一个结果成功!","tag":["行政地标","乡镇"]},{"name":"三屯镇","code":"410326104","level":4,"mergeName":"河南省,洛阳市,汝阳县,三屯镇","lng":112.51064842764569,"lat":34.073296632524,"info":"直接检索POI第一个结果成功!","tag":["行政地标","乡镇"]},{"name":"刘店镇","code":"410326105","level":4,"mergeName":"河南省,洛阳市,汝阳县,刘店镇","lng":112.59149259981334,"lat":34.095310055357906,"info":"直接检索POI第一个结果成功!","tag":["行政地标","乡镇"]},{"name":"内埠镇","code":"410326106","level":4,"mergeName":"河南省,洛阳市,汝阳县,内埠镇","lng":112.53292343988497,"lat":34.30721230292619,"info":"直接检索POI第一个结果成功!","tag":["行政地标","乡镇"]},{"name":"陶营镇","code":"410326107","level":4,"mergeName":"河南省,洛阳市,汝阳县,陶营镇","lng":112.51490001779388,"lat":34.26879297583074,"info":"直接检索POI第一个结果成功!","tag":["行政地标","乡镇"]},{"name":"柏树乡","code":"410326200","level":4,"mergeName":"河南省,洛阳市,汝阳县,柏树乡","lng":112.39611770902336,"lat":34.137856303384176,"info":"直接检索POI第一个结果成功!","tag":["行政地标","乡镇"]},{"name":"十八盘乡","code":"410326202","level":4,"mergeName":"河南省,洛阳市,汝阳县,十八盘乡","lng":112.41357340203214,"lat":34.03895492474917,"info":"直接检索POI第一个结果成功!","tag":["行政地标","乡镇"]},{"name":"靳村乡","code":"410326203","level":4,"mergeName":"河南省,洛阳市,汝阳县,靳村乡","lng":112.27863273307034,"lat":33.9534046921988,"info":"直接检索POI第一个结果成功!","tag":["行政地标","乡镇"]},{"name":"王坪乡","code":"410326204","level":4,"mergeName":"河南省,洛阳市,汝阳县,王坪乡","lng":112.47112298520666,"lat":33.93507733197556,"info":"直接检索POI第一个结果成功!","tag":["行政地标","乡镇"]},{"name":"蔡店乡","code":"410326209","level":4,"mergeName":"河南省,洛阳市,汝阳县,蔡店乡","lng":112.44128217447073,"lat":34.30091973220755,"info":"直接检索POI第一个结果成功!","tag":["行政地标","乡镇"]},{"name":"大安工业园区","code":"410326400","level":4,"mergeName":"河南省,洛阳市,汝阳县,大安工业园区","lng":112.47950327730925,"lat":34.15984336489338,"info":"检索POI失败,BMAP_STATUE_CODE:1 ,GetPoint结果: 直接查询获得"},{"name":"宜阳县","code":"410327","level":3,"mergeName":"河南省,洛阳市,宜阳县","lng":112.17946681155175,"lat":34.541047760264796,"info":"直接检索POI第一个结果成功!","tag":""},{"name":"城关镇","code":"410327100","level":4,"mergeName":"河南省,洛阳市,宜阳县,城关镇","lng":112.16797955018181,"lat":34.72982834927495,"info":"直接检索POI第一个结果成功!","tag":["行政地标","乡镇"]},{"name":"柳泉镇","code":"410327102","level":4,"mergeName":"河南省,洛阳市,宜阳县,柳泉镇","lng":112.04756241521368,"lat":34.522383396871604,"info":"直接检索POI第一个结果成功!","tag":["行政地标","乡镇"]},{"name":"韩城镇","code":"410327103","level":4,"mergeName":"河南省,洛阳市,宜阳县,韩城镇","lng":111.93529569596811,"lat":34.496471351993385,"info":"直接检索POI第一个结果成功!","tag":["行政地标","乡镇"]},{"name":"白杨镇","code":"410327104","level":4,"mergeName":"河南省,洛阳市,宜阳县,白杨镇","lng":112.23112288176698,"lat":34.39522025360424,"info":"直接检索POI第一个结果成功!","tag":["行政地标","乡镇"]},{"name":"香鹿山镇","code":"410327105","level":4,"mergeName":"河南省,洛阳市,宜阳县,香鹿山镇","lng":112.23112108515595,"lat":34.5550296603127,"info":"直接检索POI第一个结果成功!","tag":["行政地标","乡镇"]},{"name":"锦屏镇","code":"410327106","level":4,"mergeName":"河南省,洛阳市,宜阳县,锦屏镇","lng":112.2026544123586,"lat":34.52209579430672,"info":"直接检索POI第一个结果成功!","tag":["行政地标","乡镇"]},{"name":"三乡镇","code":"410327107","level":4,"mergeName":"河南省,洛阳市,宜阳县,三乡镇","lng":111.80701371659902,"lat":34.450230771584394,"info":"直接检索POI第一个结果成功!","tag":""},{"name":"张坞镇","code":"410327108","level":4,"mergeName":"河南省,洛阳市,宜阳县,张坞镇","lng":111.83620613041788,"lat":34.429194345822445,"info":"直接检索POI第一个结果成功!","tag":["行政地标","乡镇"]},{"name":"莲庄镇","code":"410327109","level":4,"mergeName":"河南省,洛阳市,宜阳县,莲庄镇","lng":112.00490422213915,"lat":34.49494087116634,"info":"直接检索POI第一个结果成功!","tag":["行政地标","乡镇"]},{"name":"赵保镇","code":"410327110","level":4,"mergeName":"河南省,洛阳市,宜阳县,赵保镇","lng":112.10315180593489,"lat":34.43338167847338,"info":"直接检索POI第一个结果成功!","tag":["行政地标","乡镇"]},{"name":"樊村镇","code":"410327111","level":4,"mergeName":"河南省,洛阳市,宜阳县,樊村镇","lng":112.27064005979531,"lat":34.47250640906051,"info":"直接检索POI第一个结果成功!","tag":["行政地标","村庄"]},{"name":"高村镇","code":"410327112","level":4,"mergeName":"河南省,洛阳市,宜阳县,高村镇","lng":111.87843664023909,"lat":34.5855415436079,"info":"直接检索POI第一个结果成功!","tag":""},{"name":"盐镇乡","code":"410327203","level":4,"mergeName":"河南省,洛阳市,宜阳县,盐镇乡","lng":112.00357293337335,"lat":34.66946435744332,"info":"直接检索POI第一个结果成功!","tag":["行政地标","乡镇"]},{"name":"花果山乡","code":"410327208","level":4,"mergeName":"河南省,洛阳市,宜阳县,花果山乡","lng":111.89956469600322,"lat":34.32438635376278,"info":"直接检索POI第一个结果成功!","tag":""},{"name":"上观乡","code":"410327209","level":4,"mergeName":"河南省,洛阳市,宜阳县,上观乡","lng":111.97601139320786,"lat":34.41080863631349,"info":"直接检索POI第一个结果成功!","tag":["行政地标","乡镇"]},{"name":"董王庄乡","code":"410327212","level":4,"mergeName":"河南省,洛阳市,宜阳县,董王庄乡","lng":112.11731134653591,"lat":34.364611372352414,"info":"直接检索POI第一个结果成功!","tag":["行政地标","乡镇"]},{"name":"洛宁县","code":"410328","level":3,"mergeName":"河南省,洛阳市,洛宁县","lng":111.6595904637622,"lat":34.39498515596508,"info":"直接检索POI第一个结果成功!","tag":""},{"name":"城关镇","code":"410328100","level":4,"mergeName":"河南省,洛阳市,洛宁县,城关镇","lng":112.16797955018181,"lat":34.72982834927495,"info":"直接检索POI第一个结果成功!","tag":["行政地标","乡镇"]},{"name":"王范回族镇","code":"410328101","level":4,"mergeName":"河南省,洛阳市,洛宁县,王范回族镇","lng":111.64393192075669,"lat":34.393051253389196,"info":"直接检索POI第一个结果成功!","tag":["行政地标","乡镇"]},{"name":"上戈镇","code":"410328102","level":4,"mergeName":"河南省,洛阳市,洛宁县,上戈镇","lng":111.2657842875151,"lat":34.35595298932058,"info":"直接检索POI第一个结果成功!","tag":["行政地标","乡镇"]},{"name":"下峪镇","code":"410328103","level":4,"mergeName":"河南省,洛阳市,洛宁县,下峪镇","lng":111.3254514462683,"lat":34.222870975404284,"info":"直接检索POI第一个结果成功!","tag":["行政地标","乡镇"]},{"name":"河底镇","code":"410328104","level":4,"mergeName":"河南省,洛阳市,洛宁县,河底镇","lng":111.77311499038284,"lat":34.58460977636777,"info":"直接检索POI第一个结果成功!","tag":["行政地标","乡镇"]},{"name":"兴华镇","code":"410328105","level":4,"mergeName":"河南省,洛阳市,洛宁县,兴华镇","lng":111.4459419727966,"lat":34.26789299081534,"info":"直接检索POI第一个结果成功!","tag":["行政地标","乡镇"]},{"name":"东宋镇","code":"410328106","level":4,"mergeName":"河南省,洛阳市,洛宁县,东宋镇","lng":111.72507945069502,"lat":34.46009823641432,"info":"直接检索POI第一个结果成功!","tag":["行政地标","乡镇"]},{"name":"马店镇","code":"410328107","level":4,"mergeName":"河南省,洛阳市,洛宁县,马店镇","lng":111.55269022163326,"lat":34.372485902419335,"info":"直接检索POI第一个结果成功!","tag":["行政地标","乡镇"]},{"name":"故县镇","code":"410328108","level":4,"mergeName":"河南省,洛阳市,洛宁县,故县镇","lng":111.2781640154092,"lat":34.248196122409844,"info":"直接检索POI第一个结果成功!","tag":["行政地标","乡镇"]},{"name":"赵村镇","code":"410328109","level":4,"mergeName":"河南省,洛阳市,洛宁县,赵村镇","lng":111.60992162499616,"lat":34.3291299650218,"info":"直接检索POI第一个结果成功!","tag":["行政地标","乡镇"]},{"name":"长水镇","code":"410328110","level":4,"mergeName":"河南省,洛阳市,洛宁县,长水镇","lng":111.46543124981888,"lat":34.34917673910185,"info":"直接检索POI第一个结果成功!","tag":["行政地标","乡镇"]},{"name":"景阳镇","code":"410328111","level":4,"mergeName":"河南省,洛阳市,洛宁县,景阳镇","lng":111.57785247761214,"lat":34.27675093521101,"info":"直接检索POI第一个结果成功!","tag":""},{"name":"城郊乡","code":"410328200","level":4,"mergeName":"河南省,洛阳市,洛宁县,城郊乡","lng":111.66934121075082,"lat":34.397294103146166,"info":"直接检索POI第一个结果成功!","tag":["名称标注类"]},{"name":"小界乡","code":"410328205","level":4,"mergeName":"河南省,洛阳市,洛宁县,小界乡","lng":111.57989037349209,"lat":34.47985492891377,"info":"直接检索POI第一个结果成功!","tag":["行政地标","乡镇"]},{"name":"罗岭乡","code":"410328209","level":4,"mergeName":"河南省,洛阳市,洛宁县,罗岭乡","lng":111.39803569927167,"lat":34.37847571832701,"info":"直接检索POI第一个结果成功!","tag":["行政地标","乡镇"]},{"name":"底张乡","code":"410328213","level":4,"mergeName":"河南省,洛阳市,洛宁县,底张乡","lng":111.512126877008,"lat":34.32628563438113,"info":"直接检索POI第一个结果成功!","tag":["行政地标","乡镇"]},{"name":"陈吴乡","code":"410328216","level":4,"mergeName":"河南省,洛阳市,洛宁县,陈吴乡","lng":111.68258546786772,"lat":34.36590088906321,"info":"直接检索POI第一个结果成功!","tag":["行政地标","乡镇"]},{"name":"涧口乡","code":"410328217","level":4,"mergeName":"河南省,洛阳市,洛宁县,涧口乡","lng":111.73209809130559,"lat":34.37959244362273,"info":"直接检索POI第一个结果成功!","tag":["行政地标","乡镇"]},{"name":"伊川县","code":"410329","level":3,"mergeName":"河南省,洛阳市,伊川县","lng":112.43241167705133,"lat":34.4276463175035,"info":"直接检索POI第一个结果成功!","tag":""},{"name":"城关街道","code":"410329001","level":4,"mergeName":"河南省,洛阳市,伊川县,城关街道","lng":112.44793897762186,"lat":34.422400626738806,"info":"直接检索POI第一个结果成功!","tag":["名称标注类"]},{"name":"河滨街道","code":"410329002","level":4,"mergeName":"河南省,洛阳市,伊川县,河滨街道","lng":112.43240745501544,"lat":34.42764579642734,"info":"检索POI失败,BMAP_STATUE_CODE:1 ,GetPoint结果: 直接查询获得"},{"name":"鸣皋镇","code":"410329101","level":4,"mergeName":"河南省,洛阳市,伊川县,鸣皋镇","lng":112.30079042661,"lat":34.319623614151595,"info":"直接检索POI第一个结果成功!","tag":["行政地标","乡镇"]},{"name":"水寨镇","code":"410329102","level":4,"mergeName":"河南省,洛阳市,伊川县,水寨镇","lng":112.4901892501643,"lat":34.4209533451173,"info":"直接检索POI第一个结果成功!","tag":["行政地标","乡镇"]},{"name":"彭婆镇","code":"410329103","level":4,"mergeName":"河南省,洛阳市,伊川县,彭婆镇","lng":112.49949677321429,"lat":34.494898772687826,"info":"直接检索POI第一个结果成功!","tag":["行政地标","乡镇"]},{"name":"白沙镇","code":"410329104","level":4,"mergeName":"河南省,洛阳市,伊川县,白沙镇","lng":112.53708609778766,"lat":34.386610196324966,"info":"直接检索POI第一个结果成功!","tag":""},{"name":"江左镇","code":"410329105","level":4,"mergeName":"河南省,洛阳市,伊川县,江左镇","lng":112.6955592270416,"lat":34.415584015395325,"info":"直接检索POI第一个结果成功!","tag":["行政地标","乡镇"]},{"name":"高山镇","code":"410329106","level":4,"mergeName":"河南省,洛阳市,伊川县,高山镇","lng":112.30455315889964,"lat":34.429874334689984,"info":"直接检索POI第一个结果成功!","tag":["行政地标","乡镇"]},{"name":"吕店镇","code":"410329107","level":4,"mergeName":"河南省,洛阳市,伊川县,吕店镇","lng":112.63870834589274,"lat":34.440866527235,"info":"直接检索POI第一个结果成功!","tag":""},{"name":"半坡镇","code":"410329108","level":4,"mergeName":"河南省,洛阳市,伊川县,半坡镇","lng":112.71784789352463,"lat":34.374509818067494,"info":"直接检索POI第一个结果成功!","tag":["行政地标","乡镇"]},{"name":"酒后镇","code":"410329109","level":4,"mergeName":"河南省,洛阳市,伊川县,酒后镇","lng":112.30715878386188,"lat":34.285714493701946,"info":"直接检索POI第一个结果成功!","tag":["行政地标","乡镇"]},{"name":"白元镇","code":"410329110","level":4,"mergeName":"河南省,洛阳市,伊川县,白元镇","lng":112.42098325469229,"lat":34.36428381254896,"info":"直接检索POI第一个结果成功!","tag":["行政地标","乡镇"]},{"name":"鸦岭镇","code":"410329111","level":4,"mergeName":"河南省,洛阳市,伊川县,鸦岭镇","lng":112.39052036739069,"lat":34.47656582241099,"info":"直接检索POI第一个结果成功!","tag":["行政地标","乡镇"]},{"name":"葛寨镇","code":"410329112","level":4,"mergeName":"河南省,洛阳市,伊川县,葛寨镇","lng":112.3783761752013,"lat":34.31821143551359,"info":"直接检索POI第一个结果成功!","tag":["行政地标","乡镇"]},{"name":"平等乡","code":"410329203","level":4,"mergeName":"河南省,洛阳市,伊川县,平等乡","lng":112.37592137573418,"lat":34.38188528462835,"info":"直接检索POI第一个结果成功!","tag":["行政地标","乡镇"]},{"name":"洛阳高新技术产业开发区","code":"410371","level":3,"mergeName":"河南省,洛阳市,洛阳高新技术产业开发区","lng":112.58098125754942,"lat":34.63611025391092,"info":"直接检索POI第一个结果成功!","tag":""},{"name":"瀛洲街道","code":"410371001","level":4,"mergeName":"河南省,洛阳市,洛阳高新技术产业开发区,瀛洲街道","lng":112.41090830924514,"lat":34.638658678013215,"info":"直接检索POI第一个结果成功!","tag":["行政地标","乡镇"]},{"name":"辛店街道","code":"410371002","level":4,"mergeName":"河南省,洛阳市,洛阳高新技术产业开发区,辛店街道","lng":113.75938408486323,"lat":34.771712921931496,"info":"检索POI失败,BMAP_STATUE_CODE:1 ,GetPoint结果: 第二次通过省份查询成功"},{"name":"徐家营街道","code":"410371003","level":4,"mergeName":"河南省,洛阳市,洛阳高新技术产业开发区,徐家营街道","lng":112.36547803519737,"lat":34.6029170222636,"info":"直接检索POI第一个结果成功!","tag":["地产小区","小区/楼盘"]},{"name":"丰李镇","code":"410371101","level":4,"mergeName":"河南省,洛阳市,洛阳高新技术产业开发区,丰李镇","lng":112.37917719422454,"lat":34.55674520709447,"info":"直接检索POI第一个结果成功!","tag":""},{"name":"偃师市","code":"410381","level":3,"mergeName":"河南省,洛阳市,偃师市","lng":112.79642303580461,"lat":34.733796104870066,"info":"直接检索POI第一个结果成功!","tag":""},{"name":"商城街道","code":"410381001","level":4,"mergeName":"河南省,洛阳市,偃师市,商城街道","lng":112.78929057988593,"lat":34.72825547802201,"info":"直接检索POI第一个结果成功!","tag":""},{"name":"槐新街道","code":"410381002","level":4,"mergeName":"河南省,洛阳市,偃师市,槐新街道","lng":112.78943529690358,"lat":34.734886148999834,"info":"直接检索POI第一个结果成功!","tag":["行政地标","乡镇"]},{"name":"首阳山街道","code":"410381003","level":4,"mergeName":"河南省,洛阳市,偃师市,首阳山街道","lng":112.72067243553965,"lat":34.73549027252878,"info":"直接检索POI第一个结果成功!","tag":["行政地标","乡镇"]},{"name":"伊洛街道","code":"410381004","level":4,"mergeName":"河南省,洛阳市,偃师市,伊洛街道","lng":112.79671094272057,"lat":34.73196751547004,"info":"直接检索POI第一个结果成功!","tag":""},{"name":"翟镇镇","code":"410381103","level":4,"mergeName":"河南省,洛阳市,偃师市,翟镇镇","lng":112.69254280696966,"lat":34.677277946609685,"info":"直接检索POI第一个结果成功!","tag":["行政地标","乡镇"]},{"name":"岳滩镇","code":"410381104","level":4,"mergeName":"河南省,洛阳市,偃师市,岳滩镇","lng":112.77119017301264,"lat":34.69830998474546,"info":"直接检索POI第一个结果成功!","tag":["行政地标","乡镇"]},{"name":"顾县镇","code":"410381105","level":4,"mergeName":"河南省,洛阳市,偃师市,顾县镇","lng":112.78865089653229,"lat":34.665156950447944,"info":"直接检索POI第一个结果成功!","tag":["行政地标","乡镇"]},{"name":"缑氏镇","code":"410381106","level":4,"mergeName":"河南省,洛阳市,偃师市,缑氏镇","lng":112.79303678335418,"lat":34.62003038712558,"info":"直接检索POI第一个结果成功!","tag":["行政地标","乡镇"]},{"name":"府店镇","code":"410381107","level":4,"mergeName":"河南省,洛阳市,偃师市,府店镇","lng":112.85894123658538,"lat":34.584093180036035,"info":"直接检索POI第一个结果成功!","tag":["行政地标","乡镇"]},{"name":"高龙镇","code":"410381108","level":4,"mergeName":"河南省,洛阳市,偃师市,高龙镇","lng":112.71844805143584,"lat":34.63978161680525,"info":"直接检索POI第一个结果成功!","tag":["行政地标","乡镇"]},{"name":"山化镇","code":"410381113","level":4,"mergeName":"河南省,洛阳市,偃师市,山化镇","lng":112.87249774469755,"lat":34.72104296443514,"info":"直接检索POI第一个结果成功!","tag":["行政地标","乡镇"]},{"name":"邙岭镇","code":"410381114","level":4,"mergeName":"河南省,洛阳市,偃师市,邙岭镇","lng":112.75765917677693,"lat":34.782031531310956,"info":"直接检索POI第一个结果成功!","tag":["行政地标","乡镇"]},{"name":"大口镇","code":"410381115","level":4,"mergeName":"河南省,洛阳市,偃师市,大口镇","lng":112.71714910166841,"lat":34.584193705938894,"info":"直接检索POI第一个结果成功!","tag":""},{"name":"平顶山市","code":"4104","level":2,"mergeName":"河南省,平顶山市","lng":113.19952865035211,"lat":33.77205007347694,"info":"直接检索POI第一个结果成功!","tag":""},{"name":"新华区","code":"410402","level":3,"mergeName":"河南省,平顶山市,新华区","lng":113.30044429134304,"lat":33.74365632610793,"info":"直接检索POI第一个结果成功!","tag":""},{"name":"曙光街街道","code":"410402001","level":4,"mergeName":"河南省,平顶山市,新华区,曙光街街道","lng":113.30231177866773,"lat":33.739190800842984,"info":"直接检索POI第一个结果成功!","tag":["道路","乡道"]},{"name":"光明路街道","code":"410402002","level":4,"mergeName":"河南省,平顶山市,新华区,光明路街道","lng":113.29938725524944,"lat":33.74523954238046,"info":"直接检索POI第一个结果成功!","tag":["行政地标","乡镇"]},{"name":"中兴路街道","code":"410402003","level":4,"mergeName":"河南省,平顶山市,新华区,中兴路街道","lng":113.3106308961651,"lat":33.726407294197124,"info":"直接检索POI第一个结果成功!","tag":["道路"]},{"name":"矿工路街道","code":"410402004","level":4,"mergeName":"河南省,平顶山市,新华区,矿工路街道","lng":113.30857835790533,"lat":33.75342232492971,"info":"直接检索POI第一个结果成功!","tag":["行政地标","乡镇"]},{"name":"西市场街道","code":"410402005","level":4,"mergeName":"河南省,平顶山市,新华区,西市场街道","lng":113.28992854738213,"lat":33.762249600768264,"info":"直接检索POI第一个结果成功!","tag":""},{"name":"新新街街道","code":"410402006","level":4,"mergeName":"河南省,平顶山市,新华区,新新街街道","lng":113.24332077447188,"lat":33.78960179857365,"info":"直接检索POI第一个结果成功!","tag":["行政地标","乡镇"]},{"name":"青石山街道","code":"410402007","level":4,"mergeName":"河南省,平顶山市,新华区,青石山街道","lng":113.20720449127377,"lat":33.78475080009879,"info":"直接检索POI第一个结果成功!","tag":["行政地标","乡镇"]},{"name":"湛河北路街道","code":"410402008","level":4,"mergeName":"河南省,平顶山市,新华区,湛河北路街道","lng":113.30721625726055,"lat":33.73707541087949,"info":"直接检索POI第一个结果成功!","tag":["政府机构","各级政府","乡镇级政府"]},{"name":"西高皇街道","code":"410402010","level":4,"mergeName":"河南省,平顶山市,新华区,西高皇街道","lng":113.26753226389903,"lat":33.74855139793094,"info":"直接检索POI第一个结果成功!","tag":""},{"name":"焦店镇","code":"410402100","level":4,"mergeName":"河南省,平顶山市,新华区,焦店镇","lng":113.25435088816779,"lat":33.75605709719366,"info":"直接检索POI第一个结果成功!","tag":["行政地标","乡镇"]},{"name":"香山管委会","code":"410402400","level":4,"mergeName":"河南省,平顶山市,新华区,香山管委会","lng":113.17988845800416,"lat":33.80784424773559,"info":"直接检索POI第一个结果成功!","tag":""},{"name":"卫东区","code":"410403","level":3,"mergeName":"河南省,平顶山市,卫东区","lng":113.34161363286532,"lat":33.740374750778834,"info":"直接检索POI第一个结果成功!","tag":""},{"name":"东安路街道","code":"410403001","level":4,"mergeName":"河南省,平顶山市,卫东区,东安路街道","lng":113.34246585530263,"lat":33.74943436750851,"info":"直接检索POI第一个结果成功!","tag":["道路"]},{"name":"优越路街道","code":"410403002","level":4,"mergeName":"河南省,平顶山市,卫东区,优越路街道","lng":113.32082019590366,"lat":33.74864978127799,"info":"直接检索POI第一个结果成功!","tag":""},{"name":"五一路街道","code":"410403003","level":4,"mergeName":"河南省,平顶山市,卫东区,五一路街道","lng":113.33863943315234,"lat":33.746614325944094,"info":"直接检索POI第一个结果成功!","tag":["行政地标","乡镇"]},{"name":"建设路街道","code":"410403004","level":4,"mergeName":"河南省,平顶山市,卫东区,建设路街道","lng":113.33130773307155,"lat":33.74687826323137,"info":"直接检索POI第一个结果成功!","tag":""},{"name":"东环路街道","code":"410403005","level":4,"mergeName":"河南省,平顶山市,卫东区,东环路街道","lng":113.37206439304256,"lat":33.72532764033409,"info":"直接检索POI第一个结果成功!","tag":["道路","乡道"]},{"name":"东工人镇街道","code":"410403006","level":4,"mergeName":"河南省,平顶山市,卫东区,东工人镇街道","lng":113.39470618342156,"lat":33.75747372624452,"info":"直接检索POI第一个结果成功!","tag":["行政地标","乡镇"]},{"name":"光华路街道","code":"410403007","level":4,"mergeName":"河南省,平顶山市,卫东区,光华路街道","lng":113.43531273654185,"lat":33.75602715705886,"info":"直接检索POI第一个结果成功!","tag":["道路"]},{"name":"鸿鹰街道","code":"410403008","level":4,"mergeName":"河南省,平顶山市,卫东区,鸿鹰街道","lng":113.3657165171563,"lat":33.73883069666576,"info":"直接检索POI第一个结果成功!","tag":["行政地标","乡镇"]},{"name":"申楼街道","code":"410403009","level":4,"mergeName":"河南省,平顶山市,卫东区,申楼街道","lng":113.390875808727,"lat":33.74415802634202,"info":"直接检索POI第一个结果成功!","tag":["名称标注类"]},{"name":"北环路街道","code":"410403010","level":4,"mergeName":"河南省,平顶山市,卫东区,北环路街道","lng":113.31749880111107,"lat":33.770646816985185,"info":"直接检索POI第一个结果成功!","tag":""},{"name":"东高皇街道","code":"410403011","level":4,"mergeName":"河南省,平顶山市,卫东区,东高皇街道","lng":113.37221557785989,"lat":33.739787543693176,"info":"直接检索POI第一个结果成功!","tag":["行政地标","乡镇"]},{"name":"蒲城街道","code":"410403012","level":4,"mergeName":"河南省,平顶山市,卫东区,蒲城街道","lng":113.44772112038173,"lat":33.73549819710084,"info":"直接检索POI第一个结果成功!","tag":["名称标注类"]},{"name":"石龙区","code":"410404","level":3,"mergeName":"河南省,平顶山市,石龙区","lng":112.90545935860573,"lat":33.90475509236609,"info":"直接检索POI第一个结果成功!","tag":""},