[{"name":"浙江省","code":"33","level":1,"mergeName":"浙江省,浙江省","lng":120.15953308739246,"lat":30.271548393336545,"info":"直接查询获得"},{"name":"杭州市","code":"3301","level":2,"mergeName":"浙江省,杭州市","lng":120.21551180372168,"lat":30.25308298169347,"info":"直接查询获得"},{"name":"上城区","code":"330102","level":3,"mergeName":"浙江省,杭州市,上城区","lng":120.17557880007278,"lat":30.248398420425882,"info":"直接查询获得"},{"name":"清波街道","code":"330102001","level":4,"mergeName":"浙江省,杭州市,上城区,清波街道","lng":120.16739891992948,"lat":30.24421703431751,"info":"直接查询获得"},{"name":"湖滨街道","code":"330102003","level":4,"mergeName":"浙江省,杭州市,上城区,湖滨街道","lng":120.172614936263,"lat":30.25781859926853,"info":"直接查询获得"},{"name":"小营街道","code":"330102004","level":4,"mergeName":"浙江省,杭州市,上城区,小营街道","lng":120.18341220378089,"lat":30.2453794324546,"info":"直接查询获得"},{"name":"南星街道","code":"330102008","level":4,"mergeName":"浙江省,杭州市,上城区,南星街道","lng":120.16902700883576,"lat":30.213197099129584,"info":"直接查询获得"},{"name":"紫阳街道","code":"330102009","level":4,"mergeName":"浙江省,杭州市,上城区,紫阳街道","lng":120.18307596802852,"lat":30.224894294702974,"info":"直接查询获得"},{"name":"望江街道","code":"330102010","level":4,"mergeName":"浙江省,杭州市,上城区,望江街道","lng":120.20492482413384,"lat":30.241128964133832,"info":"直接查询获得"},{"name":"下城区","code":"330103","level":3,"mergeName":"浙江省,杭州市,下城区","lng":120.18760693119027,"lat":30.286744052561524,"info":"直接查询获得"},{"name":"长庆街道","code":"330103001","level":4,"mergeName":"浙江省,杭州市,下城区,长庆街道","lng":120.17948148836088,"lat":30.265999530914264,"info":"直接查询获得"},{"name":"武林街道","code":"330103002","level":4,"mergeName":"浙江省,杭州市,下城区,武林街道","lng":120.16953935738337,"lat":30.268951743184488,"info":"直接查询获得"},{"name":"天水街道","code":"330103003","level":4,"mergeName":"浙江省,杭州市,下城区,天水街道","lng":120.16891301386654,"lat":30.272993904236575,"info":"直接查询获得"},{"name":"潮鸣街道","code":"330103005","level":4,"mergeName":"浙江省,杭州市,下城区,潮鸣街道","lng":120.18815256195704,"lat":30.266297962174793,"info":"直接查询获得"},{"name":"朝晖街道","code":"330103006","level":4,"mergeName":"浙江省,杭州市,下城区,朝晖街道","lng":120.16657508394627,"lat":30.295980859164935,"info":"直接查询获得"},{"name":"文晖街道","code":"330103007","level":4,"mergeName":"浙江省,杭州市,下城区,文晖街道","lng":120.18785764825812,"lat":30.29863204649122,"info":"直接查询获得"},{"name":"东新街道","code":"330103008","level":4,"mergeName":"浙江省,杭州市,下城区,东新街道","lng":120.1779663164572,"lat":30.31645179927612,"info":"直接查询获得"},{"name":"石桥街道","code":"330103009","level":4,"mergeName":"浙江省,杭州市,下城区,石桥街道","lng":120.19164858734077,"lat":30.34479680315165,"info":"直接查询获得"},{"name":"江干区","code":"330104","level":3,"mergeName":"浙江省,杭州市,江干区","lng":120.21153877811217,"lat":30.2633105670119,"info":"直接查询获得"},{"name":"凯旋街道","code":"330104005","level":4,"mergeName":"浙江省,杭州市,江干区,凯旋街道","lng":120.21080477267995,"lat":30.27340802846429,"info":"直接查询获得"},{"name":"采荷街道","code":"330104006","level":4,"mergeName":"浙江省,杭州市,江干区,采荷街道","lng":120.21152305776575,"lat":30.262511084598906,"info":"直接查询获得"},{"name":"闸弄口街道","code":"330104007","level":4,"mergeName":"浙江省,杭州市,江干区,闸弄口街道","lng":120.19753617148372,"lat":30.29568961314322,"info":"直接查询获得"},{"name":"四季青街道","code":"330104008","level":4,"mergeName":"浙江省,杭州市,江干区,四季青街道","lng":120.20937556861358,"lat":30.25821699044002,"info":"直接查询获得"},{"name":"白杨街道","code":"330104009","level":4,"mergeName":"浙江省,杭州市,江干区,白杨街道","lng":120.35753228789929,"lat":30.312822139574582,"info":"直接查询获得"},{"name":"下沙街道","code":"330104010","level":4,"mergeName":"浙江省,杭州市,江干区,下沙街道","lng":120.33119594661886,"lat":30.308155346063007,"info":"直接查询获得"},{"name":"彭埠街道","code":"330104011","level":4,"mergeName":"浙江省,杭州市,江干区,彭埠街道","lng":120.23479195522124,"lat":30.29447667632446,"info":"直接查询获得"},{"name":"笕桥街道","code":"330104012","level":4,"mergeName":"浙江省,杭州市,江干区,笕桥街道","lng":120.22469661823902,"lat":30.32205139890655,"info":"直接查询获得"},{"name":"丁兰街道","code":"330104013","level":4,"mergeName":"浙江省,杭州市,江干区,丁兰街道","lng":120.22474198266727,"lat":30.364220963442737,"info":"直接查询获得"},{"name":"九堡街道","code":"330104014","level":4,"mergeName":"浙江省,杭州市,江干区,九堡街道","lng":120.27892875916518,"lat":30.31718154954364,"info":"直接查询获得"},{"name":"拱墅区","code":"330105","level":3,"mergeName":"浙江省,杭州市,拱墅区","lng":120.14844700926328,"lat":30.32464256662975,"info":"直接查询获得"},{"name":"米市巷街道","code":"330105001","level":4,"mergeName":"浙江省,杭州市,拱墅区,米市巷街道","lng":120.15684005730408,"lat":30.29245583489386,"info":"直接查询获得"},{"name":"湖墅街道","code":"330105002","level":4,"mergeName":"浙江省,杭州市,拱墅区,湖墅街道","lng":120.15178897525203,"lat":30.299382042858216,"info":"直接查询获得"},{"name":"小河街道","code":"330105003","level":4,"mergeName":"浙江省,杭州市,拱墅区,小河街道","lng":120.13864227411351,"lat":30.312086666632204,"info":"直接查询获得"},{"name":"和睦街道","code":"330105004","level":4,"mergeName":"浙江省,杭州市,拱墅区,和睦街道","lng":120.13092008062753,"lat":30.31375651576778,"info":"直接查询获得"},{"name":"拱宸桥街道","code":"330105005","level":4,"mergeName":"浙江省,杭州市,拱墅区,拱宸桥街道","lng":120.14801708024619,"lat":30.325216077582237,"info":"直接查询获得"},{"name":"大关街道","code":"330105007","level":4,"mergeName":"浙江省,杭州市,拱墅区,大关街道","lng":120.1630212076877,"lat":30.31131307340198,"info":"直接查询获得"},{"name":"上塘街道","code":"330105008","level":4,"mergeName":"浙江省,杭州市,拱墅区,上塘街道","lng":120.16270680075921,"lat":30.31888217448903,"info":"直接查询获得"},{"name":"祥符街道","code":"330105009","level":4,"mergeName":"浙江省,杭州市,拱墅区,祥符街道","lng":120.10528199222001,"lat":30.33142301192049,"info":"直接查询获得"},{"name":"康桥街道","code":"330105010","level":4,"mergeName":"浙江省,杭州市,拱墅区,康桥街道","lng":120.15561099570535,"lat":30.371251022979497,"info":"直接查询获得"},{"name":"半山街道","code":"330105011","level":4,"mergeName":"浙江省,杭州市,拱墅区,半山街道","lng":120.1874499972177,"lat":30.35514374615514,"info":"直接查询获得"},{"name":"西湖区","code":"330106","level":3,"mergeName":"浙江省,杭州市,西湖区","lng":120.13643801205312,"lat":30.265916325588922,"info":"直接查询获得"},{"name":"北山街道","code":"330106002","level":4,"mergeName":"浙江省,杭州市,西湖区,北山街道","lng":120.15942762632558,"lat":30.27276956996485,"info":"直接查询获得"},{"name":"西溪街道","code":"330106004","level":4,"mergeName":"浙江省,杭州市,西湖区,西溪街道","lng":120.1561065908552,"lat":30.281156995735227,"info":"直接查询获得"},{"name":"翠苑街道","code":"330106005","level":4,"mergeName":"浙江省,杭州市,西湖区,翠苑街道","lng":120.13002276325362,"lat":30.279911052275647,"info":"直接查询获得"},{"name":"古荡街道","code":"330106007","level":4,"mergeName":"浙江省,杭州市,西湖区,古荡街道","lng":120.12512295584943,"lat":30.283107044499445,"info":"直接查询获得"},{"name":"西湖街道","code":"330106008","level":4,"mergeName":"浙江省,杭州市,西湖区,西湖街道","lng":120.11785278969609,"lat":30.251886125202528,"info":"直接查询获得"},{"name":"留下街道","code":"330106009","level":4,"mergeName":"浙江省,杭州市,西湖区,留下街道","lng":120.05967978249762,"lat":30.24839389673277,"info":"直接查询获得"},{"name":"转塘街道","code":"330106010","level":4,"mergeName":"浙江省,杭州市,西湖区,转塘街道","lng":120.08586520845239,"lat":30.16506200615121,"info":"直接查询获得"},{"name":"蒋村街道","code":"330106011","level":4,"mergeName":"浙江省,杭州市,西湖区,蒋村街道","lng":120.07132209139859,"lat":30.286413484881543,"info":"直接查询获得"},{"name":"灵隐街道","code":"330106012","level":4,"mergeName":"浙江省,杭州市,西湖区,灵隐街道","lng":120.13301079687146,"lat":30.265262377600074,"info":"直接查询获得"},{"name":"文新街道","code":"330106013","level":4,"mergeName":"浙江省,杭州市,西湖区,文新街道","lng":120.11021871998064,"lat":30.28251714542876,"info":"直接查询获得"},{"name":"三墩镇","code":"330106109","level":4,"mergeName":"浙江省,杭州市,西湖区,三墩镇","lng":120.0916643095026,"lat":30.327467770823905,"info":"直接查询获得"},{"name":"双浦镇","code":"330106110","level":4,"mergeName":"浙江省,杭州市,西湖区,双浦镇","lng":120.1281663250867,"lat":30.11939076826284,"info":"直接查询获得"},{"name":"滨江区","code":"330108","level":3,"mergeName":"浙江省,杭州市,滨江区","lng":120.21847118139375,"lat":30.214332950144062,"info":"直接查询获得"},{"name":"西兴街道","code":"330108001","level":4,"mergeName":"浙江省,杭州市,滨江区,西兴街道","lng":120.23917487763498,"lat":30.193555892902165,"info":"直接查询获得"},{"name":"长河街道","code":"330108002","level":4,"mergeName":"浙江省,杭州市,滨江区,长河街道","lng":120.19629156919966,"lat":30.183237467368013,"info":"直接查询获得"},{"name":"浦沿街道","code":"330108003","level":4,"mergeName":"浙江省,杭州市,滨江区,浦沿街道","lng":120.16828204407634,"lat":30.17088513823444,"info":"直接查询获得"},{"name":"萧山区","code":"330109","level":3,"mergeName":"浙江省,杭州市,萧山区","lng":120.2704705839749,"lat":30.18751122221409,"info":"直接查询获得"},{"name":"城厢街道","code":"330109001","level":4,"mergeName":"浙江省,杭州市,萧山区,城厢街道","lng":120.28061703454065,"lat":30.166370151098743,"info":"直接查询获得"},{"name":"北干街道","code":"330109002","level":4,"mergeName":"浙江省,杭州市,萧山区,北干街道","lng":120.28366013428625,"lat":30.187291685645967,"info":"直接查询获得"},{"name":"蜀山街道","code":"330109003","level":4,"mergeName":"浙江省,杭州市,萧山区,蜀山街道","lng":120.26776821150924,"lat":30.13062146763402,"info":"直接查询获得"},{"name":"新塘街道","code":"330109004","level":4,"mergeName":"浙江省,杭州市,萧山区,新塘街道","lng":120.3156113341568,"lat":30.15418431815522,"info":"直接查询获得"},{"name":"靖江街道","code":"330109005","level":4,"mergeName":"浙江省,杭州市,萧山区,靖江街道","lng":120.48280997432082,"lat":30.236183058500938,"info":"直接查询获得"},{"name":"南阳街道","code":"330109006","level":4,"mergeName":"浙江省,杭州市,萧山区,南阳街道","lng":120.45060437432984,"lat":30.268517491557056,"info":"直接查询获得"},{"name":"义蓬街道","code":"330109007","level":4,"mergeName":"浙江省,杭州市,萧山区,义蓬街道","lng":120.49750795924452,"lat":30.280953731832373,"info":"直接查询获得"},{"name":"河庄街道","code":"330109008","level":4,"mergeName":"浙江省,杭州市,萧山区,河庄街道","lng":120.46384764331069,"lat":30.30425676107401,"info":"直接查询获得"},{"name":"新湾街道","code":"330109009","level":4,"mergeName":"浙江省,杭州市,萧山区,新湾街道","lng":120.553886960509,"lat":30.286660007394836,"info":"直接查询获得"},{"name":"临江街道","code":"330109010","level":4,"mergeName":"浙江省,杭州市,萧山区,临江街道","lng":120.60922455619577,"lat":30.2451276574009,"info":"直接查询获得"},{"name":"前进街道","code":"330109011","level":4,"mergeName":"浙江省,杭州市,萧山区,前进街道","lng":120.56736522621127,"lat":30.36384306166785,"info":"直接查询获得"},{"name":"闻堰街道","code":"330109012","level":4,"mergeName":"浙江省,杭州市,萧山区,闻堰街道","lng":120.18958886263695,"lat":30.128697882877237,"info":"直接查询获得"},{"name":"宁围街道","code":"330109013","level":4,"mergeName":"浙江省,杭州市,萧山区,宁围街道","lng":120.2865680390526,"lat":30.22068708925847,"info":"直接查询获得"},{"name":"新街街道","code":"330109014","level":4,"mergeName":"浙江省,杭州市,萧山区,新街街道","lng":120.34446212239021,"lat":30.197615378721473,"info":"直接查询获得"},{"name":"盈丰街道","code":"330109015","level":4,"mergeName":"浙江省,杭州市,萧山区,盈丰街道","lng":120.2704705839749,"lat":30.18751122221409,"info":"直接查询获得"},{"name":"楼塔镇","code":"330109100","level":4,"mergeName":"浙江省,杭州市,萧山区,楼塔镇","lng":120.14649650173308,"lat":29.918545952527612,"info":"直接查询获得"},{"name":"河上镇","code":"330109101","level":4,"mergeName":"浙江省,杭州市,萧山区,河上镇","lng":120.1806254636402,"lat":29.954894507292433,"info":"直接查询获得"},{"name":"戴村镇","code":"330109102","level":4,"mergeName":"浙江省,杭州市,萧山区,戴村镇","lng":120.20180716503091,"lat":30.024145156616736,"info":"直接查询获得"},{"name":"浦阳镇","code":"330109103","level":4,"mergeName":"浙江省,杭州市,萧山区,浦阳镇","lng":120.25592951621127,"lat":29.986851666532946,"info":"直接查询获得"},{"name":"进化镇","code":"330109104","level":4,"mergeName":"浙江省,杭州市,萧山区,进化镇","lng":120.29978471819035,"lat":30.01637569024657,"info":"直接查询获得"},{"name":"临浦镇","code":"330109105","level":4,"mergeName":"浙江省,杭州市,萧山区,临浦镇","lng":120.25562195321716,"lat":30.051942132216734,"info":"直接查询获得"},{"name":"义桥镇","code":"330109106","level":4,"mergeName":"浙江省,杭州市,萧山区,义桥镇","lng":120.21161199001122,"lat":30.073559263737376,"info":"直接查询获得"},{"name":"所前镇","code":"330109107","level":4,"mergeName":"浙江省,杭州市,萧山区,所前镇","lng":120.28984128466986,"lat":30.117616210506814,"info":"直接查询获得"},{"name":"衙前镇","code":"330109108","level":4,"mergeName":"浙江省,杭州市,萧山区,衙前镇","lng":120.39693852519714,"lat":30.173054780594107,"info":"直接查询获得"},{"name":"瓜沥镇","code":"330109113","level":4,"mergeName":"浙江省,杭州市,萧山区,瓜沥镇","lng":120.46465980132226,"lat":30.196599430609304,"info":"直接查询获得"},{"name":"益农镇","code":"330109115","level":4,"mergeName":"浙江省,杭州市,萧山区,益农镇","lng":120.6455495741537,"lat":30.282313947837476,"info":"直接查询获得"},{"name":"党湾镇","code":"330109120","level":4,"mergeName":"浙江省,杭州市,萧山区,党湾镇","lng":120.55593141401916,"lat":30.230428184387197,"info":"直接查询获得"},{"name":"萧山经济技术开发区","code":"330109401","level":4,"mergeName":"浙江省,杭州市,萧山区,萧山经济技术开发区","lng":120.2704705839749,"lat":30.18751122221409,"info":"直接查询获得"},{"name":"萧山商业城","code":"330109403","level":4,"mergeName":"浙江省,杭州市,萧山区,萧山商业城","lng":120.29736998314898,"lat":30.17097911856209,"info":"直接查询获得"},{"name":"围垦区","code":"330109501","level":4,"mergeName":"浙江省,杭州市,萧山区,围垦区","lng":120.64367196741743,"lat":30.342795009086213,"info":"直接查询获得"},{"name":"红山农场","code":"330109503","level":4,"mergeName":"浙江省,杭州市,萧山区,红山农场","lng":120.2704705839749,"lat":30.18751122221409,"info":"直接查询获得"},{"name":"萧山钱江世纪城","code":"330109505","level":4,"mergeName":"浙江省,杭州市,萧山区,萧山钱江世纪城","lng":120.2745939859268,"lat":30.22540122541015,"info":"直接查询获得"},{"name":"余杭区","code":"330110","level":3,"mergeName":"浙江省,杭州市,余杭区","lng":120.30659216717552,"lat":30.424739268745142,"info":"直接查询获得"},{"name":"临平街道","code":"330110001","level":4,"mergeName":"浙江省,杭州市,余杭区,临平街道","lng":120.30585897021827,"lat":30.425194940939928,"info":"直接查询获得"},{"name":"南苑街道","code":"330110002","level":4,"mergeName":"浙江省,杭州市,余杭区,南苑街道","lng":120.32771546192045,"lat":30.422248876731928,"info":"直接查询获得"},{"name":"东湖街道","code":"330110003","level":4,"mergeName":"浙江省,杭州市,余杭区,东湖街道","lng":120.32471513858492,"lat":30.450985274917496,"info":"直接查询获得"},{"name":"星桥街道","code":"330110004","level":4,"mergeName":"浙江省,杭州市,余杭区,星桥街道","lng":120.27143275900663,"lat":30.391562226016173,"info":"直接查询获得"},{"name":"五常街道","code":"330110005","level":4,"mergeName":"浙江省,杭州市,余杭区,五常街道","lng":120.04264000493997,"lat":30.254389087370825,"info":"直接查询获得"},{"name":"乔司街道","code":"330110006","level":4,"mergeName":"浙江省,杭州市,余杭区,乔司街道","lng":120.29280802844711,"lat":30.35488602290686,"info":"直接查询获得"},{"name":"运河街道","code":"330110007","level":4,"mergeName":"浙江省,杭州市,余杭区,运河街道","lng":120.3034313894081,"lat":30.481450695386897,"info":"直接查询获得"},{"name":"崇贤街道","code":"330110008","level":4,"mergeName":"浙江省,杭州市,余杭区,崇贤街道","lng":120.18138697400865,"lat":30.393277977813245,"info":"直接查询获得"},{"name":"仁和街道","code":"330110009","level":4,"mergeName":"浙江省,杭州市,余杭区,仁和街道","lng":120.09800410063927,"lat":30.450074118961922,"info":"直接查询获得"},{"name":"良渚街道","code":"330110010","level":4,"mergeName":"浙江省,杭州市,余杭区,良渚街道","lng":120.05367110677193,"lat":30.385868275729496,"info":"直接查询获得"},{"name":"闲林街道","code":"330110011","level":4,"mergeName":"浙江省,杭州市,余杭区,闲林街道","lng":119.9894719967209,"lat":30.23786887715037,"info":"直接查询获得"},{"name":"仓前街道","code":"330110012","level":4,"mergeName":"浙江省,杭州市,余杭区,仓前街道","lng":120.01520243093485,"lat":30.289586498355103,"info":"直接查询获得"},{"name":"余杭街道","code":"330110013","level":4,"mergeName":"浙江省,杭州市,余杭区,余杭街道","lng":119.91923315562437,"lat":30.294622144958783,"info":"直接查询获得"},{"name":"中泰街道","code":"330110014","level":4,"mergeName":"浙江省,杭州市,余杭区,中泰街道","lng":119.935117955737,"lat":30.243555062534003,"info":"直接查询获得"},{"name":"塘栖镇","code":"330110102","level":4,"mergeName":"浙江省,杭州市,余杭区,塘栖镇","lng":120.19491644312498,"lat":30.479506974288064,"info":"直接查询获得"},{"name":"径山镇","code":"330110109","level":4,"mergeName":"浙江省,杭州市,余杭区,径山镇","lng":119.87178059016168,"lat":30.381355478867743,"info":"直接查询获得"},{"name":"瓶窑镇","code":"330110110","level":4,"mergeName":"浙江省,杭州市,余杭区,瓶窑镇","lng":119.98204265083118,"lat":30.373792347290063,"info":"直接查询获得"},{"name":"鸬鸟镇","code":"330110111","level":4,"mergeName":"浙江省,杭州市,余杭区,鸬鸟镇","lng":119.76671935907277,"lat":30.45790421913078,"info":"直接查询获得"},{"name":"百丈镇","code":"330110112","level":4,"mergeName":"浙江省,杭州市,余杭区,百丈镇","lng":119.73778080639103,"lat":30.52574711364781,"info":"直接查询获得"},{"name":"黄湖镇","code":"330110113","level":4,"mergeName":"浙江省,杭州市,余杭区,黄湖镇","lng":119.8143841680766,"lat":30.453717156671193,"info":"直接查询获得"},{"name":"富阳区","code":"330111","level":3,"mergeName":"浙江省,杭州市,富阳区","lng":119.96655568417805,"lat":30.05472296730377,"info":"直接查询获得"},{"name":"富春街道","code":"330111001","level":4,"mergeName":"浙江省,杭州市,富阳区,富春街道","lng":119.94097311105105,"lat":30.047389529457224,"info":"直接查询获得"},{"name":"春江街道","code":"330111002","level":4,"mergeName":"浙江省,杭州市,富阳区,春江街道","lng":119.98881542522365,"lat":30.020927621598055,"info":"直接查询获得"},{"name":"鹿山街道","code":"330111004","level":4,"mergeName":"浙江省,杭州市,富阳区,鹿山街道","lng":119.93670382428432,"lat":30.01678191325573,"info":"直接查询获得"},{"name":"东洲街道","code":"330111005","level":4,"mergeName":"浙江省,杭州市,富阳区,东洲街道","lng":120.02828050153241,"lat":30.079005558204397,"info":"直接查询获得"},{"name":"银湖街道","code":"330111006","level":4,"mergeName":"浙江省,杭州市,富阳区,银湖街道","lng":119.96655568417805,"lat":30.05472296730377,"info":"直接查询获得"},{"name":"万市镇","code":"330111100","level":4,"mergeName":"浙江省,杭州市,富阳区,万市镇","lng":119.5806330370865,"lat":30.100678192851547,"info":"直接查询获得"},{"name":"洞桥镇","code":"330111101","level":4,"mergeName":"浙江省,杭州市,富阳区,洞桥镇","lng":119.59619618004687,"lat":30.079461915582076,"info":"直接查询获得"},{"name":"渌渚镇","code":"330111103","level":4,"mergeName":"浙江省,杭州市,富阳区,渌渚镇","lng":119.74842921343088,"lat":29.898684597944747,"info":"直接查询获得"},{"name":"永昌镇","code":"330111105","level":4,"mergeName":"浙江省,杭州市,富阳区,永昌镇","lng":119.74118700122376,"lat":30.040556555425862,"info":"直接查询获得"},{"name":"里山镇","code":"330111108","level":4,"mergeName":"浙江省,杭州市,富阳区,里山镇","lng":120.07569899516541,"lat":30.057620241119448,"info":"直接查询获得"},{"name":"常绿镇","code":"330111109","level":4,"mergeName":"浙江省,杭州市,富阳区,常绿镇","lng":120.08656901406287,"lat":29.867898985423476,"info":"直接查询获得"},{"name":"场口镇","code":"330111110","level":4,"mergeName":"浙江省,杭州市,富阳区,场口镇","lng":119.87526105817332,"lat":29.90727100323866,"info":"直接查询获得"},{"name":"常安镇","code":"330111111","level":4,"mergeName":"浙江省,杭州市,富阳区,常安镇","lng":119.90668917473504,"lat":29.889185786343102,"info":"直接查询获得"},{"name":"龙门镇","code":"330111112","level":4,"mergeName":"浙江省,杭州市,富阳区,龙门镇","lng":119.95067802774695,"lat":29.911556960088568,"info":"直接查询获得"},{"name":"新登镇","code":"330111115","level":4,"mergeName":"浙江省,杭州市,富阳区,新登镇","lng":119.74097749973642,"lat":29.9735284638148,"info":"直接查询获得"},{"name":"胥口镇","code":"330111116","level":4,"mergeName":"浙江省,杭州市,富阳区,胥口镇","lng":119.67653557772732,"lat":29.989765412124807,"info":"直接查询获得"},{"name":"大源镇","code":"330111117","level":4,"mergeName":"浙江省,杭州市,富阳区,大源镇","lng":120.01680357067583,"lat":30.00694765457363,"info":"直接查询获得"},{"name":"灵桥镇","code":"330111118","level":4,"mergeName":"浙江省,杭州市,富阳区,灵桥镇","lng":120.03574003048726,"lat":30.033557236328743,"info":"直接查询获得"},{"name":"新桐乡","code":"330111200","level":4,"mergeName":"浙江省,杭州市,富阳区,新桐乡","lng":119.8299087570588,"lat":29.917480700057638,"info":"直接查询获得"},{"name":"上官乡","code":"330111201","level":4,"mergeName":"浙江省,杭州市,富阳区,上官乡","lng":119.9849899744864,"lat":29.903075966637253,"info":"直接查询获得"},{"name":"环山乡","code":"330111204","level":4,"mergeName":"浙江省,杭州市,富阳区,环山乡","lng":119.9336926875088,"lat":29.93229318724616,"info":"直接查询获得"},{"name":"湖源乡","code":"330111205","level":4,"mergeName":"浙江省,杭州市,富阳区,湖源乡","lng":119.96745216827503,"lat":29.804651064737588,"info":"直接查询获得"},{"name":"春建乡","code":"330111206","level":4,"mergeName":"浙江省,杭州市,富阳区,春建乡","lng":119.8364050496871,"lat":30.08029399469525,"info":"直接查询获得"},{"name":"渔山乡","code":"330111207","level":4,"mergeName":"浙江省,杭州市,富阳区,渔山乡","lng":120.09946231997363,"lat":30.06970731170266,"info":"直接查询获得"},{"name":"临安区","code":"330112","level":3,"mergeName":"浙江省,杭州市,临安区","lng":119.73151737122271,"lat":30.239805598053564,"info":"直接查询获得"},{"name":"玲珑街道","code":"330112002","level":4,"mergeName":"浙江省,杭州市,临安区,玲珑街道","lng":119.65749726669218,"lat":30.194368349856774,"info":"直接查询获得"},{"name":"锦南街道","code":"330112005","level":4,"mergeName":"浙江省,杭州市,临安区,锦南街道","lng":119.7234769979251,"lat":30.17585730699686,"info":"直接查询获得"},{"name":"锦城街道","code":"330112006","level":4,"mergeName":"浙江省,杭州市,临安区,锦城街道","lng":119.685805173872,"lat":30.239398967941266,"info":"直接查询获得"},{"name":"锦北街道","code":"330112007","level":4,"mergeName":"浙江省,杭州市,临安区,锦北街道","lng":119.72317103506839,"lat":30.24713076419312,"info":"直接查询获得"},{"name":"青山湖街道","code":"330112008","level":4,"mergeName":"浙江省,杭州市,临安区,青山湖街道","lng":119.82179824277264,"lat":30.254109025225663,"info":"直接查询获得"},{"name":"高虹镇","code":"330112102","level":4,"mergeName":"浙江省,杭州市,临安区,高虹镇","lng":119.73214456812978,"lat":30.324404713286985,"info":"直接查询获得"},{"name":"太湖源镇","code":"330112103","level":4,"mergeName":"浙江省,杭州市,临安区,太湖源镇","lng":119.60396679219984,"lat":30.272139840545364,"info":"直接查询获得"},{"name":"於潜镇","code":"330112104","level":4,"mergeName":"浙江省,杭州市,临安区,於潜镇","lng":119.39938849196848,"lat":30.193423617307978,"info":"直接查询获得"},{"name":"太阳镇","code":"330112106","level":4,"mergeName":"浙江省,杭州市,临安区,太阳镇","lng":119.30710359065631,"lat":30.188922238198497,"info":"直接查询获得"},{"name":"潜川镇","code":"330112107","level":4,"mergeName":"浙江省,杭州市,临安区,潜川镇","lng":119.40621040367235,"lat":30.097883507928003,"info":"直接查询获得"},{"name":"昌化镇","code":"330112108","level":4,"mergeName":"浙江省,杭州市,临安区,昌化镇","lng":119.22451508884943,"lat":30.168568463318053,"info":"直接查询获得"},{"name":"河桥镇","code":"330112109","level":4,"mergeName":"浙江省,杭州市,临安区,河桥镇","lng":119.25035709260771,"lat":30.112422620760665,"info":"直接查询获得"},{"name":"湍口镇","code":"330112111","level":4,"mergeName":"浙江省,杭州市,临安区,湍口镇","lng":119.17026875469618,"lat":30.04573488749018,"info":"直接查询获得"},{"name":"清凉峰镇","code":"330112112","level":4,"mergeName":"浙江省,杭州市,临安区,清凉峰镇","lng":119.04283702149226,"lat":30.135948162179066,"info":"直接查询获得"},{"name":"岛石镇","code":"330112113","level":4,"mergeName":"浙江省,杭州市,临安区,岛石镇","lng":118.95699189272004,"lat":30.29605351462091,"info":"直接查询获得"},{"name":"板桥镇","code":"330112115","level":4,"mergeName":"浙江省,杭州市,临安区,板桥镇","lng":119.79021903121378,"lat":30.167713171036254,"info":"直接查询获得"},{"name":"天目山镇","code":"330112116","level":4,"mergeName":"浙江省,杭州市,临安区,天目山镇","lng":119.49724989422548,"lat":30.206351830033256,"info":"直接查询获得"},{"name":"龙岗镇","code":"330112117","level":4,"mergeName":"浙江省,杭州市,临安区,龙岗镇","lng":119.06144546235183,"lat":30.23133788277477,"info":"直接查询获得"},{"name":"桐庐县","code":"330122","level":3,"mergeName":"浙江省,杭州市,桐庐县","lng":119.69759877582668,"lat":29.79858479014279,"info":"直接查询获得"},{"name":"旧县街道","code":"330122002","level":4,"mergeName":"浙江省,杭州市,桐庐县,旧县街道","lng":119.63457545787846,"lat":29.80615292971965,"info":"直接查询获得"},{"name":"桐君街道","code":"330122003","level":4,"mergeName":"浙江省,杭州市,桐庐县,桐君街道","lng":119.69850121354169,"lat":29.798795010993565,"info":"直接查询获得"},{"name":"城南街道","code":"330122004","level":4,"mergeName":"浙江省,杭州市,桐庐县,城南街道","lng":119.69291698717132,"lat":29.785343973579366,"info":"直接查询获得"},{"name":"凤川街道","code":"330122005","level":4,"mergeName":"浙江省,杭州市,桐庐县,凤川街道","lng":119.81059337492184,"lat":29.753445759429805,"info":"直接查询获得"},{"name":"富春江镇","code":"330122101","level":4,"mergeName":"浙江省,杭州市,桐庐县,富春江镇","lng":119.65693491082828,"lat":29.714914181811427,"info":"直接查询获得"},{"name":"横村镇","code":"330122102","level":4,"mergeName":"浙江省,杭州市,桐庐县,横村镇","lng":119.6207022970786,"lat":29.848725522828133,"info":"直接查询获得"},{"name":"分水镇","code":"330122109","level":4,"mergeName":"浙江省,杭州市,桐庐县,分水镇","lng":119.45270569218556,"lat":29.93331923475532,"info":"直接查询获得"},{"name":"瑶琳镇","code":"330122110","level":4,"mergeName":"浙江省,杭州市,桐庐县,瑶琳镇","lng":119.54530473090396,"lat":29.902767425052073,"info":"直接查询获得"},{"name":"百江镇","code":"330122112","level":4,"mergeName":"浙江省,杭州市,桐庐县,百江镇","lng":119.36440378770327,"lat":29.854242696906358,"info":"直接查询获得"},{"name":"江南镇","code":"330122113","level":4,"mergeName":"浙江省,杭州市,桐庐县,江南镇","lng":119.783858921716,"lat":29.86187548580958,"info":"直接查询获得"},{"name":"莪山畲族乡","code":"330122201","level":4,"mergeName":"浙江省,杭州市,桐庐县,莪山畲族乡","lng":119.58151443786316,"lat":29.801847119880495,"info":"直接查询获得"},{"name":"钟山乡","code":"330122202","level":4,"mergeName":"浙江省,杭州市,桐庐县,钟山乡","lng":119.53837313609961,"lat":29.77178115109552,"info":"直接查询获得"},{"name":"新合乡","code":"330122204","level":4,"mergeName":"浙江省,杭州市,桐庐县,新合乡","lng":119.91623699450577,"lat":29.697798994034432,"info":"直接查询获得"},{"name":"合村乡","code":"330122210","level":4,"mergeName":"浙江省,杭州市,桐庐县,合村乡","lng":119.31903675437837,"lat":29.94002533009574,"info":"直接查询获得"},{"name":"淳安县","code":"330127","level":3,"mergeName":"浙江省,杭州市,淳安县","lng":119.04839230601344,"lat":29.61495036603392,"info":"直接查询获得"},{"name":"千岛湖镇","code":"330127100","level":4,"mergeName":"浙江省,杭州市,淳安县,千岛湖镇","lng":119.08472678760793,"lat":29.61278733383699,"info":"直接查询获得"},{"name":"文昌镇","code":"330127101","level":4,"mergeName":"浙江省,杭州市,淳安县,文昌镇","lng":119.21175652905416,"lat":29.780849178448197,"info":"直接查询获得"},{"name":"石林镇","code":"330127102","level":4,"mergeName":"浙江省,杭州市,淳安县,石林镇","lng":119.09679956450529,"lat":29.47546214962025,"info":"直接查询获得"},{"name":"临岐镇","code":"330127103","level":4,"mergeName":"浙江省,杭州市,淳安县,临岐镇","lng":119.12695379402372,"lat":29.85317252140262,"info":"直接查询获得"},{"name":"威坪镇","code":"330127104","level":4,"mergeName":"浙江省,杭州市,淳安县,威坪镇","lng":118.80487147386891,"lat":29.757763172040676,"info":"直接查询获得"},{"name":"姜家镇","code":"330127106","level":4,"mergeName":"浙江省,杭州市,淳安县,姜家镇","lng":118.67322938278325,"lat":29.479582349313493,"info":"直接查询获得"},{"name":"梓桐镇","code":"330127107","level":4,"mergeName":"浙江省,杭州市,淳安县,梓桐镇","lng":118.76980566914577,"lat":29.61150275861066,"info":"直接查询获得"},{"name":"汾口镇","code":"330127108","level":4,"mergeName":"浙江省,杭州市,淳安县,汾口镇","lng":118.56494431291588,"lat":29.43419344253917,"info":"直接查询获得"},{"name":"中洲镇","code":"330127109","level":4,"mergeName":"浙江省,杭州市,淳安县,中洲镇","lng":118.46639624595961,"lat":29.496830546749543,"info":"直接查询获得"},{"name":"大墅镇","code":"330127110","level":4,"mergeName":"浙江省,杭州市,淳安县,大墅镇","lng":118.74530357789425,"lat":29.406168722583722,"info":"直接查询获得"},{"name":"枫树岭镇","code":"330127111","level":4,"mergeName":"浙江省,杭州市,淳安县,枫树岭镇","lng":118.7160989471301,"lat":29.373851314855287,"info":"直接查询获得"},{"name":"里商乡","code":"330127200","level":4,"mergeName":"浙江省,杭州市,淳安县,里商乡","lng":119.00796289875308,"lat":29.495624566253035,"info":"直接查询获得"},{"name":"金峰乡","code":"330127201","level":4,"mergeName":"浙江省,杭州市,淳安县,金峰乡","lng":118.9240790404285,"lat":29.683770960908625,"info":"直接查询获得"},{"name":"富文乡","code":"330127202","level":4,"mergeName":"浙江省,杭州市,淳安县,富文乡","lng":119.22680557176618,"lat":29.654581479830313,"info":"直接查询获得"},{"name":"左口乡","code":"330127203","level":4,"mergeName":"浙江省,杭州市,淳安县,左口乡","lng":119.08273102225708,"lat":29.703456725882347,"info":"直接查询获得"},{"name":"屏门乡","code":"330127205","level":4,"mergeName":"浙江省,杭州市,淳安县,屏门乡","lng":119.04734595975577,"lat":29.871579005678804,"info":"直接查询获得"},{"name":"瑶山乡","code":"330127206","level":4,"mergeName":"浙江省,杭州市,淳安县,瑶山乡","lng":119.08190062864391,"lat":29.967193064300123,"info":"直接查询获得"},{"name":"王阜乡","code":"330127208","level":4,"mergeName":"浙江省,杭州市,淳安县,王阜乡","lng":118.94567403538957,"lat":29.88688898877162,"info":"直接查询获得"},{"name":"宋村乡","code":"330127210","level":4,"mergeName":"浙江省,杭州市,淳安县,宋村乡","lng":118.868782856644,"lat":29.689665357190947,"info":"直接查询获得"},{"name":"鸠坑乡","code":"330127211","level":4,"mergeName":"浙江省,杭州市,淳安县,鸠坑乡","lng":118.78072771668522,"lat":29.67642804900562,"info":"直接查询获得"},{"name":"浪川乡","code":"330127212","level":4,"mergeName":"浙江省,杭州市,淳安县,浪川乡","lng":118.60552436601021,"lat":29.51350766309491,"info":"直接查询获得"},{"name":"界首乡","code":"330127214","level":4,"mergeName":"浙江省,杭州市,淳安县,界首乡","lng":118.80115895685852,"lat":29.550222030323944,"info":"直接查询获得"},{"name":"安阳乡","code":"330127216","level":4,"mergeName":"浙江省,杭州市,淳安县,安阳乡","lng":118.83844663042932,"lat":29.427969626368903,"info":"直接查询获得"},{"name":"建德市","code":"330182","level":3,"mergeName":"浙江省,杭州市,建德市","lng":119.28739807500521,"lat":29.48115402696838,"info":"直接查询获得"},{"name":"新安江街道","code":"330182001","level":4,"mergeName":"浙江省,杭州市,建德市,新安江街道","lng":119.28759067170648,"lat":29.48132490956635,"info":"直接查询获得"},{"name":"洋溪街道","code":"330182002","level":4,"mergeName":"浙江省,杭州市,建德市,洋溪街道","lng":119.34671839798142,"lat":29.521717345334952,"info":"直接查询获得"},{"name":"更楼街道","code":"330182003","level":4,"mergeName":"浙江省,杭州市,建德市,更楼街道","lng":119.26916660536402,"lat":29.436621885382962,"info":"直接查询获得"},{"name":"莲花镇","code":"330182101","level":4,"mergeName":"浙江省,杭州市,建德市,莲花镇","lng":119.31562840361354,"lat":29.57261958122255,"info":"直接查询获得"},{"name":"乾潭镇","code":"330182102","level":4,"mergeName":"浙江省,杭州市,建德市,乾潭镇","lng":119.55187053570478,"lat":29.622618842017033,"info":"直接查询获得"},{"name":"梅城镇","code":"330182104","level":4,"mergeName":"浙江省,杭州市,建德市,梅城镇","lng":119.51067702977788,"lat":29.547577023541805,"info":"直接查询获得"},{"name":"杨村桥镇","code":"330182105","level":4,"mergeName":"浙江省,杭州市,建德市,杨村桥镇","lng":119.44216829906534,"lat":29.571219282473542,"info":"直接查询获得"},{"name":"下涯镇","code":"330182106","level":4,"mergeName":"浙江省,杭州市,建德市,下涯镇","lng":119.3820184807815,"lat":29.541226695220224,"info":"直接查询获得"},{"name":"大洋镇","code":"330182107","level":4,"mergeName":"浙江省,杭州市,建德市,大洋镇","lng":119.51853594535987,"lat":29.44639349214406,"info":"直接查询获得"},{"name":"三都镇","code":"330182108","level":4,"mergeName":"浙江省,杭州市,建德市,三都镇","lng":119.57995839305929,"lat":29.54261649487081,"info":"直接查询获得"},{"name":"寿昌镇","code":"330182109","level":4,"mergeName":"浙江省,杭州市,建德市,寿昌镇","lng":119.22866147094919,"lat":29.36461077230074,"info":"直接查询获得"},{"name":"航头镇","code":"330182110","level":4,"mergeName":"浙江省,杭州市,建德市,航头镇","lng":119.1912828888608,"lat":29.338363591502304,"info":"直接查询获得"},{"name":"大慈岩镇","code":"330182111","level":4,"mergeName":"浙江省,杭州市,建德市,大慈岩镇","lng":119.30442671356892,"lat":29.294811904205385,"info":"直接查询获得"},{"name":"大同镇","code":"330182112","level":4,"mergeName":"浙江省,杭州市,建德市,大同镇","lng":119.10591601797029,"lat":29.31265206414133,"info":"直接查询获得"},{"name":"李家镇","code":"330182113","level":4,"mergeName":"浙江省,杭州市,建德市,李家镇","lng":119.04619711683944,"lat":29.32944082334401,"info":"直接查询获得"},{"name":"钦堂乡","code":"330182202","level":4,"mergeName":"浙江省,杭州市,建德市,钦堂乡","lng":119.57401852753762,"lat":29.718563896631274,"info":"直接查询获得"},{"name":"宁波市","code":"3302","level":2,"mergeName":"浙江省,宁波市","lng":121.62857249434141,"lat":29.866033045866054,"info":"直接查询获得"},{"name":"海曙区","code":"330203","level":3,"mergeName":"浙江省,宁波市,海曙区","lng":121.55740307253974,"lat":29.86572070836559,"info":"直接查询获得"},{"name":"南门街道","code":"330203001","level":4,"mergeName":"浙江省,宁波市,海曙区,南门街道","lng":121.53954700477105,"lat":29.877006982917983,"info":"直接查询获得"},{"name":"江厦街道","code":"330203002","level":4,"mergeName":"浙江省,宁波市,海曙区,江厦街道","lng":121.56145802361044,"lat":29.869207964321532,"info":"直接查询获得"},{"name":"西门街道","code":"330203003","level":4,"mergeName":"浙江省,宁波市,海曙区,西门街道","lng":121.53962713362252,"lat":29.88887696646741,"info":"直接查询获得"},{"name":"月湖街道","code":"330203004","level":4,"mergeName":"浙江省,宁波市,海曙区,月湖街道","lng":121.55357224869371,"lat":29.86737462168104,"info":"直接查询获得"},{"name":"鼓楼街道","code":"330203005","level":4,"mergeName":"浙江省,宁波市,海曙区,鼓楼街道","lng":121.55728880807892,"lat":29.880791569537703,"info":"直接查询获得"},{"name":"白云街道","code":"330203006","level":4,"mergeName":"浙江省,宁波市,海曙区,白云街道","lng":121.52478434185551,"lat":29.875797929540028,"info":"直接查询获得"},{"name":"段塘街道","code":"330203007","level":4,"mergeName":"浙江省,宁波市,海曙区,段塘街道","lng":121.52864471995282,"lat":29.84295209830769,"info":"直接查询获得"},{"name":"望春街道","code":"330203008","level":4,"mergeName":"浙江省,宁波市,海曙区,望春街道","lng":121.52813996208693,"lat":29.897037236354816,"info":"直接查询获得"},{"name":"石碶街道","code":"330203009","level":4,"mergeName":"浙江省,宁波市,海曙区,石碶街道","lng":121.51143129994576,"lat":29.833446750189104,"info":"直接查询获得"},{"name":"高桥镇","code":"330203100","level":4,"mergeName":"浙江省,宁波市,海曙区,高桥镇","lng":121.48253002695222,"lat":29.90774796035385,"info":"直接查询获得"},{"name":"横街镇","code":"330203101","level":4,"mergeName":"浙江省,宁波市,海曙区,横街镇","lng":121.4052959649936,"lat":29.85987396584364,"info":"直接查询获得"},{"name":"集士港镇","code":"330203102","level":4,"mergeName":"浙江省,宁波市,海曙区,集士港镇","lng":121.45154720043166,"lat":29.868429453600793,"info":"直接查询获得"},{"name":"古林镇","code":"330203103","level":4,"mergeName":"浙江省,宁波市,海曙区,古林镇","lng":121.44222755026037,"lat":29.841588261573424,"info":"直接查询获得"},{"name":"洞桥镇","code":"330203104","level":4,"mergeName":"浙江省,宁波市,海曙区,洞桥镇","lng":121.41801381507746,"lat":29.78654958813649,"info":"直接查询获得"},{"name":"鄞江镇","code":"330203105","level":4,"mergeName":"浙江省,宁波市,海曙区,鄞江镇","lng":121.37568017979768,"lat":29.786304940076953,"info":"直接查询获得"},{"name":"章水镇","code":"330203106","level":4,"mergeName":"浙江省,宁波市,海曙区,章水镇","lng":121.30698999137219,"lat":29.821378968668242,"info":"直接查询获得"},{"name":"龙观乡","code":"330203200","level":4,"mergeName":"浙江省,宁波市,海曙区,龙观乡","lng":121.31988983815232,"lat":29.773093674924453,"info":"直接查询获得"},{"name":"江北区","code":"330205","level":3,"mergeName":"浙江省,宁波市,江北区","lng":121.56042128922172,"lat":29.89294837947611,"info":"直接查询获得"},{"name":"外滩街道","code":"330205001","level":4,"mergeName":"浙江省,宁波市,江北区,外滩街道","lng":121.56042128922172,"lat":29.89294837947611,"info":"直接查询获得"},{"name":"孔浦街道","code":"330205003","level":4,"mergeName":"浙江省,宁波市,江北区,孔浦街道","lng":121.60187198001604,"lat":29.90972495195382,"info":"直接查询获得"},{"name":"文教街道","code":"330205004","level":4,"mergeName":"浙江省,宁波市,江北区,文教街道","lng":121.54997696055231,"lat":29.904662960310517,"info":"直接查询获得"},{"name":"甬江街道","code":"330205005","level":4,"mergeName":"浙江省,宁波市,江北区,甬江街道","lng":121.58446704127432,"lat":29.907278986458458,"info":"直接查询获得"},{"name":"庄桥街道","code":"330205006","level":4,"mergeName":"浙江省,宁波市,江北区,庄桥街道","lng":121.5538309606805,"lat":29.929364984658548,"info":"直接查询获得"},{"name":"洪塘街道","code":"330205007","level":4,"mergeName":"浙江省,宁波市,江北区,洪塘街道","lng":121.5155794052978,"lat":29.949338211366026,"info":"直接查询获得"},{"name":"前江街道","code":"330205008","level":4,"mergeName":"浙江省,宁波市,江北区,前江街道","lng":121.56042128922172,"lat":29.89294837947611,"info":"直接查询获得"},{"name":"慈城镇","code":"330205103","level":4,"mergeName":"浙江省,宁波市,江北区,慈城镇","lng":121.45644485190101,"lat":29.984417470429943,"info":"直接查询获得"},{"name":"北仑区","code":"330206","level":3,"mergeName":"浙江省,宁波市,北仑区","lng":121.85057621461253,"lat":29.90465935993949,"info":"直接查询获得"},{"name":"大榭街道","code":"330206001","level":4,"mergeName":"浙江省,宁波市,北仑区,大榭街道","lng":121.97159835830168,"lat":29.90813937027018,"info":"直接查询获得"},{"name":"新碶街道","code":"330206002","level":4,"mergeName":"浙江省,宁波市,北仑区,新碶街道","lng":121.84579076150136,"lat":29.91823479857388,"info":"直接查询获得"},{"name":"小港街道","code":"330206003","level":4,"mergeName":"浙江省,宁波市,北仑区,小港街道","lng":121.72859171623088,"lat":29.944617256931117,"info":"直接查询获得"},{"name":"大碶街道","code":"330206004","level":4,"mergeName":"浙江省,宁波市,北仑区,大碶街道","lng":121.80892942372544,"lat":29.901141265019735,"info":"直接查询获得"},{"name":"霞浦街道","code":"330206005","level":4,"mergeName":"浙江省,宁波市,北仑区,霞浦街道","lng":121.87797300553844,"lat":29.892102970972488,"info":"直接查询获得"},{"name":"柴桥街道","code":"330206006","level":4,"mergeName":"浙江省,宁波市,北仑区,柴桥街道","lng":121.92956170282338,"lat":29.881813220994662,"info":"直接查询获得"},{"name":"戚家山街道","code":"330206007","level":4,"mergeName":"浙江省,宁波市,北仑区,戚家山街道","lng":121.74757875063625,"lat":29.957901350838668,"info":"直接查询获得"},{"name":"春晓街道","code":"330206008","level":4,"mergeName":"浙江省,宁波市,北仑区,春晓街道","lng":121.91131918402442,"lat":29.76746538253917,"info":"直接查询获得"},{"name":"梅山街道","code":"330206009","level":4,"mergeName":"浙江省,宁波市,北仑区,梅山街道","lng":122.00791397548045,"lat":29.800092995375497,"info":"直接查询获得"},{"name":"郭巨街道","code":"330206010","level":4,"mergeName":"浙江省,宁波市,北仑区,郭巨街道","lng":121.85057621461253,"lat":29.90465935993949,"info":"直接查询获得"},{"name":"白峰街道","code":"330206011","level":4,"mergeName":"浙江省,宁波市,北仑区,白峰街道","lng":122.0030942070988,"lat":29.887878324831625,"info":"直接查询获得"},{"name":"保税区","code":"330206401","level":4,"mergeName":"浙江省,宁波市,北仑区,保税区","lng":121.70284726845948,"lat":29.935931057633795,"info":"直接查询获得"},{"name":"镇海区","code":"330211","level":3,"mergeName":"浙江省,宁波市,镇海区","lng":121.72251899132434,"lat":29.9548849633495,"info":"直接查询获得"},{"name":"招宝山街道","code":"330211001","level":4,"mergeName":"浙江省,宁波市,镇海区,招宝山街道","lng":121.71343469719658,"lat":29.956602388800885,"info":"直接查询获得"},{"name":"蛟川街道","code":"330211002","level":4,"mergeName":"浙江省,宁波市,镇海区,蛟川街道","lng":121.6862036436372,"lat":29.947412319620522,"info":"直接查询获得"},{"name":"骆驼街道","code":"330211003","level":4,"mergeName":"浙江省,宁波市,镇海区,骆驼街道","lng":121.58887044505222,"lat":29.98612249324947,"info":"直接查询获得"},{"name":"庄市街道","code":"330211004","level":4,"mergeName":"浙江省,宁波市,镇海区,庄市街道","lng":121.62703657158094,"lat":29.925579366259683,"info":"直接查询获得"},{"name":"贵驷街道","code":"330211005","level":4,"mergeName":"浙江省,宁波市,镇海区,贵驷街道","lng":121.72251899132434,"lat":29.9548849633495,"info":"直接查询获得"},{"name":"澥浦镇","code":"330211100","level":4,"mergeName":"浙江省,宁波市,镇海区,澥浦镇","lng":121.6371408379176,"lat":30.030561704158693,"info":"直接查询获得"},{"name":"九龙湖镇","code":"330211101","level":4,"mergeName":"浙江省,宁波市,镇海区,九龙湖镇","lng":121.55853199031657,"lat":30.039457295110626,"info":"直接查询获得"},{"name":"鄞州区","code":"330212","level":3,"mergeName":"浙江省,宁波市,鄞州区","lng":121.55542706991011,"lat":29.824206349995904,"info":"直接查询获得"},{"name":"下应街道","code":"330212001","level":4,"mergeName":"浙江省,宁波市,鄞州区,下应街道","lng":121.59622819599038,"lat":29.802008991694358,"info":"直接查询获得"},{"name":"钟公庙街道","code":"330212002","level":4,"mergeName":"浙江省,宁波市,鄞州区,钟公庙街道","lng":121.54409725814386,"lat":29.838141617253694,"info":"直接查询获得"},{"name":"梅墟街道","code":"330212004","level":4,"mergeName":"浙江省,宁波市,鄞州区,梅墟街道","lng":121.66393402123836,"lat":29.902128971020275,"info":"直接查询获得"},{"name":"中河街道","code":"330212005","level":4,"mergeName":"浙江省,宁波市,鄞州区,中河街道","lng":121.58090103789254,"lat":29.832972958736715,"info":"直接查询获得"},{"name":"首南街道","code":"330212006","level":4,"mergeName":"浙江省,宁波市,鄞州区,首南街道","lng":121.55846900185753,"lat":29.81518796382141,"info":"直接查询获得"},{"name":"潘火街道","code":"330212007","level":4,"mergeName":"浙江省,宁波市,鄞州区,潘火街道","lng":121.61582482051462,"lat":29.826893830530583,"info":"直接查询获得"},{"name":"百丈街道","code":"330212008","level":4,"mergeName":"浙江省,宁波市,鄞州区,百丈街道","lng":121.57825696545534,"lat":29.870903942341712,"info":"直接查询获得"},{"name":"东胜街道","code":"330212009","level":4,"mergeName":"浙江省,宁波市,鄞州区,东胜街道","lng":121.58218013510778,"lat":29.876988349688087,"info":"直接查询获得"},{"name":"明楼街道","code":"330212010","level":4,"mergeName":"浙江省,宁波市,鄞州区,明楼街道","lng":121.58296417615662,"lat":29.888557107904262,"info":"直接查询获得"},{"name":"白鹤街道","code":"330212011","level":4,"mergeName":"浙江省,宁波市,鄞州区,白鹤街道","lng":121.56412500283814,"lat":29.859955950576754,"info":"直接查询获得"},{"name":"东柳街道","code":"330212012","level":4,"mergeName":"浙江省,宁波市,鄞州区,东柳街道","lng":121.59196043634444,"lat":29.86302473036477,"info":"直接查询获得"},{"name":"东郊街道","code":"330212013","level":4,"mergeName":"浙江省,宁波市,鄞州区,东郊街道","lng":121.57550492927216,"lat":29.854939789965307,"info":"直接查询获得"},{"name":"福明街道","code":"330212014","level":4,"mergeName":"浙江省,宁波市,鄞州区,福明街道","lng":121.60911986819036,"lat":29.86891395842939,"info":"直接查询获得"},{"name":"新明街道","code":"330212015","level":4,"mergeName":"浙江省,宁波市,鄞州区,新明街道","lng":121.62613727793521,"lat":29.88379629066203,"info":"直接查询获得"},{"name":"聚贤街道","code":"330212016","level":4,"mergeName":"浙江省,宁波市,鄞州区,聚贤街道","lng":121.55542706991011,"lat":29.824206349995904,"info":"直接查询获得"},{"name":"瞻岐镇","code":"330212100","level":4,"mergeName":"浙江省,宁波市,鄞州区,瞻岐镇","lng":121.8330410215719,"lat":29.725710964493846,"info":"直接查询获得"},{"name":"咸祥镇","code":"330212101","level":4,"mergeName":"浙江省,宁波市,鄞州区,咸祥镇","lng":121.7814606785282,"lat":29.693186657752655,"info":"直接查询获得"},{"name":"塘溪镇","code":"330212102","level":4,"mergeName":"浙江省,宁波市,鄞州区,塘溪镇","lng":121.72077726677162,"lat":29.667824909970687,"info":"直接查询获得"},{"name":"东钱湖镇","code":"330212103","level":4,"mergeName":"浙江省,宁波市,鄞州区,东钱湖镇","lng":121.64112496638093,"lat":29.795207953739666,"info":"直接查询获得"},{"name":"东吴镇","code":"330212104","level":4,"mergeName":"浙江省,宁波市,鄞州区,东吴镇","lng":121.74750212517628,"lat":29.822538084150402,"info":"直接查询获得"},{"name":"五乡镇","code":"330212105","level":4,"mergeName":"浙江省,宁波市,鄞州区,五乡镇","lng":121.70177055947556,"lat":29.851758471793158,"info":"直接查询获得"},{"name":"邱隘镇","code":"330212106","level":4,"mergeName":"浙江省,宁波市,鄞州区,邱隘镇","lng":121.6464061943029,"lat":29.85184077650342,"info":"直接查询获得"},{"name":"云龙镇","code":"330212108","level":4,"mergeName":"浙江省,宁波市,鄞州区,云龙镇","lng":121.60709320112997,"lat":29.7790809676437,"info":"直接查询获得"},{"name":"横溪镇","code":"330212109","level":4,"mergeName":"浙江省,宁波市,鄞州区,横溪镇","lng":121.6019680987056,"lat":29.7356424224987,"info":"直接查询获得"},{"name":"姜山镇","code":"330212110","level":4,"mergeName":"浙江省,宁波市,鄞州区,姜山镇","lng":121.53578472163542,"lat":29.776957631029205,"info":"直接查询获得"},{"name":"奉化区","code":"330213","level":3,"mergeName":"浙江省,宁波市,奉化区","lng":121.41352776719268,"lat":29.661146412779814,"info":"直接查询获得"},{"name":"锦屏街道","code":"330213001","level":4,"mergeName":"浙江省,宁波市,奉化区,锦屏街道","lng":121.41638931939376,"lat":29.68191206397305,"info":"直接查询获得"},{"name":"岳林街道","code":"330213002","level":4,"mergeName":"浙江省,宁波市,奉化区,岳林街道","lng":121.44650114889212,"lat":29.666456937650544,"info":"直接查询获得"},{"name":"江口街道","code":"330213003","level":4,"mergeName":"浙江省,宁波市,奉化区,江口街道","lng":121.41273887529407,"lat":29.730524238167636,"info":"直接查询获得"},{"name":"西坞街道","code":"330213004","level":4,"mergeName":"浙江省,宁波市,奉化区,西坞街道","lng":121.49147939559242,"lat":29.68190594525255,"info":"直接查询获得"},{"name":"萧王庙街道","code":"330213005","level":4,"mergeName":"浙江省,宁波市,奉化区,萧王庙街道","lng":121.37770999092737,"lat":29.702568993779952,"info":"直接查询获得"},{"name":"方桥街道","code":"330213006","level":4,"mergeName":"浙江省,宁波市,奉化区,方桥街道","lng":121.41352776719268,"lat":29.661146412779814,"info":"直接查询获得"},{"name":"尚田街道","code":"330213007","level":4,"mergeName":"浙江省,宁波市,奉化区,尚田街道","lng":121.41352776719268,"lat":29.661146412779814,"info":"直接查询获得"},{"name":"莼湖街道","code":"330213008","level":4,"mergeName":"浙江省,宁波市,奉化区,莼湖街道","lng":121.41352776719268,"lat":29.661146412779814,"info":"直接查询获得"},{"name":"溪口镇","code":"330213100","level":4,"mergeName":"浙江省,宁波市,奉化区,溪口镇","lng":121.28923588127886,"lat":29.69561948492879,"info":"直接查询获得"},{"name":"裘村镇","code":"330213106","level":4,"mergeName":"浙江省,宁波市,奉化区,裘村镇","lng":121.62781441432178,"lat":29.607233570240755,"info":"直接查询获得"},{"name":"大堰镇","code":"330213107","level":4,"mergeName":"浙江省,宁波市,奉化区,大堰镇","lng":121.31385367428001,"lat":29.51114590827141,"info":"直接查询获得"},{"name":"松岙镇","code":"330213108","level":4,"mergeName":"浙江省,宁波市,奉化区,松岙镇","lng":121.69221788885508,"lat":29.607443018528695,"info":"直接查询获得"},{"name":"象山县","code":"330225","level":3,"mergeName":"浙江省,宁波市,象山县","lng":121.87556392982258,"lat":29.482270653805347,"info":"直接查询获得"},{"name":"丹东街道","code":"330225001","level":4,"mergeName":"浙江省,宁波市,象山县,丹东街道","lng":121.90829216394845,"lat":29.47044097776838,"info":"直接查询获得"},{"name":"丹西街道","code":"330225002","level":4,"mergeName":"浙江省,宁波市,象山县,丹西街道","lng":121.87888316868086,"lat":29.45358042297013,"info":"直接查询获得"},{"name":"爵溪街道","code":"330225003","level":4,"mergeName":"浙江省,宁波市,象山县,爵溪街道","lng":121.95505282844104,"lat":29.47702485211303,"info":"直接查询获得"},{"name":"石浦镇","code":"330225101","level":4,"mergeName":"浙江省,宁波市,象山县,石浦镇","lng":121.93783545588974,"lat":29.209753685325897,"info":"直接查询获得"},{"name":"西周镇","code":"330225102","level":4,"mergeName":"浙江省,宁波市,象山县,西周镇","lng":121.6817769737466,"lat":29.487040269574813,"info":"直接查询获得"},{"name":"鹤浦镇","code":"330225103","level":4,"mergeName":"浙江省,宁波市,象山县,鹤浦镇","lng":121.90421861795369,"lat":29.156081274783958,"info":"直接查询获得"},{"name":"贤庠镇","code":"330225104","level":4,"mergeName":"浙江省,宁波市,象山县,贤庠镇","lng":121.85297828354543,"lat":29.59489183119856,"info":"直接查询获得"},{"name":"墙头镇","code":"330225105","level":4,"mergeName":"浙江省,宁波市,象山县,墙头镇","lng":121.78841518012307,"lat":29.469124622738182,"info":"直接查询获得"},{"name":"泗洲头镇","code":"330225106","level":4,"mergeName":"浙江省,宁波市,象山县,泗洲头镇","lng":121.7794967131924,"lat":29.377984099857322,"info":"直接查询获得"},{"name":"定塘镇","code":"330225107","level":4,"mergeName":"浙江省,宁波市,象山县,定塘镇","lng":121.8511815826955,"lat":29.23518541465073,"info":"直接查询获得"},{"name":"涂茨镇","code":"330225108","level":4,"mergeName":"浙江省,宁波市,象山县,涂茨镇","lng":121.94558864091324,"lat":29.566941303650342,"info":"直接查询获得"},{"name":"大徐镇","code":"330225109","level":4,"mergeName":"浙江省,宁波市,象山县,大徐镇","lng":121.89061475656935,"lat":29.5310493275412,"info":"直接查询获得"},{"name":"新桥镇","code":"330225110","level":4,"mergeName":"浙江省,宁波市,象山县,新桥镇","lng":121.87310374052322,"lat":29.31998025799156,"info":"直接查询获得"},{"name":"东陈乡","code":"330225200","level":4,"mergeName":"浙江省,宁波市,象山县,东陈乡","lng":121.89558159013922,"lat":29.39913786004641,"info":"直接查询获得"},{"name":"晓塘乡","code":"330225201","level":4,"mergeName":"浙江省,宁波市,象山县,晓塘乡","lng":121.85267583396167,"lat":29.20653189260178,"info":"直接查询获得"},{"name":"黄避岙乡","code":"330225202","level":4,"mergeName":"浙江省,宁波市,象山县,黄避岙乡","lng":121.80234960535869,"lat":29.579888788354893,"info":"直接查询获得"},{"name":"茅洋乡","code":"330225203","level":4,"mergeName":"浙江省,宁波市,象山县,茅洋乡","lng":121.83712579638554,"lat":29.398846240681415,"info":"直接查询获得"},{"name":"高塘岛乡","code":"330225204","level":4,"mergeName":"浙江省,宁波市,象山县,高塘岛乡","lng":121.84548542745863,"lat":29.121242403625224,"info":"直接查询获得"},{"name":"宁海县","code":"330226","level":3,"mergeName":"浙江省,宁波市,宁海县","lng":121.43643177294247,"lat":29.294317441105566,"info":"直接查询获得"},{"name":"跃龙街道","code":"330226001","level":4,"mergeName":"浙江省,宁波市,宁海县,跃龙街道","lng":121.44043498161581,"lat":29.30145105171706,"info":"直接查询获得"},{"name":"桃源街道","code":"330226002","level":4,"mergeName":"浙江省,宁波市,宁海县,桃源街道","lng":121.46236872758459,"lat":29.342357567759045,"info":"直接查询获得"},{"name":"梅林街道","code":"330226003","level":4,"mergeName":"浙江省,宁波市,宁海县,梅林街道","lng":121.4493282959922,"lat":29.383534054083572,"info":"直接查询获得"},{"name":"桥头胡街道","code":"330226004","level":4,"mergeName":"浙江省,宁波市,宁海县,桥头胡街道","lng":121.49584201630019,"lat":29.3860580541903,"info":"直接查询获得"},{"name":"长街镇","code":"330226101","level":4,"mergeName":"浙江省,宁波市,宁海县,长街镇","lng":121.71982299682868,"lat":29.25390149767881,"info":"直接查询获得"},{"name":"力洋镇","code":"330226102","level":4,"mergeName":"浙江省,宁波市,宁海县,力洋镇","lng":121.62816610092882,"lat":29.309720810937524,"info":"直接查询获得"},{"name":"一市镇","code":"330226104","level":4,"mergeName":"浙江省,宁波市,宁海县,一市镇","lng":121.485756740343,"lat":29.206269464507553,"info":"直接查询获得"},{"name":"岔路镇","code":"330226105","level":4,"mergeName":"浙江省,宁波市,宁海县,岔路镇","lng":121.32133125917315,"lat":29.208304903356908,"info":"直接查询获得"},{"name":"前童镇","code":"330226106","level":4,"mergeName":"浙江省,宁波市,宁海县,前童镇","lng":121.35486419537459,"lat":29.234538821471038,"info":"直接查询获得"},{"name":"桑洲镇","code":"330226107","level":4,"mergeName":"浙江省,宁波市,宁海县,桑洲镇","lng":121.32445215217489,"lat":29.16026625338178,"info":"直接查询获得"},{"name":"黄坛镇","code":"330226108","level":4,"mergeName":"浙江省,宁波市,宁海县,黄坛镇","lng":121.37123599294964,"lat":29.293872036376374,"info":"直接查询获得"},{"name":"大佳何镇","code":"330226109","level":4,"mergeName":"浙江省,宁波市,宁海县,大佳何镇","lng":121.56176317799209,"lat":29.43166836910316,"info":"直接查询获得"},{"name":"强蛟镇","code":"330226110","level":4,"mergeName":"浙江省,宁波市,宁海县,强蛟镇","lng":121.53738810713963,"lat":29.463787567579498,"info":"直接查询获得"},{"name":"西店镇","code":"330226111","level":4,"mergeName":"浙江省,宁波市,宁海县,西店镇","lng":121.44259998772469,"lat":29.486365029260583,"info":"直接查询获得"},{"name":"深甽镇","code":"330226112","level":4,"mergeName":"浙江省,宁波市,宁海县,深甽镇","lng":121.35511679888393,"lat":29.421428860437732,"info":"直接查询获得"},{"name":"胡陈乡","code":"330226200","level":4,"mergeName":"浙江省,宁波市,宁海县,胡陈乡","lng":121.68346039827175,"lat":29.33214487120958,"info":"直接查询获得"},{"name":"茶院乡","code":"330226201","level":4,"mergeName":"浙江省,宁波市,宁海县,茶院乡","lng":121.57942045075148,"lat":29.321035377111883,"info":"直接查询获得"},{"name":"越溪乡","code":"330226202","level":4,"mergeName":"浙江省,宁波市,宁海县,越溪乡","lng":121.52816502481065,"lat":29.270181095628384,"info":"直接查询获得"},{"name":"余姚市","code":"330281","level":3,"mergeName":"浙江省,宁波市,余姚市","lng":121.16058507482123,"lat":30.042734639570824,"info":"直接查询获得"},{"name":"梨洲街道","code":"330281001","level":4,"mergeName":"浙江省,宁波市,余姚市,梨洲街道","lng":121.18001730944361,"lat":30.023316431370862,"info":"直接查询获得"},{"name":"凤山街道","code":"330281002","level":4,"mergeName":"浙江省,宁波市,余姚市,凤山街道","lng":121.18879258647894,"lat":30.073333610940658,"info":"直接查询获得"},{"name":"兰江街道","code":"330281003","level":4,"mergeName":"浙江省,宁波市,余姚市,兰江街道","lng":121.12224979735237,"lat":30.026311332090284,"info":"直接查询获得"},{"name":"阳明街道","code":"330281004","level":4,"mergeName":"浙江省,宁波市,余姚市,阳明街道","lng":121.14678503608529,"lat":30.04935761902837,"info":"直接查询获得"},{"name":"低塘街道","code":"330281005","level":4,"mergeName":"浙江省,宁波市,余姚市,低塘街道","lng":121.15728892241346,"lat":30.173863817857626,"info":"直接查询获得"},{"name":"朗霞街道","code":"330281006","level":4,"mergeName":"浙江省,宁波市,余姚市,朗霞街道","lng":121.14461931133128,"lat":30.14688191021491,"info":"直接查询获得"},{"name":"临山镇","code":"330281100","level":4,"mergeName":"浙江省,宁波市,余姚市,临山镇","lng":120.98552328176552,"lat":30.17548013214149,"info":"直接查询获得"},{"name":"黄家埠镇","code":"330281101","level":4,"mergeName":"浙江省,宁波市,余姚市,黄家埠镇","lng":120.96310117110069,"lat":30.1426519774937,"info":"直接查询获得"},{"name":"小曹娥镇","code":"330281102","level":4,"mergeName":"浙江省,宁波市,余姚市,小曹娥镇","lng":121.07406937176546,"lat":30.25614141797949,"info":"直接查询获得"},{"name":"泗门镇","code":"330281103","level":4,"mergeName":"浙江省,宁波市,余姚市,泗门镇","lng":121.04839444205236,"lat":30.1658138911043,"info":"直接查询获得"},{"name":"马渚镇","code":"330281106","level":4,"mergeName":"浙江省,宁波市,余姚市,马渚镇","lng":121.05674329346209,"lat":30.07801923771648,"info":"直接查询获得"},{"name":"牟山镇","code":"330281108","level":4,"mergeName":"浙江省,宁波市,余姚市,牟山镇","lng":121.00666213246697,"lat":30.080473144700466,"info":"直接查询获得"},{"name":"丈亭镇","code":"330281109","level":4,"mergeName":"浙江省,宁波市,余姚市,丈亭镇","lng":121.28819763692428,"lat":30.036110900175018,"info":"直接查询获得"},{"name":"三七市镇","code":"330281110","level":4,"mergeName":"浙江省,宁波市,余姚市,三七市镇","lng":121.34942632014548,"lat":30.031645579632805,"info":"直接查询获得"},{"name":"河姆渡镇","code":"330281111","level":4,"mergeName":"浙江省,宁波市,余姚市,河姆渡镇","lng":121.32171896783113,"lat":29.995270942540984,"info":"直接查询获得"},{"name":"大隐镇","code":"330281112","level":4,"mergeName":"浙江省,宁波市,余姚市,大隐镇","lng":121.38107432472222,"lat":29.947270557728725,"info":"直接查询获得"},{"name":"陆埠镇","code":"330281113","level":4,"mergeName":"浙江省,宁波市,余姚市,陆埠镇","lng":121.25324904391663,"lat":29.999431008988417,"info":"直接查询获得"},{"name":"梁弄镇","code":"330281114","level":4,"mergeName":"浙江省,宁波市,余姚市,梁弄镇","lng":121.0922879677754,"lat":29.925787908493128,"info":"直接查询获得"},{"name":"大岚镇","code":"330281115","level":4,"mergeName":"浙江省,宁波市,余姚市,大岚镇","lng":121.13697597196553,"lat":29.82709216337229,"info":"直接查询获得"},{"name":"四明山镇","code":"330281116","level":4,"mergeName":"浙江省,宁波市,余姚市,四明山镇","lng":121.1258735446797,"lat":29.74195458319206,"info":"直接查询获得"},{"name":"鹿亭乡","code":"330281201","level":4,"mergeName":"浙江省,宁波市,余姚市,鹿亭乡","lng":121.2112800308432,"lat":29.883150041826752,"info":"直接查询获得"},{"name":"慈溪市","code":"330282","level":3,"mergeName":"浙江省,宁波市,慈溪市","lng":121.27259613631863,"lat":30.175256610720446,"info":"直接查询获得"},{"name":"宗汉街道","code":"330282002","level":4,"mergeName":"浙江省,宁波市,慈溪市,宗汉街道","lng":121.23382778576341,"lat":30.203169467789774,"info":"直接查询获得"},{"name":"坎墩街道","code":"330282003","level":4,"mergeName":"浙江省,宁波市,慈溪市,坎墩街道","lng":121.26552485500518,"lat":30.22140507630489,"info":"直接查询获得"},{"name":"浒山街道","code":"330282004","level":4,"mergeName":"浙江省,宁波市,慈溪市,浒山街道","lng":121.24473959262366,"lat":30.171823142148618,"info":"直接查询获得"},{"name":"白沙路街道","code":"330282005","level":4,"mergeName":"浙江省,宁波市,慈溪市,白沙路街道","lng":121.29545289120617,"lat":30.17379856435312,"info":"直接查询获得"},{"name":"古塘街道","code":"330282006","level":4,"mergeName":"浙江省,宁波市,慈溪市,古塘街道","lng":121.26919973301595,"lat":30.178411551768907,"info":"直接查询获得"},{"name":"掌起镇","code":"330282104","level":4,"mergeName":"浙江省,宁波市,慈溪市,掌起镇","lng":121.46245992280491,"lat":30.123507693190213,"info":"直接查询获得"},{"name":"观海卫镇","code":"330282107","level":4,"mergeName":"浙江省,宁波市,慈溪市,观海卫镇","lng":121.43085600784451,"lat":30.176484147101327,"info":"直接查询获得"},{"name":"附海镇","code":"330282108","level":4,"mergeName":"浙江省,宁波市,慈溪市,附海镇","lng":121.43137423041186,"lat":30.23987558418048,"info":"直接查询获得"},{"name":"桥头镇","code":"330282109","level":4,"mergeName":"浙江省,宁波市,慈溪市,桥头镇","lng":121.36469436974582,"lat":30.165793829465134,"info":"直接查询获得"},{"name":"匡堰镇","code":"330282110","level":4,"mergeName":"浙江省,宁波市,慈溪市,匡堰镇","lng":121.31140428180794,"lat":30.162831296773284,"info":"直接查询获得"},{"name":"逍林镇","code":"330282111","level":4,"mergeName":"浙江省,宁波市,慈溪市,逍林镇","lng":121.32838827459344,"lat":30.181537278778464,"info":"直接查询获得"},{"name":"新浦镇","code":"330282112","level":4,"mergeName":"浙江省,宁波市,慈溪市,新浦镇","lng":121.37432133023515,"lat":30.252149035576775,"info":"直接查询获得"},{"name":"胜山镇","code":"330282113","level":4,"mergeName":"浙江省,宁波市,慈溪市,胜山镇","lng":121.33634798005626,"lat":30.24015309454372,"info":"直接查询获得"},{"name":"横河镇","code":"330282114","level":4,"mergeName":"浙江省,宁波市,慈溪市,横河镇","lng":121.2486893521205,"lat":30.137025725411217,"info":"直接查询获得"},{"name":"崇寿镇","code":"330282116","level":4,"mergeName":"浙江省,宁波市,慈溪市,崇寿镇","lng":121.27820012541208,"lat":30.275729773788207,"info":"直接查询获得"},{"name":"庵东镇","code":"330282118","level":4,"mergeName":"浙江省,宁波市,慈溪市,庵东镇","lng":121.22555043947229,"lat":30.275251565533424,"info":"直接查询获得"},{"name":"长河镇","code":"330282120","level":4,"mergeName":"浙江省,宁波市,慈溪市,长河镇","lng":121.18731694001768,"lat":30.231352353952847,"info":"直接查询获得"},{"name":"周巷镇","code":"330282121","level":4,"mergeName":"浙江省,宁波市,慈溪市,周巷镇","lng":121.14240435943532,"lat":30.192969820911333,"info":"直接查询获得"},{"name":"龙山镇","code":"330282123","level":4,"mergeName":"浙江省,宁波市,慈溪市,龙山镇","lng":121.54488816960375,"lat":30.099902083178502,"info":"直接查询获得"},{"name":"慈溪市农垦场","code":"330282400","level":4,"mergeName":"浙江省,宁波市,慈溪市,慈溪市农垦场","lng":121.12390923712094,"lat":30.272609330882265,"info":"直接查询获得"},{"name":"慈溪市林场","code":"330282401","level":4,"mergeName":"浙江省,宁波市,慈溪市,慈溪市林场","lng":121.35034662066586,"lat":30.08924615566755,"info":"直接查询获得"},{"name":"慈东工业区","code":"330282402","level":4,"mergeName":"浙江省,宁波市,慈溪市,慈东工业区","lng":121.27259613631863,"lat":30.175256610720446,"info":"直接查询获得"},{"name":"温州市","code":"3303","level":2,"mergeName":"浙江省,温州市","lng":120.70647689035565,"lat":28.00108540447221,"info":"直接查询获得"},{"name":"鹿城区","code":"330302","level":3,"mergeName":"浙江省,温州市,鹿城区","lng":120.6615864979342,"lat":28.020351607763462,"info":"直接查询获得"},{"name":"五马街道","code":"330302006","level":4,"mergeName":"浙江省,温州市,鹿城区,五马街道","lng":120.65897296788434,"lat":28.027572008568676,"info":"直接查询获得"},{"name":"七都街道","code":"330302023","level":4,"mergeName":"浙江省,温州市,鹿城区,七都街道","lng":120.7671417071882,"lat":28.01808541086109,"info":"直接查询获得"},{"name":"滨江街道","code":"330302024","level":4,"mergeName":"浙江省,温州市,鹿城区,滨江街道","lng":120.73239336363214,"lat":28.01389697328429,"info":"直接查询获得"},{"name":"南汇街道","code":"330302025","level":4,"mergeName":"浙江省,温州市,鹿城区,南汇街道","lng":120.68732699316138,"lat":27.993745988780464,"info":"直接查询获得"},{"name":"松台街道","code":"330302026","level":4,"mergeName":"浙江省,温州市,鹿城区,松台街道","lng":120.6499172398718,"lat":28.009694179179643,"info":"直接查询获得"},{"name":"双屿街道","code":"330302027","level":4,"mergeName":"浙江省,温州市,鹿城区,双屿街道","lng":120.60950543939943,"lat":28.024675233593594,"info":"直接查询获得"},{"name":"仰义街道","code":"330302028","level":4,"mergeName":"浙江省,温州市,鹿城区,仰义街道","lng":120.60045339443947,"lat":28.08536674612726,"info":"直接查询获得"},{"name":"大南街道","code":"330302029","level":4,"mergeName":"浙江省,温州市,鹿城区,大南街道","lng":120.6615864979342,"lat":28.020351607763462,"info":"直接查询获得"},{"name":"蒲鞋市街道","code":"330302030","level":4,"mergeName":"浙江省,温州市,鹿城区,蒲鞋市街道","lng":120.6615864979342,"lat":28.020351607763462,"info":"直接查询获得"},{"name":"南郊街道","code":"330302031","level":4,"mergeName":"浙江省,温州市,鹿城区,南郊街道","lng":120.6615864979342,"lat":28.020351607763462,"info":"直接查询获得"},{"name":"广化街道","code":"330302032","level":4,"mergeName":"浙江省,温州市,鹿城区,广化街道","lng":120.6615864979342,"lat":28.020351607763462,"info":"直接查询获得"},{"name":"丰门街道","code":"330302033","level":4,"mergeName":"浙江省,温州市,鹿城区,丰门街道","lng":120.6615864979342,"lat":28.020351607763462,"info":"直接查询获得"},{"name":"藤桥镇","code":"330302102","level":4,"mergeName":"浙江省,温州市,鹿城区,藤桥镇","lng":120.51223952389711,"lat":28.07054746661381,"info":"直接查询获得"},{"name":"山福镇","code":"330302105","level":4,"mergeName":"浙江省,温州市,鹿城区,山福镇","lng":120.6615864979342,"lat":28.020351607763462,"info":"直接查询获得"},{"name":"龙湾区","code":"330303","level":3,"mergeName":"浙江省,温州市,龙湾区","lng":120.81946755397436,"lat":27.938652244915872,"info":"直接查询获得"},{"name":"永中街道","code":"330303001","level":4,"mergeName":"浙江省,温州市,龙湾区,永中街道","lng":120.8211180106873,"lat":27.92492998472335,"info":"直接查询获得"},{"name":"蒲州街道","code":"330303002","level":4,"mergeName":"浙江省,温州市,龙湾区,蒲州街道","lng":120.73626144829242,"lat":27.987247407186327,"info":"直接查询获得"},{"name":"海滨街道","code":"330303003","level":4,"mergeName":"浙江省,温州市,龙湾区,海滨街道","lng":120.84483489309281,"lat":27.91848865048215,"info":"直接查询获得"},{"name":"永兴街道","code":"330303004","level":4,"mergeName":"浙江省,温州市,龙湾区,永兴街道","lng":120.8265298522304,"lat":27.904798839322613,"info":"直接查询获得"},{"name":"状元街道","code":"330303006","level":4,"mergeName":"浙江省,温州市,龙湾区,状元街道","lng":120.77033311717244,"lat":27.976471654003813,"info":"直接查询获得"},{"name":"瑶溪街道","code":"330303007","level":4,"mergeName":"浙江省,温州市,龙湾区,瑶溪街道","lng":120.78620006705104,"lat":27.95067756184397,"info":"直接查询获得"},{"name":"瓯海区","code":"330304","level":3,"mergeName":"浙江省,温州市,瓯海区","lng":120.62144724335346,"lat":27.972857351642503,"info":"直接查询获得"},{"name":"景山街道","code":"330304001","level":4,"mergeName":"浙江省,温州市,瓯海区,景山街道","lng":120.64251349569156,"lat":28.011704706723517,"info":"直接查询获得"},{"name":"梧田街道","code":"330304002","level":4,"mergeName":"浙江省,温州市,瓯海区,梧田街道","lng":120.68944304161997,"lat":27.979331457690286,"info":"直接查询获得"},{"name":"南白象街道","code":"330304003","level":4,"mergeName":"浙江省,温州市,瓯海区,南白象街道","lng":120.69145300019788,"lat":27.932001017598846,"info":"直接查询获得"},{"name":"茶山街道","code":"330304004","level":4,"mergeName":"浙江省,温州市,瓯海区,茶山街道","lng":120.70777287571447,"lat":27.91707996838402,"info":"直接查询获得"},{"name":"娄桥街道","code":"330304005","level":4,"mergeName":"浙江省,温州市,瓯海区,娄桥街道","lng":120.60596916993,"lat":27.95948009051198,"info":"直接查询获得"},{"name":"新桥街道","code":"330304006","level":4,"mergeName":"浙江省,温州市,瓯海区,新桥街道","lng":120.63454022581818,"lat":27.99070164523078,"info":"直接查询获得"},{"name":"三垟街道","code":"330304007","level":4,"mergeName":"浙江省,温州市,瓯海区,三垟街道","lng":120.72613891152099,"lat":27.9865630901716,"info":"直接查询获得"},{"name":"瞿溪街道","code":"330304008","level":4,"mergeName":"浙江省,温州市,瓯海区,瞿溪街道","lng":120.53710255430242,"lat":28.000226482190186,"info":"直接查询获得"},{"name":"郭溪街道","code":"330304009","level":4,"mergeName":"浙江省,温州市,瓯海区,郭溪街道","lng":120.58008539497405,"lat":27.997058329152356,"info":"直接查询获得"},{"name":"潘桥街道","code":"330304010","level":4,"mergeName":"浙江省,温州市,瓯海区,潘桥街道","lng":120.57970747784613,"lat":27.95755895671207,"info":"直接查询获得"},{"name":"丽岙街道","code":"330304011","level":4,"mergeName":"浙江省,温州市,瓯海区,丽岙街道","lng":120.64488080020122,"lat":27.900548173633883,"info":"直接查询获得"},{"name":"仙岩街道","code":"330304012","level":4,"mergeName":"浙江省,温州市,瓯海区,仙岩街道","lng":120.68324275733106,"lat":27.87994178597947,"info":"直接查询获得"},{"name":"泽雅镇","code":"330304108","level":4,"mergeName":"浙江省,温州市,瓯海区,泽雅镇","lng":120.49002631508426,"lat":28.036137592926394,"info":"直接查询获得"},{"name":"洞头区","code":"330305","level":3,"mergeName":"浙江省,温州市,洞头区","lng":121.16354856758629,"lat":27.841870324586573,"info":"直接查询获得"},{"name":"北岙街道","code":"330305001","level":4,"mergeName":"浙江省,温州市,洞头区,北岙街道","lng":121.1634599048325,"lat":27.84199082571213,"info":"直接查询获得"},{"name":"灵昆街道","code":"330305002","level":4,"mergeName":"浙江省,温州市,洞头区,灵昆街道","lng":120.94845296490503,"lat":27.93665138265105,"info":"直接查询获得"},{"name":"东屏街道","code":"330305003","level":4,"mergeName":"浙江省,温州市,洞头区,东屏街道","lng":121.1644113001978,"lat":27.831549368444275,"info":"直接查询获得"},{"name":"元觉街道","code":"330305004","level":4,"mergeName":"浙江省,温州市,洞头区,元觉街道","lng":121.12705903846084,"lat":27.882034022272148,"info":"直接查询获得"},{"name":"霓屿街道","code":"330305005","level":4,"mergeName":"浙江省,温州市,洞头区,霓屿街道","lng":121.03457606081429,"lat":27.851382549923663,"info":"直接查询获得"},{"name":"大门镇","code":"330305101","level":4,"mergeName":"浙江省,温州市,洞头区,大门镇","lng":121.0871360060163,"lat":27.96215002941607,"info":"直接查询获得"},{"name":"鹿西乡","code":"330305202","level":4,"mergeName":"浙江省,温州市,洞头区,鹿西乡","lng":121.19104291449057,"lat":27.99153377070863,"info":"直接查询获得"},{"name":"永嘉县","code":"330324","level":3,"mergeName":"浙江省,温州市,永嘉县","lng":120.68852407508358,"lat":28.15645033220569,"info":"直接查询获得"},{"name":"东城街道","code":"330324001","level":4,"mergeName":"浙江省,温州市,永嘉县,东城街道","lng":120.70800715379139,"lat":28.162633741295416,"info":"直接查询获得"},{"name":"北城街道","code":"330324002","level":4,"mergeName":"浙江省,温州市,永嘉县,北城街道","lng":120.69684328240872,"lat":28.16064844008147,"info":"直接查询获得"},{"name":"南城街道","code":"330324003","level":4,"mergeName":"浙江省,温州市,永嘉县,南城街道","lng":120.69037494375571,"lat":28.154088226249584,"info":"直接查询获得"},{"name":"三江街道","code":"330324006","level":4,"mergeName":"浙江省,温州市,永嘉县,三江街道","lng":120.69386530981359,"lat":28.052706899809966,"info":"直接查询获得"},{"name":"黄田街道","code":"330324007","level":4,"mergeName":"浙江省,温州市,永嘉县,黄田街道","lng":120.69775910487584,"lat":28.080702738018164,"info":"直接查询获得"},{"name":"乌牛街道","code":"330324008","level":4,"mergeName":"浙江省,温州市,永嘉县,乌牛街道","lng":120.79469875581704,"lat":28.047825867215963,"info":"直接查询获得"},{"name":"瓯北街道","code":"330324009","level":4,"mergeName":"浙江省,温州市,永嘉县,瓯北街道","lng":120.66531877766583,"lat":28.0460788011575,"info":"直接查询获得"},{"name":"桥头镇","code":"330324102","level":4,"mergeName":"浙江省,温州市,永嘉县,桥头镇","lng":120.4883967888897,"lat":28.175139980616486,"info":"直接查询获得"},{"name":"桥下镇","code":"330324104","level":4,"mergeName":"浙江省,温州市,永嘉县,桥下镇","lng":120.56355486681545,"lat":28.167447798888716,"info":"直接查询获得"},{"name":"大若岩镇","code":"330324105","level":4,"mergeName":"浙江省,温州市,永嘉县,大若岩镇","lng":120.64417589986776,"lat":28.286674628914994,"info":"直接查询获得"},{"name":"碧莲镇","code":"330324106","level":4,"mergeName":"浙江省,温州市,永嘉县,碧莲镇","lng":120.56853615052773,"lat":28.317371092163864,"info":"直接查询获得"},{"name":"巽宅镇","code":"330324107","level":4,"mergeName":"浙江省,温州市,永嘉县,巽宅镇","lng":120.49560299568836,"lat":28.350044990493675,"info":"直接查询获得"},{"name":"岩头镇","code":"330324108","level":4,"mergeName":"浙江省,温州市,永嘉县,岩头镇","lng":120.74214105637881,"lat":28.345112650737935,"info":"直接查询获得"},{"name":"枫林镇","code":"330324109","level":4,"mergeName":"浙江省,温州市,永嘉县,枫林镇","lng":120.77754803753454,"lat":28.321040043251447,"info":"直接查询获得"},{"name":"岩坦镇","code":"330324110","level":4,"mergeName":"浙江省,温州市,永嘉县,岩坦镇","lng":120.73759509151651,"lat":28.452572604893952,"info":"直接查询获得"},{"name":"沙头镇","code":"330324111","level":4,"mergeName":"浙江省,温州市,永嘉县,沙头镇","lng":120.77086239877875,"lat":28.201455233374695,"info":"直接查询获得"},{"name":"鹤盛镇","code":"330324112","level":4,"mergeName":"浙江省,温州市,永嘉县,鹤盛镇","lng":120.84115327779193,"lat":28.3811700308126,"info":"直接查询获得"},{"name":"金溪镇","code":"330324113","level":4,"mergeName":"浙江省,温州市,永嘉县,金溪镇","lng":120.68852407508358,"lat":28.15645033220569,"info":"直接查询获得"},{"name":"云岭乡","code":"330324226","level":4,"mergeName":"浙江省,温州市,永嘉县,云岭乡","lng":120.68852407508358,"lat":28.15645033220569,"info":"直接查询获得"},{"name":"茗岙乡","code":"330324227","level":4,"mergeName":"浙江省,温州市,永嘉县,茗岙乡","lng":120.68852407508358,"lat":28.15645033220569,"info":"直接查询获得"},{"name":"溪下乡","code":"330324228","level":4,"mergeName":"浙江省,温州市,永嘉县,溪下乡","lng":120.68852407508358,"lat":28.15645033220569,"info":"直接查询获得"},{"name":"界坑乡","code":"330324229","level":4,"mergeName":"浙江省,温州市,永嘉县,界坑乡","lng":120.68852407508358,"lat":28.15645033220569,"info":"直接查询获得"},{"name":"县特产场场区","code":"330324400","level":4,"mergeName":"浙江省,温州市,永嘉县,县特产场场区","lng":120.68808336640052,"lat":28.161364031766993,"info":"直接查询获得"},{"name":"四海山林场","code":"330324401","level":4,"mergeName":"浙江省,温州市,永嘉县,四海山林场","lng":120.76663865610277,"lat":28.515779895832235,"info":"直接查询获得"},{"name":"正江山林场","code":"330324402","level":4,"mergeName":"浙江省,温州市,永嘉县,正江山林场","lng":120.88732106064813,"lat":28.309883497499023,"info":"直接查询获得"},{"name":"平阳县","code":"330326","level":3,"mergeName":"浙江省,温州市,平阳县","lng":120.57251537444397,"lat":27.667724401092695,"info":"直接查询获得"},{"name":"昆阳镇","code":"330326100","level":4,"mergeName":"浙江省,温州市,平阳县,昆阳镇","lng":120.56456653848045,"lat":27.67439031733731,"info":"直接查询获得"},{"name":"鳌江镇","code":"330326101","level":4,"mergeName":"浙江省,温州市,平阳县,鳌江镇","lng":120.56607191885357,"lat":27.597011287083557,"info":"直接查询获得"},{"name":"水头镇","code":"330326102","level":4,"mergeName":"浙江省,温州市,平阳县,水头镇","lng":120.3561999941518,"lat":27.651144008908044,"info":"直接查询获得"},{"name":"萧江镇","code":"330326103","level":4,"mergeName":"浙江省,温州市,平阳县,萧江镇","lng":120.48265778448001,"lat":27.576048121723026,"info":"直接查询获得"},{"name":"腾蛟镇","code":"330326105","level":4,"mergeName":"浙江省,温州市,平阳县,腾蛟镇","lng":120.33781150070752,"lat":27.685143472638057,"info":"直接查询获得"},{"name":"山门镇","code":"330326107","level":4,"mergeName":"浙江省,温州市,平阳县,山门镇","lng":120.2473963325137,"lat":27.64026466573773,"info":"直接查询获得"},{"name":"顺溪镇","code":"330326108","level":4,"mergeName":"浙江省,温州市,平阳县,顺溪镇","lng":120.20499891754271,"lat":27.56844012359589,"info":"直接查询获得"},{"name":"南雁镇","code":"330326109","level":4,"mergeName":"浙江省,温州市,平阳县,南雁镇","lng":120.26219690392175,"lat":27.62037700480406,"info":"直接查询获得"},{"name":"万全镇","code":"330326117","level":4,"mergeName":"浙江省,温州市,平阳县,万全镇","lng":120.59053035245732,"lat":27.735388061110807,"info":"直接查询获得"},{"name":"海西镇","code":"330326118","level":4,"mergeName":"浙江省,温州市,平阳县,海西镇","lng":120.57251537444397,"lat":27.667724401092695,"info":"直接查询获得"},{"name":"南麂镇","code":"330326119","level":4,"mergeName":"浙江省,温州市,平阳县,南麂镇","lng":120.57251537444397,"lat":27.667724401092695,"info":"直接查询获得"},{"name":"麻步镇","code":"330326120","level":4,"mergeName":"浙江省,温州市,平阳县,麻步镇","lng":120.57251537444397,"lat":27.667724401092695,"info":"直接查询获得"},{"name":"凤卧镇","code":"330326121","level":4,"mergeName":"浙江省,温州市,平阳县,凤卧镇","lng":120.57251537444397,"lat":27.667724401092695,"info":"直接查询获得"},{"name":"怀溪镇","code":"330326122","level":4,"mergeName":"浙江省,温州市,平阳县,怀溪镇","lng":120.57251537444397,"lat":27.667724401092695,"info":"直接查询获得"},{"name":"青街畲族乡","code":"330326214","level":4,"mergeName":"浙江省,温州市,平阳县,青街畲族乡","lng":120.23376661250695,"lat":27.554772407325203,"info":"直接查询获得"},{"name":"闹村乡","code":"330326217","level":4,"mergeName":"浙江省,温州市,平阳县,闹村乡","lng":120.30985304246506,"lat":27.56928019341401,"info":"直接查询获得"},{"name":"滨海新区","code":"330326401","level":4,"mergeName":"浙江省,温州市,平阳县,滨海新区","lng":120.67582203517668,"lat":27.663600977896383,"info":"直接查询获得"},{"name":"苍南县","code":"330327","level":3,"mergeName":"浙江省,温州市,苍南县","lng":120.4335951222883,"lat":27.523066788446513,"info":"直接查询获得"},{"name":"灵溪镇","code":"330327100","level":4,"mergeName":"浙江省,温州市,苍南县,灵溪镇","lng":120.40876901223943,"lat":27.509796994838762,"info":"直接查询获得"},{"name":"宜山镇","code":"330327103","level":4,"mergeName":"浙江省,温州市,苍南县,宜山镇","lng":120.5515286221435,"lat":27.519224678663793,"info":"直接查询获得"},{"name":"钱库镇","code":"330327104","level":4,"mergeName":"浙江省,温州市,苍南县,钱库镇","lng":120.57784250577748,"lat":27.485613672029015,"info":"直接查询获得"},{"name":"金乡镇","code":"330327107","level":4,"mergeName":"浙江省,温州市,苍南县,金乡镇","lng":120.60981903785286,"lat":27.436401968985482,"info":"直接查询获得"},{"name":"藻溪镇","code":"330327112","level":4,"mergeName":"浙江省,温州市,苍南县,藻溪镇","lng":120.4567319688262,"lat":27.465830863810723,"info":"直接查询获得"},{"name":"桥墩镇","code":"330327113","level":4,"mergeName":"浙江省,温州市,苍南县,桥墩镇","lng":120.31654645336015,"lat":27.465708500615484,"info":"直接查询获得"},{"name":"矾山镇","code":"330327116","level":4,"mergeName":"浙江省,温州市,苍南县,矾山镇","lng":120.41666898038324,"lat":27.34375494833835,"info":"直接查询获得"},{"name":"赤溪镇","code":"330327117","level":4,"mergeName":"浙江省,温州市,苍南县,赤溪镇","lng":120.51632097498036,"lat":27.342668890252355,"info":"直接查询获得"},{"name":"马站镇","code":"330327118","level":4,"mergeName":"浙江省,温州市,苍南县,马站镇","lng":120.46970628513307,"lat":27.27030509265231,"info":"直接查询获得"},{"name":"望里镇","code":"330327122","level":4,"mergeName":"浙江省,温州市,苍南县,望里镇","lng":120.4335951222883,"lat":27.523066788446513,"info":"直接查询获得"},{"name":"炎亭镇","code":"330327123","level":4,"mergeName":"浙江省,温州市,苍南县,炎亭镇","lng":120.4335951222883,"lat":27.523066788446513,"info":"直接查询获得"},{"name":"大渔镇","code":"330327124","level":4,"mergeName":"浙江省,温州市,苍南县,大渔镇","lng":120.4335951222883,"lat":27.523066788446513,"info":"直接查询获得"},{"name":"莒溪镇","code":"330327125","level":4,"mergeName":"浙江省,温州市,苍南县,莒溪镇","lng":120.4335951222883,"lat":27.523066788446513,"info":"直接查询获得"},{"name":"南宋镇","code":"330327126","level":4,"mergeName":"浙江省,温州市,苍南县,南宋镇","lng":120.4335951222883,"lat":27.523066788446513,"info":"直接查询获得"},{"name":"霞关镇","code":"330327127","level":4,"mergeName":"浙江省,温州市,苍南县,霞关镇","lng":120.4335951222883,"lat":27.523066788446513,"info":"直接查询获得"},{"name":"沿浦镇","code":"330327128","level":4,"mergeName":"浙江省,温州市,苍南县,沿浦镇","lng":120.4335951222883,"lat":27.523066788446513,"info":"直接查询获得"},{"name":"凤阳畲族乡","code":"330327216","level":4,"mergeName":"浙江省,温州市,苍南县,凤阳畲族乡","lng":120.45935448193116,"lat":27.34301200490541,"info":"直接查询获得"},{"name":"岱岭畲族乡","code":"330327218","level":4,"mergeName":"浙江省,温州市,苍南县,岱岭畲族乡","lng":120.44498810199968,"lat":27.294297848155882,"info":"直接查询获得"},{"name":"文成县","code":"330328","level":3,"mergeName":"浙江省,温州市,文成县","lng":120.09748845651636,"lat":27.79321715229029,"info":"直接查询获得"},{"name":"大峃镇","code":"330328100","level":4,"mergeName":"浙江省,温州市,文成县,大峃镇","lng":120.09531563514955,"lat":27.79560555203569,"info":"直接查询获得"},{"name":"百丈漈镇","code":"330328101","level":4,"mergeName":"浙江省,温州市,文成县,百丈漈镇","lng":120.01278309780317,"lat":27.83822727772454,"info":"直接查询获得"},{"name":"南田镇","code":"330328102","level":4,"mergeName":"浙江省,温州市,文成县,南田镇","lng":119.97011205897395,"lat":27.923378077003953,"info":"直接查询获得"},{"name":"西坑畲族镇","code":"330328103","level":4,"mergeName":"浙江省,温州市,文成县,西坑畲族镇","lng":119.94061547891916,"lat":27.84747184687265,"info":"直接查询获得"},{"name":"黄坦镇","code":"330328104","level":4,"mergeName":"浙江省,温州市,文成县,黄坦镇","lng":120.00217653515871,"lat":27.76441620834785,"info":"直接查询获得"},{"name":"珊溪镇","code":"330328105","level":4,"mergeName":"浙江省,温州市,文成县,珊溪镇","lng":120.07459298466891,"lat":27.677055992917435,"info":"直接查询获得"},{"name":"巨屿镇","code":"330328106","level":4,"mergeName":"浙江省,温州市,文成县,巨屿镇","lng":120.09515663507433,"lat":27.699780506670564,"info":"直接查询获得"},{"name":"玉壶镇","code":"330328107","level":4,"mergeName":"浙江省,温州市,文成县,玉壶镇","lng":120.15194301786883,"lat":27.881367001661406,"info":"直接查询获得"},{"name":"峃口镇","code":"330328108","level":4,"mergeName":"浙江省,温州市,文成县,峃口镇","lng":120.1609779950241,"lat":27.758091024461994,"info":"直接查询获得"},{"name":"周壤镇","code":"330328109","level":4,"mergeName":"浙江省,温州市,文成县,周壤镇","lng":120.09748845651636,"lat":27.79321715229029,"info":"直接查询获得"},{"name":"铜铃山镇","code":"330328110","level":4,"mergeName":"浙江省,温州市,文成县,铜铃山镇","lng":120.09748845651636,"lat":27.79321715229029,"info":"直接查询获得"},{"name":"二源镇","code":"330328111","level":4,"mergeName":"浙江省,温州市,文成县,二源镇","lng":120.09748845651636,"lat":27.79321715229029,"info":"直接查询获得"},{"name":"周山畲族乡","code":"330328217","level":4,"mergeName":"浙江省,温州市,文成县,周山畲族乡","lng":120.17428899623602,"lat":27.72807304565307,"info":"直接查询获得"},{"name":"桂山乡","code":"330328225","level":4,"mergeName":"浙江省,温州市,文成县,桂山乡","lng":120.09748845651636,"lat":27.79321715229029,"info":"直接查询获得"},{"name":"双桂乡","code":"330328226","level":4,"mergeName":"浙江省,温州市,文成县,双桂乡","lng":120.16347887756305,"lat":27.71350076956398,"info":"直接查询获得"},{"name":"平和乡","code":"330328227","level":4,"mergeName":"浙江省,温州市,文成县,平和乡","lng":120.09748845651636,"lat":27.79321715229029,"info":"直接查询获得"},{"name":"公阳乡","code":"330328228","level":4,"mergeName":"浙江省,温州市,文成县,公阳乡","lng":120.09748845651636,"lat":27.79321715229029,"info":"直接查询获得"},{"name":"泰顺县","code":"330329","level":3,"mergeName":"浙江省,温州市,泰顺县","lng":119.72353725758818,"lat":27.562170559597206,"info":"直接查询获得"},{"name":"罗阳镇","code":"330329100","level":4,"mergeName":"浙江省,温州市,泰顺县,罗阳镇","lng":119.71924695047392,"lat":27.56203701589287,"info":"直接查询获得"},{"name":"司前畲族镇","code":"330329101","level":4,"mergeName":"浙江省,温州市,泰顺县,司前畲族镇","lng":119.79136129984121,"lat":27.6728424678045,"info":"直接查询获得"},{"name":"百丈镇","code":"330329102","level":4,"mergeName":"浙江省,温州市,泰顺县,百丈镇","lng":119.8701875184852,"lat":27.653390605707486,"info":"直接查询获得"},{"name":"筱村镇","code":"330329103","level":4,"mergeName":"浙江省,温州市,泰顺县,筱村镇","lng":119.92018926925672,"lat":27.5654570600487,"info":"直接查询获得"},{"name":"泗溪镇","code":"330329104","level":4,"mergeName":"浙江省,温州市,泰顺县,泗溪镇","lng":120.01043357974261,"lat":27.474799303502312,"info":"直接查询获得"},{"name":"彭溪镇","code":"330329105","level":4,"mergeName":"浙江省,温州市,泰顺县,彭溪镇","lng":120.14901481139891,"lat":27.43993897546643,"info":"直接查询获得"},{"name":"雅阳镇","code":"330329106","level":4,"mergeName":"浙江省,温州市,泰顺县,雅阳镇","lng":120.05223928087436,"lat":27.392452039175044,"info":"直接查询获得"},{"name":"仕阳镇","code":"330329107","level":4,"mergeName":"浙江省,温州市,泰顺县,仕阳镇","lng":119.91117881584186,"lat":27.367338799122134,"info":"直接查询获得"},{"name":"三魁镇","code":"330329109","level":4,"mergeName":"浙江省,温州市,泰顺县,三魁镇","lng":119.92158730212144,"lat":27.430134658487308,"info":"直接查询获得"},{"name":"南浦溪镇","code":"330329111","level":4,"mergeName":"浙江省,温州市,泰顺县,南浦溪镇","lng":119.72353725758818,"lat":27.562170559597206,"info":"直接查询获得"},{"name":"龟湖镇","code":"330329112","level":4,"mergeName":"浙江省,温州市,泰顺县,龟湖镇","lng":119.72353725758818,"lat":27.562170559597206,"info":"直接查询获得"},{"name":"西旸镇","code":"330329113","level":4,"mergeName":"浙江省,温州市,泰顺县,西旸镇","lng":119.72353725758818,"lat":27.562170559597206,"info":"直接查询获得"},{"name":"竹里畲族乡","code":"330329204","level":4,"mergeName":"浙江省,温州市,泰顺县,竹里畲族乡","lng":119.77881017525995,"lat":27.7068264723364,"info":"直接查询获得"},{"name":"包垟乡","code":"330329225","level":4,"mergeName":"浙江省,温州市,泰顺县,包垟乡","lng":119.72353725758818,"lat":27.562170559597206,"info":"直接查询获得"},{"name":"凤垟乡","code":"330329226","level":4,"mergeName":"浙江省,温州市,泰顺县,凤垟乡","lng":119.72353725758818,"lat":27.562170559597206,"info":"直接查询获得"},{"name":"东溪乡","code":"330329227","level":4,"mergeName":"浙江省,温州市,泰顺县,东溪乡","lng":119.72353725758818,"lat":27.562170559597206,"info":"直接查询获得"},{"name":"柳峰乡","code":"330329228","level":4,"mergeName":"浙江省,温州市,泰顺县,柳峰乡","lng":120.00606675496505,"lat":27.391604223208986,"info":"直接查询获得"},{"name":"雪溪乡","code":"330329229","level":4,"mergeName":"浙江省,温州市,泰顺县,雪溪乡","lng":119.72353725758818,"lat":27.562170559597206,"info":"直接查询获得"},{"name":"大安乡","code":"330329230","level":4,"mergeName":"浙江省,温州市,泰顺县,大安乡","lng":119.72353725758818,"lat":27.562170559597206,"info":"直接查询获得"},{"name":"乌岩岭自然保护区","code":"330329400","level":4,"mergeName":"浙江省,温州市,泰顺县,乌岩岭自然保护区","lng":119.66898379279907,"lat":27.716820894414745,"info":"直接查询获得"},{"name":"温州经济技术开发区","code":"330371","level":3,"mergeName":"浙江省,温州市,温州经济技术开发区","lng":120.70647689035565,"lat":28.00108540447221,"info":"直接查询获得"},{"name":"海城街道","code":"330371005","level":4,"mergeName":"浙江省,温州市,温州经济技术开发区,海城街道","lng":120.77007512383007,"lat":27.836242156445767,"info":"第二次通过省份查询成功"},{"name":"沙城街道","code":"330371008","level":4,"mergeName":"浙江省,温州市,温州经济技术开发区,沙城街道","lng":120.81534397236273,"lat":27.88065200140585,"info":"第二次通过省份查询成功"},{"name":"天河街道","code":"330371009","level":4,"mergeName":"浙江省,温州市,温州经济技术开发区,天河街道","lng":120.79935395462931,"lat":27.869209911569275,"info":"第二次通过省份查询成功"},{"name":"星海街道","code":"330371011","level":4,"mergeName":"浙江省,温州市,温州经济技术开发区,星海街道","lng":120.82380699839999,"lat":27.878973963203105,"info":"第二次通过省份查询成功"},{"name":"瑞安市","code":"330381","level":3,"mergeName":"浙江省,温州市,瑞安市","lng":120.66158218606775,"lat":27.783950736231652,"info":"直接查询获得"},{"name":"安阳街道","code":"330381001","level":4,"mergeName":"浙江省,温州市,瑞安市,安阳街道","lng":120.64619636862014,"lat":27.782675475956033,"info":"直接查询获得"},{"name":"玉海街道","code":"330381002","level":4,"mergeName":"浙江省,温州市,瑞安市,玉海街道","lng":120.64422943887615,"lat":27.788108470337175,"info":"直接查询获得"},{"name":"锦湖街道","code":"330381003","level":4,"mergeName":"浙江省,温州市,瑞安市,锦湖街道","lng":120.6414097477118,"lat":27.793700332969905,"info":"直接查询获得"},{"name":"东山街道","code":"330381004","level":4,"mergeName":"浙江省,温州市,瑞安市,东山街道","lng":120.65170783224424,"lat":27.76584775219338,"info":"直接查询获得"},{"name":"上望街道","code":"330381005","level":4,"mergeName":"浙江省,温州市,瑞安市,上望街道","lng":120.68035596274512,"lat":27.77105130249685,"info":"直接查询获得"},{"name":"莘塍街道","code":"330381007","level":4,"mergeName":"浙江省,温州市,瑞安市,莘塍街道","lng":120.68556622453185,"lat":27.784913343589153,"info":"直接查询获得"},{"name":"汀田街道","code":"330381008","level":4,"mergeName":"浙江省,温州市,瑞安市,汀田街道","lng":120.72684336090508,"lat":27.79143469397196,"info":"直接查询获得"},{"name":"飞云街道","code":"330381009","level":4,"mergeName":"浙江省,温州市,瑞安市,飞云街道","lng":120.6256723334877,"lat":27.76637772385338,"info":"直接查询获得"},{"name":"仙降街道","code":"330381010","level":4,"mergeName":"浙江省,温州市,瑞安市,仙降街道","lng":120.55686806026247,"lat":27.78903884311167,"info":"直接查询获得"},{"name":"南滨街道","code":"330381011","level":4,"mergeName":"浙江省,温州市,瑞安市,南滨街道","lng":120.63828598013244,"lat":27.725325969730292,"info":"直接查询获得"},{"name":"潘岱街道","code":"330381012","level":4,"mergeName":"浙江省,温州市,瑞安市,潘岱街道","lng":120.59755303544036,"lat":27.842840957708436,"info":"直接查询获得"},{"name":"云周街道","code":"330381013","level":4,"mergeName":"浙江省,温州市,瑞安市,云周街道","lng":120.58260298599548,"lat":27.773689979671307,"info":"直接查询获得"},{"name":"塘下镇","code":"330381101","level":4,"mergeName":"浙江省,温州市,瑞安市,塘下镇","lng":120.71606038183819,"lat":27.834033647605057,"info":"直接查询获得"},{"name":"马屿镇","code":"330381116","level":4,"mergeName":"浙江省,温州市,瑞安市,马屿镇","lng":120.46407624518169,"lat":27.781646611700683,"info":"直接查询获得"},{"name":"陶山镇","code":"330381120","level":4,"mergeName":"浙江省,温州市,瑞安市,陶山镇","lng":120.50448912362069,"lat":27.847905515860873,"info":"直接查询获得"},{"name":"湖岭镇","code":"330381122","level":4,"mergeName":"浙江省,温州市,瑞安市,湖岭镇","lng":120.40453098650586,"lat":27.910206980837263,"info":"直接查询获得"},{"name":"高楼镇","code":"330381125","level":4,"mergeName":"浙江省,温州市,瑞安市,高楼镇","lng":120.29410893766153,"lat":27.770015694728013,"info":"直接查询获得"},{"name":"桐浦镇","code":"330381126","level":4,"mergeName":"浙江省,温州市,瑞安市,桐浦镇","lng":120.56662689199746,"lat":27.85540153991629,"info":"直接查询获得"},{"name":"林川镇","code":"330381127","level":4,"mergeName":"浙江省,温州市,瑞安市,林川镇","lng":120.44992299272391,"lat":27.922267015661554,"info":"直接查询获得"},{"name":"曹村镇","code":"330381128","level":4,"mergeName":"浙江省,温州市,瑞安市,曹村镇","lng":120.46711997374014,"lat":27.714684986862224,"info":"直接查询获得"},{"name":"平阳坑镇","code":"330381129","level":4,"mergeName":"浙江省,温州市,瑞安市,平阳坑镇","lng":120.38100903639597,"lat":27.75315570219005,"info":"直接查询获得"},{"name":"芳庄乡","code":"330381221","level":4,"mergeName":"浙江省,温州市,瑞安市,芳庄乡","lng":120.3909636089015,"lat":27.92774042120244,"info":"直接查询获得"},{"name":"北麂乡","code":"330381222","level":4,"mergeName":"浙江省,温州市,瑞安市,北麂乡","lng":121.03177149801304,"lat":27.656247427583192,"info":"直接查询获得"},{"name":"乐清市","code":"330382","level":3,"mergeName":"浙江省,温州市,乐清市","lng":120.9925018561657,"lat":28.118179995228274,"info":"直接查询获得"},{"name":"城东街道","code":"330382001","level":4,"mergeName":"浙江省,温州市,乐清市,城东街道","lng":120.99235588152037,"lat":28.128776541308525,"info":"直接查询获得"},{"name":"乐成街道","code":"330382002","level":4,"mergeName":"浙江省,温州市,乐清市,乐成街道","lng":120.97223895844492,"lat":28.117430739024574,"info":"直接查询获得"},{"name":"城南街道","code":"330382003","level":4,"mergeName":"浙江省,温州市,乐清市,城南街道","lng":120.99159591505918,"lat":28.11900785863886,"info":"直接查询获得"},{"name":"盐盆街道","code":"330382004","level":4,"mergeName":"浙江省,温州市,乐清市,盐盆街道","lng":120.99632639187317,"lat":28.071850136603064,"info":"直接查询获得"},{"name":"翁垟街道","code":"330382005","level":4,"mergeName":"浙江省,温州市,乐清市,翁垟街道","lng":120.98127600170287,"lat":28.030337734149434,"info":"直接查询获得"},{"name":"白石街道","code":"330382006","level":4,"mergeName":"浙江省,温州市,乐清市,白石街道","lng":120.8713748802236,"lat":28.093337504859736,"info":"直接查询获得"},{"name":"石帆街道","code":"330382007","level":4,"mergeName":"浙江省,温州市,乐清市,石帆街道","lng":121.02795204581645,"lat":28.19483029412252,"info":"直接查询获得"},{"name":"天成街道","code":"330382008","level":4,"mergeName":"浙江省,温州市,乐清市,天成街道","lng":121.03941253767842,"lat":28.175479657660098,"info":"直接查询获得"},{"name":"大荆镇","code":"330382101","level":4,"mergeName":"浙江省,温州市,乐清市,大荆镇","lng":121.13815230572536,"lat":28.434139714231012,"info":"直接查询获得"},{"name":"仙溪镇","code":"330382102","level":4,"mergeName":"浙江省,温州市,乐清市,仙溪镇","lng":121.07921178362373,"lat":28.420964358528753,"info":"直接查询获得"},{"name":"雁荡镇","code":"330382104","level":4,"mergeName":"浙江省,温州市,乐清市,雁荡镇","lng":121.15037815118666,"lat":28.363331137968665,"info":"直接查询获得"},{"name":"芙蓉镇","code":"330382105","level":4,"mergeName":"浙江省,温州市,乐清市,芙蓉镇","lng":121.03794201155907,"lat":28.302494359846857,"info":"直接查询获得"},{"name":"清江镇","code":"330382106","level":4,"mergeName":"浙江省,温州市,乐清市,清江镇","lng":121.11228667384579,"lat":28.278189084831176,"info":"直接查询获得"},{"name":"虹桥镇","code":"330382108","level":4,"mergeName":"浙江省,温州市,乐清市,虹桥镇","lng":121.0442653637028,"lat":28.226493896697132,"info":"直接查询获得"},{"name":"淡溪镇","code":"330382111","level":4,"mergeName":"浙江省,温州市,乐清市,淡溪镇","lng":121.00387000222126,"lat":28.2355000268431,"info":"直接查询获得"},{"name":"柳市镇","code":"330382114","level":4,"mergeName":"浙江省,温州市,乐清市,柳市镇","lng":120.9235330106762,"lat":28.042062343992136,"info":"直接查询获得"},{"name":"北白象镇","code":"330382115","level":4,"mergeName":"浙江省,温州市,乐清市,北白象镇","lng":120.8678365446515,"lat":28.040405819344635,"info":"直接查询获得"},{"name":"湖雾镇","code":"330382121","level":4,"mergeName":"浙江省,温州市,乐清市,湖雾镇","lng":121.20708862716559,"lat":28.409532083470797,"info":"直接查询获得"},{"name":"南塘镇","code":"330382122","level":4,"mergeName":"浙江省,温州市,乐清市,南塘镇","lng":121.1258158563982,"lat":28.242964012325906,"info":"直接查询获得"},{"name":"南岳镇","code":"330382123","level":4,"mergeName":"浙江省,温州市,乐清市,南岳镇","lng":121.09448324677997,"lat":28.190129869318085,"info":"直接查询获得"},{"name":"蒲岐镇","code":"330382124","level":4,"mergeName":"浙江省,温州市,乐清市,蒲岐镇","lng":121.07463164452494,"lat":28.160057373069293,"info":"直接查询获得"},{"name":"磐石镇","code":"330382125","level":4,"mergeName":"浙江省,温州市,乐清市,磐石镇","lng":120.83817171197474,"lat":28.00405314617849,"info":"直接查询获得"},{"name":"智仁乡","code":"330382210","level":4,"mergeName":"浙江省,温州市,乐清市,智仁乡","lng":121.128827083365,"lat":28.494431954788112,"info":"直接查询获得"},{"name":"龙西乡","code":"330382211","level":4,"mergeName":"浙江省,温州市,乐清市,龙西乡","lng":121.0537105071538,"lat":28.3985243452666,"info":"直接查询获得"},{"name":"岭底乡","code":"330382212","level":4,"mergeName":"浙江省,温州市,乐清市,岭底乡","lng":120.95924290314471,"lat":28.289234400881973,"info":"直接查询获得"},{"name":"龙港市","code":"330383","level":3,"mergeName":"浙江省,温州市,龙港市","lng":120.54224706012582,"lat":27.579911437330775,"info":"直接查询获得"},{"name":"龙港县直辖村级区划","code":"330383198","level":4,"mergeName":"浙江省,温州市,龙港市,龙港县直辖村级区划","lng":120.90062076023611,"lat":40.74105660124102,"info":"直接查询获得"},{"name":"嘉兴市","code":"3304","level":2,"mergeName":"浙江省,嘉兴市","lng":120.76355182586005,"lat":30.750974830920143,"info":"直接查询获得"},{"name":"南湖区","code":"330402","level":3,"mergeName":"浙江省,嘉兴市,南湖区","lng":120.7896100517546,"lat":30.751546813315446,"info":"直接查询获得"},{"name":"建设街道","code":"330402007","level":4,"mergeName":"浙江省,嘉兴市,南湖区,建设街道","lng":120.76214247434545,"lat":30.767660145800406,"info":"直接查询获得"},{"name":"解放街道","code":"330402008","level":4,"mergeName":"浙江省,嘉兴市,南湖区,解放街道","lng":120.77513996693877,"lat":30.781432850499574,"info":"直接查询获得"},{"name":"新嘉街道","code":"330402009","level":4,"mergeName":"浙江省,嘉兴市,南湖区,新嘉街道","lng":120.74889713926193,"lat":30.781364904469935,"info":"直接查询获得"},{"name":"南湖街道","code":"330402010","level":4,"mergeName":"浙江省,嘉兴市,南湖区,南湖街道","lng":120.77652254894917,"lat":30.761807309004748,"info":"直接查询获得"},{"name":"新兴街道","code":"330402011","level":4,"mergeName":"浙江省,嘉兴市,南湖区,新兴街道","lng":120.73826578338189,"lat":30.762912118140093,"info":"直接查询获得"},{"name":"城南街道","code":"330402012","level":4,"mergeName":"浙江省,嘉兴市,南湖区,城南街道","lng":120.74260998882814,"lat":30.73883685358796,"info":"直接查询获得"},{"name":"东栅街道","code":"330402013","level":4,"mergeName":"浙江省,嘉兴市,南湖区,东栅街道","lng":120.78129497663205,"lat":30.743244895664564,"info":"直接查询获得"},{"name":"长水街道","code":"330402014","level":4,"mergeName":"浙江省,嘉兴市,南湖区,长水街道","lng":120.76410599052917,"lat":30.733948869864584,"info":"直接查询获得"},{"name":"七星街道","code":"330402015","level":4,"mergeName":"浙江省,嘉兴市,南湖区,七星街道","lng":120.8393730329381,"lat":30.81775283340472,"info":"直接查询获得"},{"name":"凤桥镇","code":"330402100","level":4,"mergeName":"浙江省,嘉兴市,南湖区,凤桥镇","lng":120.86720622068981,"lat":30.665127993609136,"info":"直接查询获得"},{"name":"余新镇","code":"330402101","level":4,"mergeName":"浙江省,嘉兴市,南湖区,余新镇","lng":120.81583715908502,"lat":30.67800476985475,"info":"直接查询获得"},{"name":"新丰镇","code":"330402103","level":4,"mergeName":"浙江省,嘉兴市,南湖区,新丰镇","lng":120.92886474309752,"lat":30.711154735854834,"info":"直接查询获得"},{"name":"大桥镇","code":"330402105","level":4,"mergeName":"浙江省,嘉兴市,南湖区,大桥镇","lng":120.86455972282687,"lat":30.748030215595026,"info":"直接查询获得"},{"name":"秀洲区","code":"330411","level":3,"mergeName":"浙江省,嘉兴市,秀洲区","lng":120.71543705562627,"lat":30.770207214173517,"info":"直接查询获得"},{"name":"新城街道","code":"330411002","level":4,"mergeName":"浙江省,嘉兴市,秀洲区,新城街道","lng":120.71539600306447,"lat":30.771839880683277,"info":"直接查询获得"},{"name":"嘉北街道","code":"330411003","level":4,"mergeName":"浙江省,嘉兴市,秀洲区,嘉北街道","lng":120.73110098846486,"lat":30.78237485980826,"info":"直接查询获得"},{"name":"塘汇街道","code":"330411004","level":4,"mergeName":"浙江省,嘉兴市,秀洲区,塘汇街道","lng":120.78483798339396,"lat":30.797395876121627,"info":"直接查询获得"},{"name":"高照街道","code":"330411005","level":4,"mergeName":"浙江省,嘉兴市,秀洲区,高照街道","lng":120.67815216679023,"lat":30.761469137564653,"info":"直接查询获得"},{"name":"王江泾镇","code":"330411101","level":4,"mergeName":"浙江省,嘉兴市,秀洲区,王江泾镇","lng":120.724191042821,"lat":30.888571881632643,"info":"直接查询获得"},{"name":"油车港镇","code":"330411103","level":4,"mergeName":"浙江省,嘉兴市,秀洲区,油车港镇","lng":120.75940156457341,"lat":30.832551823381298,"info":"直接查询获得"},{"name":"新塍镇","code":"330411104","level":4,"mergeName":"浙江省,嘉兴市,秀洲区,新塍镇","lng":120.62935486402996,"lat":30.803198912742676,"info":"直接查询获得"},{"name":"王店镇","code":"330411105","level":4,"mergeName":"浙江省,嘉兴市,秀洲区,王店镇","lng":120.72080910223706,"lat":30.63413886697095,"info":"直接查询获得"},{"name":"洪合镇","code":"330411106","level":4,"mergeName":"浙江省,嘉兴市,秀洲区,洪合镇","lng":120.67339923233693,"lat":30.687977364658796,"info":"直接查询获得"},{"name":"嘉善县","code":"330421","level":3,"mergeName":"浙江省,嘉兴市,嘉善县","lng":120.93251060584033,"lat":30.83712219382042,"info":"直接查询获得"},{"name":"魏塘街道","code":"330421001","level":4,"mergeName":"浙江省,嘉兴市,嘉善县,魏塘街道","lng":120.9226190943783,"lat":30.853159658505568,"info":"直接查询获得"},{"name":"罗星街道","code":"330421002","level":4,"mergeName":"浙江省,嘉兴市,嘉善县,罗星街道","lng":120.92641901651605,"lat":30.834341873207514,"info":"直接查询获得"},{"name":"惠民街道","code":"330421003","level":4,"mergeName":"浙江省,嘉兴市,嘉善县,惠民街道","lng":120.98129775774832,"lat":30.873249349015584,"info":"直接查询获得"},{"name":"大云镇","code":"330421102","level":4,"mergeName":"浙江省,嘉兴市,嘉善县,大云镇","lng":120.96269403029778,"lat":30.78745387070827,"info":"直接查询获得"},{"name":"西塘镇","code":"330421103","level":4,"mergeName":"浙江省,嘉兴市,嘉善县,西塘镇","lng":120.88786360838368,"lat":30.966065642894044,"info":"直接查询获得"},{"name":"干窑镇","code":"330421105","level":4,"mergeName":"浙江省,嘉兴市,嘉善县,干窑镇","lng":120.90566824906611,"lat":30.892096688638198,"info":"直接查询获得"},{"name":"陶庄镇","code":"330421107","level":4,"mergeName":"浙江省,嘉兴市,嘉善县,陶庄镇","lng":120.82122384807562,"lat":30.972760596633023,"info":"直接查询获得"},{"name":"姚庄镇","code":"330421111","level":4,"mergeName":"浙江省,嘉兴市,嘉善县,姚庄镇","lng":120.96774187845,"lat":30.916577991533003,"info":"直接查询获得"},{"name":"天凝镇","code":"330421112","level":4,"mergeName":"浙江省,嘉兴市,嘉善县,天凝镇","lng":120.82656499297683,"lat":30.89578784916923,"info":"直接查询获得"},{"name":"海盐县","code":"330424","level":3,"mergeName":"浙江省,嘉兴市,海盐县","lng":120.95244526273444,"lat":30.531872894537752,"info":"直接查询获得"},{"name":"武原街道","code":"330424001","level":4,"mergeName":"浙江省,嘉兴市,海盐县,武原街道","lng":120.94873813555587,"lat":30.532000820269815,"info":"直接查询获得"},{"name":"西塘桥街道","code":"330424002","level":4,"mergeName":"浙江省,嘉兴市,海盐县,西塘桥街道","lng":121.01129199906539,"lat":30.596156858270966,"info":"直接查询获得"},{"name":"秦山街道","code":"330424004","level":4,"mergeName":"浙江省,嘉兴市,海盐县,秦山街道","lng":120.92357965246012,"lat":30.438037114861427,"info":"直接查询获得"},{"name":"望海街道","code":"330424005","level":4,"mergeName":"浙江省,嘉兴市,海盐县,望海街道","lng":120.95244526273444,"lat":30.531872894537752,"info":"直接查询获得"},{"name":"沈荡镇","code":"330424101","level":4,"mergeName":"浙江省,嘉兴市,海盐县,沈荡镇","lng":120.83582301939322,"lat":30.575567864580773,"info":"直接查询获得"},{"name":"百步镇","code":"330424102","level":4,"mergeName":"浙江省,嘉兴市,海盐县,百步镇","lng":120.788546817353,"lat":30.544993610961612,"info":"直接查询获得"},{"name":"于城镇","code":"330424103","level":4,"mergeName":"浙江省,嘉兴市,海盐县,于城镇","lng":120.85723296342637,"lat":30.540133903439596,"info":"直接查询获得"},{"name":"澉浦镇","code":"330424105","level":4,"mergeName":"浙江省,嘉兴市,海盐县,澉浦镇","lng":120.88653515017856,"lat":30.390746822431034,"info":"直接查询获得"},{"name":"通元镇","code":"330424106","level":4,"mergeName":"浙江省,嘉兴市,海盐县,通元镇","lng":120.85081475021867,"lat":30.457782888012737,"info":"直接查询获得"},{"name":"海宁市","code":"330481","level":3,"mergeName":"浙江省,嘉兴市,海宁市","lng":120.68656506738283,"lat":30.51792376977565,"info":"直接查询获得"},{"name":"硖石街道","code":"330481001","level":4,"mergeName":"浙江省,嘉兴市,海宁市,硖石街道","lng":120.71446499923393,"lat":30.51971995192213,"info":"直接查询获得"},{"name":"海洲街道","code":"330481002","level":4,"mergeName":"浙江省,嘉兴市,海宁市,海洲街道","lng":120.6896421230767,"lat":30.520102221573172,"info":"直接查询获得"},{"name":"海昌街道","code":"330481003","level":4,"mergeName":"浙江省,嘉兴市,海宁市,海昌街道","lng":120.7070360126664,"lat":30.546423919057613,"info":"直接查询获得"},{"name":"马桥街道","code":"330481004","level":4,"mergeName":"浙江省,嘉兴市,海宁市,马桥街道","lng":120.7082780098645,"lat":30.464963964257095,"info":"直接查询获得"},{"name":"许村镇","code":"330481101","level":4,"mergeName":"浙江省,嘉兴市,海宁市,许村镇","lng":120.36775599273889,"lat":30.43040298206278,"info":"直接查询获得"},{"name":"长安镇","code":"330481103","level":4,"mergeName":"浙江省,嘉兴市,海宁市,长安镇","lng":120.4398389912677,"lat":30.42518092747546,"info":"直接查询获得"},{"name":"周王庙镇","code":"330481105","level":4,"mergeName":"浙江省,嘉兴市,海宁市,周王庙镇","lng":120.51587956455128,"lat":30.46516513004226,"info":"直接查询获得"},{"name":"丁桥镇","code":"330481106","level":4,"mergeName":"浙江省,嘉兴市,海宁市,丁桥镇","lng":120.64866304266143,"lat":30.427331970474416,"info":"直接查询获得"},{"name":"斜桥镇","code":"330481107","level":4,"mergeName":"浙江省,嘉兴市,海宁市,斜桥镇","lng":120.62177298586464,"lat":30.487365961322475,"info":"直接查询获得"},{"name":"黄湾镇","code":"330481108","level":4,"mergeName":"浙江省,嘉兴市,海宁市,黄湾镇","lng":120.79993068375873,"lat":30.3408314326364,"info":"直接查询获得"},{"name":"盐官镇","code":"330481110","level":4,"mergeName":"浙江省,嘉兴市,海宁市,盐官镇","lng":120.56475052836336,"lat":30.457628791825,"info":"直接查询获得"},{"name":"袁花镇","code":"330481112","level":4,"mergeName":"浙江省,嘉兴市,海宁市,袁花镇","lng":120.77714004415674,"lat":30.447723937581017,"info":"直接查询获得"},{"name":"平湖市","code":"330482","level":3,"mergeName":"浙江省,嘉兴市,平湖市","lng":121.02257525525401,"lat":30.682240998057836,"info":"直接查询获得"},{"name":"当湖街道","code":"330482001","level":4,"mergeName":"浙江省,嘉兴市,平湖市,当湖街道","lng":121.02173803451872,"lat":30.68290384775284,"info":"直接查询获得"},{"name":"钟埭街道","code":"330482002","level":4,"mergeName":"浙江省,嘉兴市,平湖市,钟埭街道","lng":121.02346601499771,"lat":30.73193583769268,"info":"直接查询获得"},{"name":"曹桥街道","code":"330482003","level":4,"mergeName":"浙江省,嘉兴市,平湖市,曹桥街道","lng":120.97891257695824,"lat":30.682114126689097,"info":"直接查询获得"},{"name":"乍浦镇","code":"330482101","level":4,"mergeName":"浙江省,嘉兴市,平湖市,乍浦镇","lng":121.10194701486024,"lat":30.610215300521876,"info":"直接查询获得"},{"name":"新埭镇","code":"330482102","level":4,"mergeName":"浙江省,嘉兴市,平湖市,新埭镇","lng":121.08760134535754,"lat":30.825604411464056,"info":"直接查询获得"},{"name":"新仓镇","code":"330482103","level":4,"mergeName":"浙江省,嘉兴市,平湖市,新仓镇","lng":121.19632703411332,"lat":30.728782881447753,"info":"直接查询获得"},{"name":"广陈镇","code":"330482106","level":4,"mergeName":"浙江省,嘉兴市,平湖市,广陈镇","lng":121.09908357621664,"lat":30.756820496912884,"info":"直接查询获得"},{"name":"林埭镇","code":"330482107","level":4,"mergeName":"浙江省,嘉兴市,平湖市,林埭镇","lng":121.10472403651379,"lat":30.658780831596417,"info":"直接查询获得"},{"name":"独山港镇","code":"330482108","level":4,"mergeName":"浙江省,嘉兴市,平湖市,独山港镇","lng":121.23482571335445,"lat":30.68523818811805,"info":"直接查询获得"},{"name":"桐乡市","code":"330483","level":3,"mergeName":"浙江省,嘉兴市,桐乡市","lng":120.57154315530762,"lat":30.63631118771037,"info":"直接查询获得"},{"name":"梧桐街道","code":"330483001","level":4,"mergeName":"浙江省,嘉兴市,桐乡市,梧桐街道","lng":120.57466970763511,"lat":30.654636609454613,"info":"直接查询获得"},{"name":"凤鸣街道","code":"330483003","level":4,"mergeName":"浙江省,嘉兴市,桐乡市,凤鸣街道","lng":120.47482556545647,"lat":30.57961306134898,"info":"直接查询获得"},{"name":"高桥街道","code":"330483004","level":4,"mergeName":"浙江省,嘉兴市,桐乡市,高桥街道","lng":120.55464935239532,"lat":30.527913722871507,"info":"直接查询获得"},{"name":"乌镇镇","code":"330483100","level":4,"mergeName":"浙江省,嘉兴市,桐乡市,乌镇镇","lng":120.49432068146456,"lat":30.74905293873139,"info":"直接查询获得"},{"name":"濮院镇","code":"330483101","level":4,"mergeName":"浙江省,嘉兴市,桐乡市,濮院镇","lng":120.62493196702103,"lat":30.68329486247301,"info":"直接查询获得"},{"name":"屠甸镇","code":"330483102","level":4,"mergeName":"浙江省,嘉兴市,桐乡市,屠甸镇","lng":120.62875704171307,"lat":30.581883930666127,"info":"直接查询获得"},{"name":"石门镇","code":"330483103","level":4,"mergeName":"浙江省,嘉兴市,桐乡市,石门镇","lng":120.45233540904756,"lat":30.630328253160418,"info":"直接查询获得"},{"name":"河山镇","code":"330483104","level":4,"mergeName":"浙江省,嘉兴市,桐乡市,河山镇","lng":120.37486608085037,"lat":30.63901121645483,"info":"直接查询获得"},{"name":"洲泉镇","code":"330483105","level":4,"mergeName":"浙江省,嘉兴市,桐乡市,洲泉镇","lng":120.36221174096187,"lat":30.581377544520628,"info":"直接查询获得"},{"name":"大麻镇","code":"330483106","level":4,"mergeName":"浙江省,嘉兴市,桐乡市,大麻镇","lng":120.3522984905065,"lat":30.504841366436526,"info":"直接查询获得"},{"name":"崇福镇","code":"330483107","level":4,"mergeName":"浙江省,嘉兴市,桐乡市,崇福镇","lng":120.44701501500361,"lat":30.541269889265045,"info":"直接查询获得"},{"name":"湖州市","code":"3305","level":2,"mergeName":"浙江省,湖州市","lng":120.09451660915789,"lat":30.898963937294184,"info":"直接查询获得"},{"name":"吴兴区","code":"330502","level":3,"mergeName":"浙江省,湖州市,吴兴区","lng":120.19160466020135,"lat":30.86295545498643,"info":"直接查询获得"},{"name":"月河街道","code":"330502001","level":4,"mergeName":"浙江省,湖州市,吴兴区,月河街道","lng":120.12243325128807,"lat":30.865190672955524,"info":"直接查询获得"},{"name":"朝阳街道","code":"330502002","level":4,"mergeName":"浙江省,湖州市,吴兴区,朝阳街道","lng":120.1049520446062,"lat":30.86639186253929,"info":"直接查询获得"},{"name":"爱山街道","code":"330502003","level":4,"mergeName":"浙江省,湖州市,吴兴区,爱山街道","lng":120.09403898011823,"lat":30.87068783632717,"info":"直接查询获得"},{"name":"飞英街道","code":"330502004","level":4,"mergeName":"浙江省,湖州市,吴兴区,飞英街道","lng":120.12488903709465,"lat":30.875756861618108,"info":"直接查询获得"},{"name":"龙泉街道","code":"330502005","level":4,"mergeName":"浙江省,湖州市,吴兴区,龙泉街道","lng":120.11915272759958,"lat":30.886441640328883,"info":"直接查询获得"},{"name":"凤凰街道","code":"330502006","level":4,"mergeName":"浙江省,湖州市,吴兴区,凤凰街道","lng":120.09800904131957,"lat":30.884931809125145,"info":"直接查询获得"},{"name":"康山街道","code":"330502007","level":4,"mergeName":"浙江省,湖州市,吴兴区,康山街道","lng":120.0652366922976,"lat":30.831977607387675,"info":"直接查询获得"},{"name":"仁皇山街道","code":"330502008","level":4,"mergeName":"浙江省,湖州市,吴兴区,仁皇山街道","lng":120.09341492728045,"lat":30.900146402161596,"info":"直接查询获得"},{"name":"滨湖街道","code":"330502009","level":4,"mergeName":"浙江省,湖州市,吴兴区,滨湖街道","lng":120.11744726584311,"lat":30.93617779809921,"info":"直接查询获得"},{"name":"龙溪街道","code":"330502010","level":4,"mergeName":"浙江省,湖州市,吴兴区,龙溪街道","lng":120.04229951481267,"lat":30.891266948263066,"info":"直接查询获得"},{"name":"杨家埠街道","code":"330502011","level":4,"mergeName":"浙江省,湖州市,吴兴区,杨家埠街道","lng":119.98805687718662,"lat":30.888049062865605,"info":"直接查询获得"},{"name":"环渚街道","code":"330502012","level":4,"mergeName":"浙江省,湖州市,吴兴区,环渚街道","lng":120.13970034685165,"lat":30.903874615063675,"info":"直接查询获得"},{"name":"湖东街道","code":"330502013","level":4,"mergeName":"浙江省,湖州市,吴兴区,湖东街道","lng":120.19160466020135,"lat":30.86295545498643,"info":"直接查询获得"},{"name":"织里镇","code":"330502100","level":4,"mergeName":"浙江省,湖州市,吴兴区,织里镇","lng":120.27584074414409,"lat":30.868815166861634,"info":"直接查询获得"},{"name":"八里店镇","code":"330502101","level":4,"mergeName":"浙江省,湖州市,吴兴区,八里店镇","lng":120.20775879835672,"lat":30.86759402946052,"info":"直接查询获得"},{"name":"妙西镇","code":"330502102","level":4,"mergeName":"浙江省,湖州市,吴兴区,妙西镇","lng":120.01566002776163,"lat":30.78554776093718,"info":"直接查询获得"},{"name":"埭溪镇","code":"330502104","level":4,"mergeName":"浙江省,湖州市,吴兴区,埭溪镇","lng":120.0204523978268,"lat":30.66657608068662,"info":"直接查询获得"},{"name":"东林镇","code":"330502105","level":4,"mergeName":"浙江省,湖州市,吴兴区,东林镇","lng":120.11146799345336,"lat":30.68613984239546,"info":"直接查询获得"},{"name":"道场乡","code":"330502200","level":4,"mergeName":"浙江省,湖州市,吴兴区,道场乡","lng":120.10624928759316,"lat":30.84860556138396,"info":"直接查询获得"},{"name":"南浔区","code":"330503","level":3,"mergeName":"浙江省,湖州市,南浔区","lng":120.42460139422415,"lat":30.855242982242903,"info":"直接查询获得"},{"name":"南浔镇","code":"330503100","level":4,"mergeName":"浙江省,湖州市,南浔区,南浔镇","lng":120.42462367220081,"lat":30.85553098575279,"info":"直接查询获得"},{"name":"双林镇","code":"330503101","level":4,"mergeName":"浙江省,湖州市,南浔区,双林镇","lng":120.33681556622817,"lat":30.778401603753757,"info":"直接查询获得"},{"name":"练市镇","code":"330503102","level":4,"mergeName":"浙江省,湖州市,南浔区,练市镇","lng":120.42833313497371,"lat":30.712825515711728,"info":"直接查询获得"},{"name":"善琏镇","code":"330503103","level":4,"mergeName":"浙江省,湖州市,南浔区,善琏镇","lng":120.32417703651663,"lat":30.705503829222536,"info":"直接查询获得"},{"name":"旧馆镇","code":"330503104","level":4,"mergeName":"浙江省,湖州市,南浔区,旧馆镇","lng":120.28817340082948,"lat":30.841326396321037,"info":"直接查询获得"},{"name":"菱湖镇","code":"330503105","level":4,"mergeName":"浙江省,湖州市,南浔区,菱湖镇","lng":120.19092311581092,"lat":30.718936866834902,"info":"直接查询获得"},{"name":"和孚镇","code":"330503106","level":4,"mergeName":"浙江省,湖州市,南浔区,和孚镇","lng":120.16947158023264,"lat":30.783197646317404,"info":"直接查询获得"},{"name":"千金镇","code":"330503107","level":4,"mergeName":"浙江省,湖州市,南浔区,千金镇","lng":120.2480678326921,"lat":30.682381612334073,"info":"直接查询获得"},{"name":"石淙镇","code":"330503108","level":4,"mergeName":"浙江省,湖州市,南浔区,石淙镇","lng":120.27365687361879,"lat":30.72652325563688,"info":"直接查询获得"},{"name":"德清县","code":"330521","level":3,"mergeName":"浙江省,湖州市,德清县","lng":119.98346466845346,"lat":30.548628239138925,"info":"直接查询获得"},{"name":"武康街道","code":"330521001","level":4,"mergeName":"浙江省,湖州市,德清县,武康街道","lng":119.97994897017907,"lat":30.540466248138713,"info":"直接查询获得"},{"name":"舞阳街道","code":"330521002","level":4,"mergeName":"浙江省,湖州市,德清县,舞阳街道","lng":119.97471903549997,"lat":30.528472885067412,"info":"直接查询获得"},{"name":"阜溪街道","code":"330521003","level":4,"mergeName":"浙江省,湖州市,德清县,阜溪街道","lng":119.98004526852974,"lat":30.560968387596972,"info":"直接查询获得"},{"name":"下渚湖街道","code":"330521004","level":4,"mergeName":"浙江省,湖州市,德清县,下渚湖街道","lng":120.0482651042129,"lat":30.527960851271025,"info":"直接查询获得"},{"name":"康乾街道","code":"330521005","level":4,"mergeName":"浙江省,湖州市,德清县,康乾街道","lng":119.98346466845346,"lat":30.548628239138925,"info":"直接查询获得"},{"name":"乾元镇","code":"330521101","level":4,"mergeName":"浙江省,湖州市,德清县,乾元镇","lng":120.0908272684284,"lat":30.555791735892278,"info":"直接查询获得"},{"name":"新市镇","code":"330521102","level":4,"mergeName":"浙江省,湖州市,德清县,新市镇","lng":120.28403041581747,"lat":30.621752497120934,"info":"直接查询获得"},{"name":"洛舍镇","code":"330521103","level":4,"mergeName":"浙江省,湖州市,德清县,洛舍镇","lng":120.09027777494795,"lat":30.642777364518533,"info":"直接查询获得"},{"name":"钟管镇","code":"330521104","level":4,"mergeName":"浙江省,湖州市,德清县,钟管镇","lng":120.18994261534677,"lat":30.656280883684218,"info":"直接查询获得"},{"name":"雷甸镇","code":"330521110","level":4,"mergeName":"浙江省,湖州市,德清县,雷甸镇","lng":120.15194474142747,"lat":30.52697908261449,"info":"直接查询获得"},{"name":"禹越镇","code":"330521113","level":4,"mergeName":"浙江省,湖州市,德清县,禹越镇","lng":120.27052475179715,"lat":30.521975593121756,"info":"直接查询获得"},{"name":"新安镇","code":"330521114","level":4,"mergeName":"浙江省,湖州市,德清县,新安镇","lng":120.22497644040536,"lat":30.535457705731975,"info":"直接查询获得"},{"name":"莫干山镇","code":"330521115","level":4,"mergeName":"浙江省,湖州市,德清县,莫干山镇","lng":119.9077489224423,"lat":30.605517104398434,"info":"直接查询获得"},{"name":"长兴县","code":"330522","level":3,"mergeName":"浙江省,湖州市,长兴县","lng":119.91749832197264,"lat":31.0325793268347,"info":"直接查询获得"},{"name":"雉城街道","code":"330522001","level":4,"mergeName":"浙江省,湖州市,长兴县,雉城街道","lng":119.90884171109519,"lat":31.00927974047546,"info":"直接查询获得"},{"name":"画溪街道","code":"330522002","level":4,"mergeName":"浙江省,湖州市,长兴县,画溪街道","lng":119.90185792473842,"lat":30.994189718945258,"info":"直接查询获得"},