[{"name":"浙江省","code":"33","level":1,"mergeName":"浙江省,浙江省","lng":120.1595368602756,"lat":30.271548861193377,"info":"直接检索POI第一个结果成功!","tag":""},{"name":"杭州市","code":"3301","level":2,"mergeName":"浙江省,杭州市","lng":120.21551027660232,"lat":30.253082357765866,"info":"直接检索POI第一个结果成功!","tag":""},{"name":"上城区","code":"330102","level":3,"mergeName":"浙江省,杭州市,上城区","lng":120.1755805966838,"lat":30.248398888394117,"info":"直接检索POI第一个结果成功!","tag":""},{"name":"清波街道","code":"330102001","level":4,"mergeName":"浙江省,杭州市,上城区,清波街道","lng":120.16742721655304,"lat":30.24422218218931,"info":"直接检索POI第一个结果成功!","tag":["行政地标","乡镇"]},{"name":"湖滨街道","code":"330102003","level":4,"mergeName":"浙江省,杭州市,上城区,湖滨街道","lng":120.17706369908078,"lat":30.261247043634683,"info":"直接检索POI第一个结果成功!","tag":""},{"name":"小营街道","code":"330102004","level":4,"mergeName":"浙江省,杭州市,上城区,小营街道","lng":120.18340905971161,"lat":30.245384424270643,"info":"直接检索POI第一个结果成功!","tag":["行政地标","乡镇"]},{"name":"南星街道","code":"330102008","level":4,"mergeName":"浙江省,杭州市,上城区,南星街道","lng":120.1687649731185,"lat":30.213099882525512,"info":"直接检索POI第一个结果成功!","tag":["行政地标","乡镇"]},{"name":"紫阳街道","code":"330102009","level":4,"mergeName":"浙江省,杭州市,上城区,紫阳街道","lng":120.18307210531482,"lat":30.224891174161048,"info":"直接检索POI第一个结果成功!","tag":["行政地标","乡镇"]},{"name":"望江街道","code":"330102010","level":4,"mergeName":"浙江省,杭州市,上城区,望江街道","lng":120.20492698006706,"lat":30.241132708159455,"info":"直接检索POI第一个结果成功!","tag":["行政地标","乡镇"]},{"name":"下城区","code":"330103","level":3,"mergeName":"浙江省,杭州市,下城区","lng":120.1876089074624,"lat":30.286743272922102,"info":"直接检索POI第一个结果成功!","tag":""},{"name":"长庆街道","code":"330103001","level":4,"mergeName":"浙江省,杭州市,下城区,长庆街道","lng":120.17948148836088,"lat":30.265998595147174,"info":"直接检索POI第一个结果成功!","tag":["行政地标","乡镇"]},{"name":"武林街道","code":"330103002","level":4,"mergeName":"浙江省,杭州市,下城区,武林街道","lng":120.17469172338168,"lat":30.26813188676309,"info":"直接检索POI第一个结果成功!","tag":["行政地标","乡镇"]},{"name":"天水街道","code":"330103003","level":4,"mergeName":"浙江省,杭州市,下城区,天水街道","lng":120.16891373251094,"lat":30.2729978809604,"info":"直接检索POI第一个结果成功!","tag":["行政地标","乡镇"]},{"name":"潮鸣街道","code":"330103005","level":4,"mergeName":"浙江省,杭州市,下城区,潮鸣街道","lng":120.18815750263735,"lat":30.266294998921417,"info":"直接检索POI第一个结果成功!","tag":["行政地标","乡镇"]},{"name":"朝晖街道","code":"330103006","level":4,"mergeName":"浙江省,杭州市,下城区,朝晖街道","lng":120.16657517377682,"lat":30.29598187259978,"info":"直接检索POI第一个结果成功!","tag":["行政地标","乡镇"]},{"name":"文晖街道","code":"330103007","level":4,"mergeName":"浙江省,杭州市,下城区,文晖街道","lng":120.18785764825812,"lat":30.298632124445618,"info":"直接检索POI第一个结果成功!","tag":["行政地标","乡镇"]},{"name":"东新街道","code":"330103008","level":4,"mergeName":"浙江省,杭州市,下城区,东新街道","lng":120.177961555438,"lat":30.316452968377387,"info":"直接检索POI第一个结果成功!","tag":["行政地标","乡镇"]},{"name":"石桥街道","code":"330103009","level":4,"mergeName":"浙江省,杭州市,下城区,石桥街道","lng":120.1916505636129,"lat":30.34479781607656,"info":"直接检索POI第一个结果成功!","tag":["行政地标","乡镇"]},{"name":"江干区","code":"330104","level":3,"mergeName":"浙江省,杭州市,江干区","lng":120.21153976624822,"lat":30.26331033306366,"info":"直接检索POI第一个结果成功!","tag":""},{"name":"凯旋街道","code":"330104005","level":4,"mergeName":"浙江省,杭州市,江干区,凯旋街道","lng":120.21080620996877,"lat":30.273408184413586,"info":"直接检索POI第一个结果成功!","tag":["行政地标","乡镇"]},{"name":"采荷街道","code":"330104006","level":4,"mergeName":"浙江省,杭州市,江干区,采荷街道","lng":120.20495617499614,"lat":30.261477721223915,"info":"直接检索POI第一个结果成功!","tag":["行政地标","乡镇"]},{"name":"闸弄口街道","code":"330104007","level":4,"mergeName":"浙江省,杭州市,江干区,闸弄口街道","lng":120.19753617148372,"lat":30.29568961314322,"info":"直接检索POI第一个结果成功!","tag":["行政地标","乡镇"]},{"name":"四季青街道","code":"330104008","level":4,"mergeName":"浙江省,杭州市,江干区,四季青街道","lng":120.20937484996918,"lat":30.25822081179476,"info":"直接检索POI第一个结果成功!","tag":["行政地标","乡镇"]},{"name":"白杨街道","code":"330104009","level":4,"mergeName":"浙江省,杭州市,江干区,白杨街道","lng":120.35753210823819,"lat":30.312821048372566,"info":"直接检索POI第一个结果成功!","tag":["行政地标","乡镇"]},{"name":"下沙街道","code":"330104010","level":4,"mergeName":"浙江省,杭州市,江干区,下沙街道","lng":120.33119271271902,"lat":30.308150123630647,"info":"直接检索POI第一个结果成功!","tag":["行政地标","乡镇"]},{"name":"彭埠街道","code":"330104011","level":4,"mergeName":"浙江省,杭州市,江干区,彭埠街道","lng":120.23529518596794,"lat":30.294923840861383,"info":"直接检索POI第一个结果成功!","tag":["行政地标","乡镇"]},{"name":"笕桥街道","code":"330104012","level":4,"mergeName":"浙江省,杭州市,江干区,笕桥街道","lng":120.22469751654452,"lat":30.322047346256035,"info":"直接检索POI第一个结果成功!","tag":["行政地标","乡镇"]},{"name":"丁兰街道","code":"330104013","level":4,"mergeName":"浙江省,杭州市,江干区,丁兰街道","lng":120.22473964707294,"lat":30.364221041344425,"info":"直接检索POI第一个结果成功!","tag":["行政地标","乡镇"]},{"name":"九堡街道","code":"330104014","level":4,"mergeName":"浙江省,杭州市,江干区,九堡街道","lng":120.27892875916518,"lat":30.31718154954364,"info":"直接检索POI第一个结果成功!","tag":""},{"name":"拱墅区","code":"330105","level":3,"mergeName":"浙江省,杭州市,拱墅区","lng":120.14844278722737,"lat":30.32464194316172,"info":"直接检索POI第一个结果成功!","tag":""},{"name":"米市巷街道","code":"330105001","level":4,"mergeName":"浙江省,杭州市,拱墅区,米市巷街道","lng":120.15684436917054,"lat":30.2924570042842,"info":"直接检索POI第一个结果成功!","tag":["行政地标","乡镇"]},{"name":"湖墅街道","code":"330105002","level":4,"mergeName":"浙江省,杭州市,拱墅区,湖墅街道","lng":120.15174531760425,"lat":30.29939927064557,"info":"直接检索POI第一个结果成功!","tag":["行政地标","乡镇"]},{"name":"小河街道","code":"330105003","level":4,"mergeName":"浙江省,杭州市,拱墅区,小河街道","lng":120.13864128597746,"lat":30.312087757842487,"info":"直接检索POI第一个结果成功!","tag":["行政地标","乡镇"]},{"name":"和睦街道","code":"330105004","level":4,"mergeName":"浙江省,杭州市,拱墅区,和睦街道","lng":120.13092430266343,"lat":30.31375846432401,"info":"直接检索POI第一个结果成功!","tag":["行政地标","乡镇"]},{"name":"拱宸桥街道","code":"330105005","level":4,"mergeName":"浙江省,杭州市,拱墅区,拱宸桥街道","lng":120.15118764954366,"lat":30.327403789260977,"info":"直接检索POI第一个结果成功!","tag":["行政地标","乡镇"]},{"name":"大关街道","code":"330105007","level":4,"mergeName":"浙江省,杭州市,拱墅区,大关街道","lng":120.16302300429872,"lat":30.31130036849442,"info":"直接检索POI第一个结果成功!","tag":["行政地标","乡镇"]},{"name":"上塘街道","code":"330105008","level":4,"mergeName":"浙江省,杭州市,拱墅区,上塘街道","lng":120.16270689058976,"lat":30.3188820965509,"info":"直接检索POI第一个结果成功!","tag":["行政地标","乡镇"]},{"name":"祥符街道","code":"330105009","level":4,"mergeName":"浙江省,杭州市,拱墅区,祥符街道","lng":120.10528046510065,"lat":30.331426051114523,"info":"直接检索POI第一个结果成功!","tag":""},{"name":"康桥街道","code":"330105010","level":4,"mergeName":"浙江省,杭州市,拱墅区,康桥街道","lng":120.15561063638313,"lat":30.370868007488323,"info":"直接检索POI第一个结果成功!","tag":["行政地标","乡镇"]},{"name":"半山街道","code":"330105011","level":4,"mergeName":"浙江省,杭州市,拱墅区,半山街道","lng":120.18745080569265,"lat":30.355147174150186,"info":"直接检索POI第一个结果成功!","tag":""},{"name":"西湖区","code":"330106","level":3,"mergeName":"浙江省,杭州市,西湖区","lng":120.13644142561407,"lat":30.26591687145352,"info":"直接检索POI第一个结果成功!","tag":""},{"name":"北山街道","code":"330106002","level":4,"mergeName":"浙江省,杭州市,西湖区,北山街道","lng":120.15600696877415,"lat":30.27501460479079,"info":"直接检索POI第一个结果成功!","tag":["行政地标","乡镇"]},{"name":"西溪街道","code":"330106004","level":4,"mergeName":"浙江省,杭州市,西湖区,西溪街道","lng":120.15605664506884,"lat":30.28108347148038,"info":"直接检索POI第一个结果成功!","tag":["行政地标","乡镇"]},{"name":"翠苑街道","code":"330106005","level":4,"mergeName":"浙江省,杭州市,西湖区,翠苑街道","lng":120.13438718057385,"lat":30.295822139546225,"info":"直接检索POI第一个结果成功!","tag":["行政地标","乡镇"]},{"name":"古荡街道","code":"330106007","level":4,"mergeName":"浙江省,杭州市,西湖区,古荡街道","lng":120.12512762703808,"lat":30.283104159725507,"info":"直接检索POI第一个结果成功!","tag":["行政地标","乡镇"]},{"name":"西湖街道","code":"330106008","level":4,"mergeName":"浙江省,杭州市,西湖区,西湖街道","lng":120.11785377783215,"lat":30.251886125202528,"info":"直接检索POI第一个结果成功!","tag":["行政地标","乡镇"]},{"name":"留下街道","code":"330106009","level":4,"mergeName":"浙江省,杭州市,西湖区,留下街道","lng":120.05967744690331,"lat":30.24839389673277,"info":"直接检索POI第一个结果成功!","tag":""},{"name":"转塘街道","code":"330106010","level":4,"mergeName":"浙江省,杭州市,西湖区,转塘街道","lng":120.08586529828294,"lat":30.165062942888564,"info":"直接检索POI第一个结果成功!","tag":["行政地标","乡镇"]},{"name":"蒋村街道","code":"330106011","level":4,"mergeName":"浙江省,杭州市,西湖区,蒋村街道","lng":120.07134472869745,"lat":30.286275020349166,"info":"直接检索POI第一个结果成功!","tag":["行政地标","乡镇"]},{"name":"灵隐街道","code":"330106012","level":4,"mergeName":"浙江省,杭州市,西湖区,灵隐街道","lng":120.13301088670201,"lat":30.265263391355425,"info":"直接检索POI第一个结果成功!","tag":["行政地标","乡镇"]},{"name":"文新街道","code":"330106013","level":4,"mergeName":"浙江省,杭州市,西湖区,文新街道","lng":120.11021854031954,"lat":30.282522447207437,"info":"直接检索POI第一个结果成功!","tag":["行政地标","乡镇"]},{"name":"三墩镇","code":"330106109","level":4,"mergeName":"浙江省,杭州市,西湖区,三墩镇","lng":120.09154573317528,"lat":30.327363109122278,"info":"直接检索POI第一个结果成功!","tag":["行政地标","乡镇"]},{"name":"双浦镇","code":"330106110","level":4,"mergeName":"浙江省,杭州市,西湖区,双浦镇","lng":120.12836332348503,"lat":30.11931680947485,"info":"直接检索POI第一个结果成功!","tag":["行政地标","乡镇"]},{"name":"滨江区","code":"330108","level":3,"mergeName":"浙江省,杭州市,滨江区","lng":120.21847468478525,"lat":30.214332638056028,"info":"直接检索POI第一个结果成功!","tag":""},{"name":"西兴街道","code":"330108001","level":4,"mergeName":"浙江省,杭州市,滨江区,西兴街道","lng":120.23917883017923,"lat":30.193553551742763,"info":"直接检索POI第一个结果成功!","tag":["行政地标","乡镇"]},{"name":"长河街道","code":"330108002","level":4,"mergeName":"浙江省,杭州市,滨江区,长河街道","lng":120.19629165903021,"lat":30.1832357503361,"info":"直接检索POI第一个结果成功!","tag":["行政地标","乡镇"]},{"name":"浦沿街道","code":"330108003","level":4,"mergeName":"浙江省,杭州市,滨江区,浦沿街道","lng":120.16826569491604,"lat":30.170666422868965,"info":"直接检索POI第一个结果成功!","tag":["名称标注类"]},{"name":"萧山区","code":"330109","level":3,"mergeName":"浙江省,杭州市,萧山区","lng":120.27046860770277,"lat":30.187510831996676,"info":"直接检索POI第一个结果成功!","tag":""},{"name":"城厢街道","code":"330109001","level":4,"mergeName":"浙江省,杭州市,萧山区,城厢街道","lng":120.28061595657402,"lat":30.16636788734712,"info":"直接检索POI第一个结果成功!","tag":["行政地标","乡镇"]},{"name":"北干街道","code":"330109002","level":4,"mergeName":"浙江省,杭州市,萧山区,北干街道","lng":120.28366157157507,"lat":30.18728825172487,"info":"直接检索POI第一个结果成功!","tag":["行政地标","乡镇"]},{"name":"蜀山街道","code":"330109003","level":4,"mergeName":"浙江省,杭州市,萧山区,蜀山街道","lng":120.26776461828719,"lat":30.130619905854417,"info":"直接检索POI第一个结果成功!","tag":["行政地标","乡镇"]},{"name":"新塘街道","code":"330109004","level":4,"mergeName":"浙江省,杭州市,萧山区,新塘街道","lng":120.31560971720688,"lat":30.15418345938362,"info":"直接检索POI第一个结果成功!","tag":["行政地标","乡镇"]},{"name":"靖江街道","code":"330109005","level":4,"mergeName":"浙江省,杭州市,萧山区,靖江街道","lng":120.48281105228742,"lat":30.236182746482935,"info":"直接检索POI第一个结果成功!","tag":["行政地标","乡镇"]},{"name":"南阳街道","code":"330109006","level":4,"mergeName":"浙江省,杭州市,萧山区,南阳街道","lng":120.45060581161866,"lat":30.268513982521338,"info":"直接检索POI第一个结果成功!","tag":["行政地标","乡镇"]},{"name":"义蓬街道","code":"330109007","level":4,"mergeName":"浙江省,杭州市,萧山区,义蓬街道","lng":120.49751272026373,"lat":30.280957162450296,"info":"直接检索POI第一个结果成功!","tag":["行政地标","乡镇"]},{"name":"河庄街道","code":"330109008","level":4,"mergeName":"浙江省,杭州市,萧山区,河庄街道","lng":120.46384764331069,"lat":30.30425676107401,"info":"直接检索POI第一个结果成功!","tag":["行政地标","乡镇"]},{"name":"新湾街道","code":"330109009","level":4,"mergeName":"浙江省,杭州市,萧山区,新湾街道","lng":120.55361145020909,"lat":30.285776671141683,"info":"直接检索POI第一个结果成功!","tag":["行政地标","村庄"]},{"name":"临江街道","code":"330109010","level":4,"mergeName":"浙江省,杭州市,萧山区,临江街道","lng":120.60922895789275,"lat":30.2451276574009,"info":"直接检索POI第一个结果成功!","tag":""},{"name":"前进街道","code":"330109011","level":4,"mergeName":"浙江省,杭州市,萧山区,前进街道","lng":120.56741966352517,"lat":30.363823352464514,"info":"直接检索POI第一个结果成功!","tag":""},{"name":"闻堰街道","code":"330109012","level":4,"mergeName":"浙江省,杭州市,萧山区,闻堰街道","lng":120.19039167827121,"lat":30.128637440798975,"info":"直接检索POI第一个结果成功!","tag":["行政地标","乡镇"]},{"name":"宁围街道","code":"330109013","level":4,"mergeName":"浙江省,杭州市,萧山区,宁围街道","lng":120.28656669159435,"lat":30.220684280649383,"info":"直接检索POI第一个结果成功!","tag":["行政地标","乡镇"]},{"name":"新街街道","code":"330109014","level":4,"mergeName":"浙江省,杭州市,萧山区,新街街道","lng":120.34444209017732,"lat":30.19783403365515,"info":"直接检索POI第一个结果成功!","tag":["行政地标","乡镇"]},{"name":"盈丰街道","code":"330109015","level":4,"mergeName":"浙江省,杭州市,萧山区,盈丰街道","lng":120.2746751927449,"lat":30.225446707060478,"info":"直接检索POI第一个结果成功!","tag":""},{"name":"楼塔镇","code":"330109100","level":4,"mergeName":"浙江省,杭州市,萧山区,楼塔镇","lng":120.14649434579985,"lat":29.918544700400993,"info":"直接检索POI第一个结果成功!","tag":["行政地标","乡镇"]},{"name":"河上镇","code":"330109101","level":4,"mergeName":"浙江省,杭州市,萧山区,河上镇","lng":120.18062663143736,"lat":29.95489442906339,"info":"直接检索POI第一个结果成功!","tag":["行政地标","乡镇"]},{"name":"戴村镇","code":"330109102","level":4,"mergeName":"浙江省,杭州市,萧山区,戴村镇","lng":120.20180869215028,"lat":30.024142420529436,"info":"直接检索POI第一个结果成功!","tag":["行政地标","乡镇"]},{"name":"浦阳镇","code":"330109103","level":4,"mergeName":"浙江省,杭州市,萧山区,浦阳镇","lng":120.25593463655267,"lat":29.986852526772797,"info":"直接检索POI第一个结果成功!","tag":["行政地标","乡镇"]},{"name":"进化镇","code":"330109104","level":4,"mergeName":"浙江省,杭州市,萧山区,进化镇","lng":120.29978489785145,"lat":30.016374752085255,"info":"直接检索POI第一个结果成功!","tag":["行政地标","乡镇"]},{"name":"临浦镇","code":"330109105","level":4,"mergeName":"浙江省,杭州市,萧山区,临浦镇","lng":120.25562330067542,"lat":30.05194338264509,"info":"直接检索POI第一个结果成功!","tag":["行政地标","乡镇"]},{"name":"义桥镇","code":"330109106","level":4,"mergeName":"浙江省,杭州市,萧山区,义桥镇","lng":120.2116154934027,"lat":30.073336892598626,"info":"直接检索POI第一个结果成功!","tag":["行政地标","乡镇"]},{"name":"所前镇","code":"330109107","level":4,"mergeName":"浙江省,杭州市,萧山区,所前镇","lng":120.28983984738105,"lat":30.11761691340113,"info":"直接检索POI第一个结果成功!","tag":["行政地标","乡镇"]},{"name":"衙前镇","code":"330109108","level":4,"mergeName":"浙江省,杭州市,萧山区,衙前镇","lng":120.39702449303444,"lat":30.173263421526038,"info":"直接检索POI第一个结果成功!","tag":["行政地标","乡镇"]},{"name":"瓜沥镇","code":"330109113","level":4,"mergeName":"浙江省,杭州市,萧山区,瓜沥镇","lng":120.46466231657769,"lat":30.196598182029952,"info":"直接检索POI第一个结果成功!","tag":["行政地标","乡镇"]},{"name":"益农镇","code":"330109115","level":4,"mergeName":"浙江省,杭州市,萧山区,益农镇","lng":120.59933187693657,"lat":30.20121399259655,"info":"直接检索POI第一个结果成功!","tag":["行政地标","乡镇"]},{"name":"党湾镇","code":"330109120","level":4,"mergeName":"浙江省,杭州市,萧山区,党湾镇","lng":120.55608574290576,"lat":30.23039900897484,"info":"直接检索POI第一个结果成功!","tag":["名称标注类"]},{"name":"萧山经济技术开发区","code":"330109401","level":4,"mergeName":"浙江省,杭州市,萧山区,萧山经济技术开发区","lng":120.35990300597068,"lat":30.236745079299684,"info":"直接检索POI第一个结果成功!","tag":""},{"name":"萧山商业城","code":"330109403","level":4,"mergeName":"浙江省,杭州市,萧山区,萧山商业城","lng":120.2977805985976,"lat":30.169995520964637,"info":"直接检索POI第一个结果成功!","tag":["购物","批发市场/集市"]},{"name":"围垦区","code":"330109501","level":4,"mergeName":"浙江省,杭州市,萧山区,围垦区","lng":120.34042423912285,"lat":30.336521476595042,"info":"直接检索POI第一个结果成功!","tag":["道路"]},{"name":"红山农场","code":"330109503","level":4,"mergeName":"浙江省,杭州市,萧山区,红山农场","lng":120.39148401414056,"lat":30.237871061238504,"info":"直接检索POI第一个结果成功!","tag":""},{"name":"萧山钱江世纪城","code":"330109505","level":4,"mergeName":"浙江省,杭州市,萧山区,萧山钱江世纪城","lng":120.25940732280566,"lat":30.230039932261246,"info":"直接检索POI第一个结果成功!","tag":""},{"name":"余杭区","code":"330110","level":3,"mergeName":"浙江省,杭州市,余杭区","lng":120.30658947225899,"lat":30.424738645921604,"info":"直接检索POI第一个结果成功!","tag":""},{"name":"临平街道","code":"330110001","level":4,"mergeName":"浙江省,杭州市,余杭区,临平街道","lng":120.31556399345644,"lat":30.446553923642135,"info":"直接检索POI第一个结果成功!","tag":""},{"name":"南苑街道","code":"330110002","level":4,"mergeName":"浙江省,杭州市,余杭区,南苑街道","lng":120.31552437818344,"lat":30.411691090904245,"info":"直接检索POI第一个结果成功!","tag":["行政地标","乡镇"]},{"name":"东湖街道","code":"330110003","level":4,"mergeName":"浙江省,杭州市,余杭区,东湖街道","lng":120.2871628969613,"lat":30.431118172449995,"info":"直接检索POI第一个结果成功!","tag":""},{"name":"星桥街道","code":"330110004","level":4,"mergeName":"浙江省,杭州市,余杭区,星桥街道","lng":120.27150543192239,"lat":30.39174796885145,"info":"直接检索POI第一个结果成功!","tag":["名称标注类"]},{"name":"五常街道","code":"330110005","level":4,"mergeName":"浙江省,杭州市,余杭区,五常街道","lng":120.03792120609604,"lat":30.250514627789922,"info":"直接检索POI第一个结果成功!","tag":["行政地标","乡镇"]},{"name":"乔司街道","code":"330110006","level":4,"mergeName":"浙江省,杭州市,余杭区,乔司街道","lng":120.29280802844711,"lat":30.35488602290686,"info":"直接检索POI第一个结果成功!","tag":["行政地标","乡镇"]},{"name":"运河街道","code":"330110007","level":4,"mergeName":"浙江省,杭州市,余杭区,运河街道","lng":120.3034359707662,"lat":30.481452873988296,"info":"直接检索POI第一个结果成功!","tag":["行政地标","乡镇"]},{"name":"崇贤街道","code":"330110008","level":4,"mergeName":"浙江省,杭州市,余杭区,崇贤街道","lng":120.18138697400865,"lat":30.393277666300094,"info":"直接检索POI第一个结果成功!","tag":["行政地标","乡镇"]},{"name":"仁和街道","code":"330110009","level":4,"mergeName":"浙江省,杭州市,余杭区,仁和街道","lng":120.09800410063927,"lat":30.450074118961922,"info":"直接检索POI第一个结果成功!","tag":["行政地标","乡镇"]},{"name":"良渚街道","code":"330110010","level":4,"mergeName":"浙江省,杭州市,余杭区,良渚街道","lng":120.05363768980698,"lat":30.385923807187268,"info":"直接检索POI第一个结果成功!","tag":["行政地标","乡镇"]},{"name":"闲林街道","code":"330110011","level":4,"mergeName":"浙江省,杭州市,余杭区,闲林街道","lng":119.98947460180688,"lat":30.237865211002315,"info":"直接检索POI第一个结果成功!","tag":["行政地标","乡镇"]},{"name":"仓前街道","code":"330110012","level":4,"mergeName":"浙江省,杭州市,余杭区,仓前街道","lng":120.01625605346752,"lat":30.289167375561437,"info":"直接检索POI第一个结果成功!","tag":["行政地标","乡镇"]},{"name":"余杭街道","code":"330110013","level":4,"mergeName":"浙江省,杭州市,余杭区,余杭街道","lng":119.95970547585063,"lat":30.262915583594296,"info":"直接检索POI第一个结果成功!","tag":["行政地标","乡镇"]},{"name":"中泰街道","code":"330110014","level":4,"mergeName":"浙江省,杭州市,余杭区,中泰街道","lng":119.93512289641731,"lat":30.243552566579076,"info":"直接检索POI第一个结果成功!","tag":["行政地标","乡镇"]},{"name":"塘栖镇","code":"330110102","level":4,"mergeName":"浙江省,杭州市,余杭区,塘栖镇","lng":120.19495956178945,"lat":30.479449006742474,"info":"直接检索POI第一个结果成功!","tag":["行政地标","乡镇"]},{"name":"径山镇","code":"330110109","level":4,"mergeName":"浙江省,杭州市,余杭区,径山镇","lng":119.87177834439791,"lat":30.38135205180062,"info":"直接检索POI第一个结果成功!","tag":["行政地标","乡镇"]},{"name":"瓶窑镇","code":"330110110","level":4,"mergeName":"浙江省,杭州市,余杭区,瓶窑镇","lng":119.98202145082114,"lat":30.373914874435833,"info":"直接检索POI第一个结果成功!","tag":["行政地标","乡镇"]},{"name":"鸬鸟镇","code":"330110111","level":4,"mergeName":"浙江省,杭州市,余杭区,鸬鸟镇","lng":119.76671935907277,"lat":30.45790421913078,"info":"直接检索POI第一个结果成功!","tag":["行政地标","乡镇"]},{"name":"百丈镇","code":"330110112","level":4,"mergeName":"浙江省,杭州市,余杭区,百丈镇","lng":119.73778089622158,"lat":30.525748046904692,"info":"直接检索POI第一个结果成功!","tag":["行政地标","乡镇"]},{"name":"黄湖镇","code":"330110113","level":4,"mergeName":"浙江省,杭州市,余杭区,黄湖镇","lng":119.81438425790715,"lat":30.45371614488671,"info":"直接检索POI第一个结果成功!","tag":["行政地标","乡镇"]},{"name":"富阳区","code":"330111","level":3,"mergeName":"浙江省,杭州市,富阳区","lng":119.96655388756703,"lat":30.054723279901992,"info":"直接检索POI第一个结果成功!","tag":""},{"name":"富春街道","code":"330111001","level":4,"mergeName":"浙江省,杭州市,富阳区,富春街道","lng":119.94097311105105,"lat":30.047389529457224,"info":"直接检索POI第一个结果成功!","tag":["行政地标","乡镇"]},{"name":"春江街道","code":"330111002","level":4,"mergeName":"浙江省,杭州市,富阳区,春江街道","lng":119.9886001013929,"lat":30.021067322876675,"info":"直接检索POI第一个结果成功!","tag":["行政地标","乡镇"]},{"name":"鹿山街道","code":"330111004","level":4,"mergeName":"浙江省,杭州市,富阳区,鹿山街道","lng":119.90988760820045,"lat":30.00424130932964,"info":"直接检索POI第一个结果成功!","tag":["行政地标","乡镇"]},{"name":"东洲街道","code":"330111005","level":4,"mergeName":"浙江省,杭州市,富阳区,东洲街道","lng":120.02828041170186,"lat":30.079006573896862,"info":"直接检索POI第一个结果成功!","tag":["行政地标","乡镇"]},{"name":"银湖街道","code":"330111006","level":4,"mergeName":"浙江省,杭州市,富阳区,银湖街道","lng":119.9475360412764,"lat":30.102512266416994,"info":"直接检索POI第一个结果成功!","tag":""},{"name":"万市镇","code":"330111100","level":4,"mergeName":"浙江省,杭州市,富阳区,万市镇","lng":119.58063734895295,"lat":30.100673896642274,"info":"直接检索POI第一个结果成功!","tag":["行政地标","乡镇"]},{"name":"洞桥镇","code":"330111101","level":4,"mergeName":"浙江省,杭州市,富阳区,洞桥镇","lng":119.59619618004687,"lat":30.079462775010157,"info":"直接检索POI第一个结果成功!","tag":["行政地标","乡镇"]},{"name":"渌渚镇","code":"330111103","level":4,"mergeName":"浙江省,杭州市,富阳区,渌渚镇","lng":119.74842939309198,"lat":29.89868350211324,"info":"直接检索POI第一个结果成功!","tag":["行政地标","乡镇"]},{"name":"永昌镇","code":"330111105","level":4,"mergeName":"浙江省,杭州市,富阳区,永昌镇","lng":119.74119697241493,"lat":30.040712486192135,"info":"直接检索POI第一个结果成功!","tag":["行政地标","乡镇"]},{"name":"里山镇","code":"330111108","level":4,"mergeName":"浙江省,杭州市,富阳区,里山镇","lng":120.07569818669045,"lat":30.05762227294782,"info":"直接检索POI第一个结果成功!","tag":["行政地标","乡镇"]},{"name":"常绿镇","code":"330111109","level":4,"mergeName":"浙江省,杭州市,富阳区,常绿镇","lng":120.08851851667998,"lat":29.863359000867344,"info":"直接检索POI第一个结果成功!","tag":["行政地标","乡镇"]},{"name":"场口镇","code":"330111110","level":4,"mergeName":"浙江省,杭州市,富阳区,场口镇","lng":119.87526240563157,"lat":29.907274055646294,"info":"直接检索POI第一个结果成功!","tag":["行政地标","乡镇"]},{"name":"常安镇","code":"330111111","level":4,"mergeName":"浙江省,杭州市,富阳区,常安镇","lng":119.90668935439614,"lat":29.88918680399889,"info":"直接检索POI第一个结果成功!","tag":["行政地标","乡镇"]},{"name":"龙门镇","code":"330111112","level":4,"mergeName":"浙江省,杭州市,富阳区,龙门镇","lng":119.95578687084162,"lat":29.90697538885052,"info":"直接检索POI第一个结果成功!","tag":""},{"name":"新登镇","code":"330111115","level":4,"mergeName":"浙江省,杭州市,富阳区,新登镇","lng":119.74097947600855,"lat":29.973529245957014,"info":"直接检索POI第一个结果成功!","tag":["行政地标","乡镇"]},{"name":"胥口镇","code":"330111116","level":4,"mergeName":"浙江省,杭州市,富阳区,胥口镇","lng":119.67653557772732,"lat":29.989765412124807,"info":"直接检索POI第一个结果成功!","tag":["行政地标","乡镇"]},{"name":"大源镇","code":"330111117","level":4,"mergeName":"浙江省,杭州市,富阳区,大源镇","lng":120.01680357067583,"lat":30.006948592825022,"info":"直接检索POI第一个结果成功!","tag":["行政地标","乡镇"]},{"name":"灵桥镇","code":"330111118","level":4,"mergeName":"浙江省,杭州市,富阳区,灵桥镇","lng":120.03573562879026,"lat":30.03355981582071,"info":"直接检索POI第一个结果成功!","tag":""},{"name":"新桐乡","code":"330111200","level":4,"mergeName":"浙江省,杭州市,富阳区,新桐乡","lng":119.82990776892275,"lat":29.917480700057638,"info":"直接检索POI第一个结果成功!","tag":["行政地标","乡镇"]},{"name":"上官乡","code":"330111201","level":4,"mergeName":"浙江省,杭州市,富阳区,上官乡","lng":119.9849864710949,"lat":29.903078784364173,"info":"直接检索POI第一个结果成功!","tag":["行政地标","乡镇"]},{"name":"环山乡","code":"330111204","level":4,"mergeName":"浙江省,杭州市,富阳区,环山乡","lng":119.93369259767825,"lat":29.932292248282202,"info":"直接检索POI第一个结果成功!","tag":["行政地标","乡镇"]},{"name":"湖源乡","code":"330111205","level":4,"mergeName":"浙江省,杭州市,富阳区,湖源乡","lng":119.95758105643611,"lat":29.81966968527193,"info":"直接检索POI第一个结果成功!","tag":["行政地标","乡镇"]},{"name":"春建乡","code":"330111206","level":4,"mergeName":"浙江省,杭州市,富阳区,春建乡","lng":119.8364050496871,"lat":30.080293916566088,"info":"直接检索POI第一个结果成功!","tag":["行政地标","乡镇"]},{"name":"渔山乡","code":"330111207","level":4,"mergeName":"浙江省,杭州市,富阳区,渔山乡","lng":120.1088470074669,"lat":30.07473611903238,"info":"直接检索POI第一个结果成功!","tag":["行政地标","乡镇"]},{"name":"临安区","code":"330112","level":3,"mergeName":"浙江省,杭州市,临安区","lng":119.73151737122271,"lat":30.239805598053564,"info":"直接检索POI第一个结果成功!","tag":""},{"name":"玲珑街道","code":"330112002","level":4,"mergeName":"浙江省,杭州市,临安区,玲珑街道","lng":119.65749627855612,"lat":30.194368271818778,"info":"直接检索POI第一个结果成功!","tag":["名称标注类"]},{"name":"锦南街道","code":"330112005","level":4,"mergeName":"浙江省,杭州市,临安区,锦南街道","lng":119.70829752124806,"lat":30.22037970211767,"info":"直接检索POI第一个结果成功!","tag":["行政地标","乡镇"]},{"name":"锦城街道","code":"330112006","level":4,"mergeName":"浙江省,杭州市,临安区,锦城街道","lng":119.72854442913743,"lat":30.243383621481534,"info":"直接检索POI第一个结果成功!","tag":""},{"name":"锦北街道","code":"330112007","level":4,"mergeName":"浙江省,杭州市,临安区,锦北街道","lng":119.72317103506839,"lat":30.24713076419312,"info":"直接检索POI第一个结果成功!","tag":["行政地标","乡镇"]},{"name":"青山湖街道","code":"330112008","level":4,"mergeName":"浙江省,杭州市,临安区,青山湖街道","lng":119.82179626650054,"lat":30.2541140165937,"info":"直接检索POI第一个结果成功!","tag":["行政地标","乡镇"]},{"name":"高虹镇","code":"330112102","level":4,"mergeName":"浙江省,杭州市,临安区,高虹镇","lng":119.73214474779088,"lat":30.324404713286985,"info":"直接检索POI第一个结果成功!","tag":""},{"name":"太湖源镇","code":"330112103","level":4,"mergeName":"浙江省,杭州市,临安区,太湖源镇","lng":119.60398475831005,"lat":30.27217508553896,"info":"直接检索POI第一个结果成功!","tag":["行政地标","乡镇"]},{"name":"於潜镇","code":"330112104","level":4,"mergeName":"浙江省,杭州市,临安区,於潜镇","lng":119.39938849196848,"lat":30.19342260280421,"info":"直接检索POI第一个结果成功!","tag":["行政地标","乡镇"]},{"name":"太阳镇","code":"330112106","level":4,"mergeName":"浙江省,杭州市,临安区,太阳镇","lng":119.30709460760121,"lat":30.188967814923046,"info":"直接检索POI第一个结果成功!","tag":["行政地标","乡镇"]},{"name":"潜川镇","code":"330112107","level":4,"mergeName":"浙江省,杭州市,临安区,潜川镇","lng":119.4062104935029,"lat":30.097883429812878,"info":"直接检索POI第一个结果成功!","tag":["行政地标","乡镇"]},{"name":"昌化镇","code":"330112108","level":4,"mergeName":"浙江省,杭州市,临安区,昌化镇","lng":119.22443495999794,"lat":30.168568619435337,"info":"直接检索POI第一个结果成功!","tag":["旅游景点"]},{"name":"河桥镇","code":"330112109","level":4,"mergeName":"浙江省,杭州市,临安区,河桥镇","lng":119.25035601464108,"lat":30.11242371420988,"info":"直接检索POI第一个结果成功!","tag":["行政地标","乡镇"]},{"name":"湍口镇","code":"330112111","level":4,"mergeName":"浙江省,杭州市,临安区,湍口镇","lng":119.17041877171634,"lat":30.04575427035492,"info":"直接检索POI第一个结果成功!","tag":["行政地标","乡镇"]},{"name":"清凉峰镇","code":"330112112","level":4,"mergeName":"浙江省,杭州市,临安区,清凉峰镇","lng":119.04304030802918,"lat":30.135984159229626,"info":"直接检索POI第一个结果成功!","tag":["行政地标","乡镇"]},{"name":"岛石镇","code":"330112113","level":4,"mergeName":"浙江省,杭州市,临安区,岛石镇","lng":118.95699207238114,"lat":30.29605351462091,"info":"直接检索POI第一个结果成功!","tag":["行政地标","乡镇"]},{"name":"板桥镇","code":"330112115","level":4,"mergeName":"浙江省,杭州市,临安区,板桥镇","lng":119.78974481573508,"lat":30.167548309601447,"info":"直接检索POI第一个结果成功!","tag":["行政地标","乡镇"]},{"name":"天目山镇","code":"330112116","level":4,"mergeName":"浙江省,杭州市,临安区,天目山镇","lng":119.49724944507271,"lat":30.206350191436833,"info":"直接检索POI第一个结果成功!","tag":""},{"name":"龙岗镇","code":"330112117","level":4,"mergeName":"浙江省,杭州市,临安区,龙岗镇","lng":119.14180127342388,"lat":30.167402260247325,"info":"直接检索POI第一个结果成功!","tag":["行政地标","乡镇"]},{"name":"桐庐县","code":"330122","level":3,"mergeName":"浙江省,杭州市,桐庐县","lng":119.69760120125154,"lat":29.79858502520176,"info":"直接检索POI第一个结果成功!","tag":""},{"name":"旧县街道","code":"330122002","level":4,"mergeName":"浙江省,杭州市,桐庐县,旧县街道","lng":119.6345742900813,"lat":29.8061559852527,"info":"直接检索POI第一个结果成功!","tag":["行政地标","乡镇"]},{"name":"桐君街道","code":"330122003","level":4,"mergeName":"浙江省,杭州市,桐庐县,桐君街道","lng":119.68142469529431,"lat":29.813052004710222,"info":"直接检索POI第一个结果成功!","tag":["行政地标","乡镇"]},{"name":"城南街道","code":"330122004","level":4,"mergeName":"浙江省,杭州市,桐庐县,城南街道","lng":119.69289399055027,"lat":29.78513341072826,"info":"直接检索POI第一个结果成功!","tag":["行政地标","乡镇"]},{"name":"凤川街道","code":"330122005","level":4,"mergeName":"浙江省,杭州市,桐庐县,凤川街道","lng":119.78760027433329,"lat":29.815283538394652,"info":"直接检索POI第一个结果成功!","tag":["行政地标","乡镇"]},{"name":"富春江镇","code":"330122101","level":4,"mergeName":"浙江省,杭州市,桐庐县,富春江镇","lng":119.65645440721114,"lat":29.71515830017617,"info":"直接检索POI第一个结果成功!","tag":["行政地标","乡镇"]},{"name":"横村镇","code":"330122102","level":4,"mergeName":"浙江省,杭州市,桐庐县,横村镇","lng":119.6207024767397,"lat":29.84872442644203,"info":"直接检索POI第一个结果成功!","tag":["行政地标","乡镇"]},{"name":"分水镇","code":"330122109","level":4,"mergeName":"浙江省,杭州市,桐庐县,分水镇","lng":119.45270883625484,"lat":29.93332502497252,"info":"直接检索POI第一个结果成功!","tag":["行政地标","乡镇"]},{"name":"瑶琳镇","code":"330122110","level":4,"mergeName":"浙江省,杭州市,桐庐县,瑶琳镇","lng":119.54530544954838,"lat":29.90277149511478,"info":"直接检索POI第一个结果成功!","tag":["行政地标","乡镇"]},{"name":"百江镇","code":"330122112","level":4,"mergeName":"浙江省,杭州市,桐庐县,百江镇","lng":119.36440369787272,"lat":29.85424261859744,"info":"直接检索POI第一个结果成功!","tag":["行政地标","乡镇"]},{"name":"江南镇","code":"330122113","level":4,"mergeName":"浙江省,杭州市,桐庐县,江南镇","lng":119.78385658612169,"lat":29.861875172598094,"info":"直接检索POI第一个结果成功!","tag":["行政地标","乡镇"]},{"name":"莪山畲族乡","code":"330122201","level":4,"mergeName":"浙江省,杭州市,桐庐县,莪山畲族乡","lng":119.58153482939822,"lat":29.801898439385468,"info":"直接检索POI第一个结果成功!","tag":["行政地标","乡镇"]},{"name":"钟山乡","code":"330122202","level":4,"mergeName":"浙江省,杭州市,桐庐县,钟山乡","lng":119.53837295643851,"lat":29.771782091585763,"info":"直接检索POI第一个结果成功!","tag":["行政地标","乡镇"]},{"name":"新合乡","code":"330122204","level":4,"mergeName":"浙江省,杭州市,桐庐县,新合乡","lng":119.91623690467523,"lat":29.697797111651894,"info":"直接检索POI第一个结果成功!","tag":["行政地标","乡镇"]},{"name":"合村乡","code":"330122210","level":4,"mergeName":"浙江省,杭州市,桐庐县,合村乡","lng":119.31903792217555,"lat":29.940024312964646,"info":"直接检索POI第一个结果成功!","tag":""},{"name":"淳安县","code":"330127","level":3,"mergeName":"浙江省,杭州市,淳安县","lng":119.04839580940494,"lat":29.614949816548844,"info":"直接检索POI第一个结果成功!","tag":""},{"name":"千岛湖镇","code":"330127100","level":4,"mergeName":"浙江省,杭州市,淳安县,千岛湖镇","lng":119.08472795540509,"lat":29.61278631334258,"info":"直接检索POI第一个结果成功!","tag":["行政地标","乡镇"]},{"name":"文昌镇","code":"330127101","level":4,"mergeName":"浙江省,杭州市,淳安县,文昌镇","lng":119.21175751719021,"lat":29.780848159676953,"info":"直接检索POI第一个结果成功!","tag":["行政地标","乡镇"]},{"name":"石林镇","code":"330127102","level":4,"mergeName":"浙江省,杭州市,淳安县,石林镇","lng":119.09679767806372,"lat":29.475466158596415,"info":"直接检索POI第一个结果成功!","tag":["行政地标","乡镇"]},{"name":"临岐镇","code":"330127103","level":4,"mergeName":"浙江省,杭州市,淳安县,临岐镇","lng":119.12695379402372,"lat":29.853173461119837,"info":"直接检索POI第一个结果成功!","tag":["行政地标","乡镇"]},{"name":"威坪镇","code":"330127104","level":4,"mergeName":"浙江省,杭州市,淳安县,威坪镇","lng":118.80211430476805,"lat":29.731262827294373,"info":"直接检索POI第一个结果成功!","tag":["行政地标","乡镇"]},{"name":"姜家镇","code":"330127106","level":4,"mergeName":"浙江省,杭州市,淳安县,姜家镇","lng":118.67134680392661,"lat":29.477687971429173,"info":"直接检索POI第一个结果成功!","tag":["行政地标","乡镇"]},{"name":"梓桐镇","code":"330127107","level":4,"mergeName":"浙江省,杭州市,淳安县,梓桐镇","lng":118.76980171660152,"lat":29.61150275861066,"info":"直接检索POI第一个结果成功!","tag":["行政地标","乡镇"]},{"name":"汾口镇","code":"330127108","level":4,"mergeName":"浙江省,杭州市,淳安县,汾口镇","lng":118.56477812639659,"lat":29.433889185128596,"info":"直接检索POI第一个结果成功!","tag":["行政地标","乡镇"]},{"name":"中洲镇","code":"330127109","level":4,"mergeName":"浙江省,杭州市,淳安县,中洲镇","lng":118.49385672674616,"lat":29.444315040155285,"info":"直接检索POI第一个结果成功!","tag":["行政地标","乡镇"]},{"name":"大墅镇","code":"330127110","level":4,"mergeName":"浙江省,杭州市,淳安县,大墅镇","lng":118.74549886951206,"lat":29.40637457979339,"info":"直接检索POI第一个结果成功!","tag":["行政地标","乡镇"]},{"name":"枫树岭镇","code":"330127111","level":4,"mergeName":"浙江省,杭州市,淳安县,枫树岭镇","lng":118.7160991267912,"lat":29.373852337784424,"info":"直接检索POI第一个结果成功!","tag":["行政地标","乡镇"]},{"name":"里商乡","code":"330127200","level":4,"mergeName":"浙江省,杭州市,淳安县,里商乡","lng":119.00784459191746,"lat":29.495649636962977,"info":"直接检索POI第一个结果成功!","tag":["行政地标","乡镇"]},{"name":"金峰乡","code":"330127201","level":4,"mergeName":"浙江省,杭州市,淳安县,金峰乡","lng":118.92407975907291,"lat":29.68376852915492,"info":"直接检索POI第一个结果成功!","tag":["行政地标","乡镇"]},{"name":"富文乡","code":"330127202","level":4,"mergeName":"浙江省,杭州市,淳安县,富文乡","lng":119.22194340336448,"lat":29.652704617883852,"info":"直接检索POI第一个结果成功!","tag":["行政地标","乡镇"]},{"name":"左口乡","code":"330127203","level":4,"mergeName":"浙江省,杭州市,淳安县,左口乡","lng":119.08273102225708,"lat":29.703456725882347,"info":"直接检索POI第一个结果成功!","tag":["行政地标","乡镇"]},{"name":"屏门乡","code":"330127205","level":4,"mergeName":"浙江省,杭州市,淳安县,屏门乡","lng":119.04527698250587,"lat":29.871362989044844,"info":"直接检索POI第一个结果成功!","tag":["行政地标","乡镇"]},{"name":"瑶山乡","code":"330127206","level":4,"mergeName":"浙江省,杭州市,淳安县,瑶山乡","lng":119.0817366878884,"lat":29.9672389789945,"info":"直接检索POI第一个结果成功!","tag":["行政地标","乡镇"]},{"name":"王阜乡","code":"330127208","level":4,"mergeName":"浙江省,杭州市,淳安县,王阜乡","lng":118.92484655265596,"lat":29.841981970135564,"info":"直接检索POI第一个结果成功!","tag":["名称标注类"]},{"name":"宋村乡","code":"330127210","level":4,"mergeName":"浙江省,杭州市,淳安县,宋村乡","lng":118.86878303630512,"lat":29.689669357580847,"info":"直接检索POI第一个结果成功!","tag":["行政地标","乡镇"]},{"name":"鸠坑乡","code":"330127211","level":4,"mergeName":"浙江省,杭州市,淳安县,鸠坑乡","lng":118.78072987261845,"lat":29.676423106689818,"info":"直接检索POI第一个结果成功!","tag":["行政地标","乡镇"]},{"name":"浪川乡","code":"330127212","level":4,"mergeName":"浙江省,杭州市,淳安县,浪川乡","lng":118.61141293828727,"lat":29.498035333893757,"info":"直接检索POI第一个结果成功!","tag":["行政地标","乡镇"]},{"name":"界首乡","code":"330127214","level":4,"mergeName":"浙江省,杭州市,淳安县,界首乡","lng":118.80116317889441,"lat":29.55021747449676,"info":"直接检索POI第一个结果成功!","tag":["行政地标","乡镇"]},{"name":"安阳乡","code":"330127216","level":4,"mergeName":"浙江省,杭州市,淳安县,安阳乡","lng":118.83844654059878,"lat":29.427968603989655,"info":"直接检索POI第一个结果成功!","tag":["行政地标","乡镇"]},{"name":"建德市","code":"330182","level":3,"mergeName":"浙江省,杭州市,建德市","lng":119.28739897331072,"lat":29.48115489160048,"info":"直接检索POI第一个结果成功!","tag":""},{"name":"新安江街道","code":"330182001","level":4,"mergeName":"浙江省,杭州市,建德市,新安江街道","lng":119.29147916676625,"lat":29.48423151980519,"info":"直接检索POI第一个结果成功!","tag":["名称标注类"]},{"name":"洋溪街道","code":"330182002","level":4,"mergeName":"浙江省,杭州市,建德市,洋溪街道","lng":119.34679466411919,"lat":29.521780987917847,"info":"直接检索POI第一个结果成功!","tag":["行政地标","乡镇"]},{"name":"更楼街道","code":"330182003","level":4,"mergeName":"浙江省,杭州市,建德市,更楼街道","lng":119.26931437662037,"lat":29.436767837009892,"info":"直接检索POI第一个结果成功!","tag":["行政地标","乡镇"]},{"name":"莲花镇","code":"330182101","level":4,"mergeName":"浙江省,杭州市,建德市,莲花镇","lng":119.315628313783,"lat":29.57261958122255,"info":"直接检索POI第一个结果成功!","tag":["行政地标","乡镇"]},{"name":"乾潭镇","code":"330182102","level":4,"mergeName":"浙江省,杭州市,建德市,乾潭镇","lng":119.55193090183504,"lat":29.622699688573377,"info":"直接检索POI第一个结果成功!","tag":["行政地标","乡镇"]},{"name":"梅城镇","code":"330182104","level":4,"mergeName":"浙江省,杭州市,建德市,梅城镇","lng":119.51067747893063,"lat":29.547577259194266,"info":"直接检索POI第一个结果成功!","tag":["行政地标","乡镇"]},{"name":"杨村桥镇","code":"330182105","level":4,"mergeName":"浙江省,杭州市,建德市,杨村桥镇","lng":119.44216946686251,"lat":29.571219282473542,"info":"直接检索POI第一个结果成功!","tag":["行政地标","乡镇"]},{"name":"下涯镇","code":"330182106","level":4,"mergeName":"浙江省,杭州市,建德市,下涯镇","lng":119.3820184807815,"lat":29.54122575255056,"info":"直接检索POI第一个结果成功!","tag":["行政地标","乡镇"]},{"name":"大洋镇","code":"330182107","level":4,"mergeName":"浙江省,杭州市,建德市,大洋镇","lng":119.51853585552932,"lat":29.44639246995224,"info":"直接检索POI第一个结果成功!","tag":["行政地标","乡镇"]},{"name":"三都镇","code":"330182108","level":4,"mergeName":"浙江省,杭州市,建德市,三都镇","lng":119.57995839305929,"lat":29.54261641631609,"info":"直接检索POI第一个结果成功!","tag":["行政地标","乡镇"]},{"name":"寿昌镇","code":"330182109","level":4,"mergeName":"浙江省,杭州市,建德市,寿昌镇","lng":119.22866138111863,"lat":29.36461053621853,"info":"直接检索POI第一个结果成功!","tag":["行政地标","乡镇"]},{"name":"航头镇","code":"330182110","level":4,"mergeName":"浙江省,杭州市,建德市,航头镇","lng":119.1912828888608,"lat":29.338363591502304,"info":"检索POI失败,BMAP_STATUE_CODE:1 ,GetPoint结果: 直接查询获得"},{"name":"大慈岩镇","code":"330182111","level":4,"mergeName":"浙江省,杭州市,建德市,大慈岩镇","lng":119.30442662373837,"lat":29.294812849187498,"info":"直接检索POI第一个结果成功!","tag":""},{"name":"大同镇","code":"330182112","level":4,"mergeName":"浙江省,杭州市,建德市,大同镇","lng":119.10608714516988,"lat":29.312387594251216,"info":"直接检索POI第一个结果成功!","tag":["行政地标","乡镇"]},{"name":"李家镇","code":"330182113","level":4,"mergeName":"浙江省,杭州市,建德市,李家镇","lng":119.04619711683944,"lat":29.329440744622495,"info":"直接检索POI第一个结果成功!","tag":["行政地标","乡镇"]},{"name":"钦堂乡","code":"330182202","level":4,"mergeName":"浙江省,杭州市,建德市,钦堂乡","lng":119.57401834787652,"lat":29.718562798804165,"info":"直接检索POI第一个结果成功!","tag":["行政地标","乡镇"]},{"name":"宁波市","code":"3302","level":2,"mergeName":"浙江省,宁波市","lng":121.63084448863648,"lat":29.866068985364663,"info":"直接检索POI第一个结果成功!","tag":""},{"name":"海曙区","code":"330203","level":3,"mergeName":"浙江省,宁波市,海曙区","lng":121.55739903016496,"lat":29.86572055176594,"info":"直接检索POI第一个结果成功!","tag":""},{"name":"南门街道","code":"330203001","level":4,"mergeName":"浙江省,宁波市,海曙区,南门街道","lng":121.53974579978035,"lat":29.876999858448137,"info":"直接检索POI第一个结果成功!","tag":["行政地标","乡镇"]},{"name":"江厦街道","code":"330203002","level":4,"mergeName":"浙江省,宁波市,海曙区,江厦街道","lng":121.56145811344099,"lat":29.869208747292113,"info":"直接检索POI第一个结果成功!","tag":["行政地标","乡镇"]},{"name":"西门街道","code":"330203003","level":4,"mergeName":"浙江省,宁波市,海曙区,西门街道","lng":121.53962803192803,"lat":29.88888041085158,"info":"直接检索POI第一个结果成功!","tag":["行政地标","乡镇"]},{"name":"月湖街道","code":"330203004","level":4,"mergeName":"浙江省,宁波市,海曙区,月湖街道","lng":121.55332431637305,"lat":29.867438356649195,"info":"直接检索POI第一个结果成功!","tag":["行政地标","乡镇"]},{"name":"鼓楼街道","code":"330203005","level":4,"mergeName":"浙江省,宁波市,海曙区,鼓楼街道","lng":121.54863273618764,"lat":29.882476231902984,"info":"直接检索POI第一个结果成功!","tag":["行政地标","乡镇"]},{"name":"白云街道","code":"330203006","level":4,"mergeName":"浙江省,宁波市,海曙区,白云街道","lng":121.52478200626119,"lat":29.875797068329863,"info":"直接检索POI第一个结果成功!","tag":["行政地标","乡镇"]},{"name":"段塘街道","code":"330203007","level":4,"mergeName":"浙江省,宁波市,海曙区,段塘街道","lng":121.52864085723911,"lat":29.84295014036101,"info":"直接检索POI第一个结果成功!","tag":["行政地标","乡镇"]},{"name":"望春街道","code":"330203008","level":4,"mergeName":"浙江省,宁波市,海曙区,望春街道","lng":121.52813906378141,"lat":29.897037158079836,"info":"直接检索POI第一个结果成功!","tag":["行政地标","乡镇"]},{"name":"石碶街道","code":"330203009","level":4,"mergeName":"浙江省,宁波市,海曙区,石碶街道","lng":121.51140875247746,"lat":29.833555074151782,"info":"直接检索POI第一个结果成功!","tag":["政府机构","各级政府","乡镇级政府"]},{"name":"高桥镇","code":"330203100","level":4,"mergeName":"浙江省,宁波市,海曙区,高桥镇","lng":121.48252526593302,"lat":29.907752108477485,"info":"直接检索POI第一个结果成功!","tag":""},{"name":"横街镇","code":"330203101","level":4,"mergeName":"浙江省,宁波市,海曙区,横街镇","lng":121.4053005463517,"lat":29.859873339407972,"info":"直接检索POI第一个结果成功!","tag":["行政地标","乡镇"]},{"name":"集士港镇","code":"330203102","level":4,"mergeName":"浙江省,宁波市,海曙区,集士港镇","lng":121.45154791907608,"lat":29.868427339563528,"info":"直接检索POI第一个结果成功!","tag":["行政地标","乡镇"]},{"name":"古林镇","code":"330203103","level":4,"mergeName":"浙江省,宁波市,海曙区,古林镇","lng":121.442228628227,"lat":29.841592255839632,"info":"直接检索POI第一个结果成功!","tag":["行政地标","乡镇"]},{"name":"洞桥镇","code":"330203104","level":4,"mergeName":"浙江省,宁波市,海曙区,洞桥镇","lng":121.41800995236378,"lat":29.786552800999367,"info":"直接检索POI第一个结果成功!","tag":["行政地标","乡镇"]},{"name":"鄞江镇","code":"330203105","level":4,"mergeName":"浙江省,宁波市,海曙区,鄞江镇","lng":121.37568224590036,"lat":29.786307917859663,"info":"直接检索POI第一个结果成功!","tag":["行政地标","乡镇"]},{"name":"章水镇","code":"330203106","level":4,"mergeName":"浙江省,宁波市,海曙区,章水镇","lng":121.30698819476117,"lat":29.821381788726445,"info":"直接检索POI第一个结果成功!","tag":["行政地标","乡镇"]},{"name":"龙观乡","code":"330203200","level":4,"mergeName":"浙江省,宁波市,海曙区,龙观乡","lng":121.31989271272995,"lat":29.7730945370291,"info":"直接检索POI第一个结果成功!","tag":["行政地标","乡镇"]},{"name":"江北区","code":"330205","level":3,"mergeName":"浙江省,宁波市,江北区","lng":121.56041733667749,"lat":29.89294751841559,"info":"直接检索POI第一个结果成功!","tag":""},{"name":"外滩街道","code":"330205001","level":4,"mergeName":"浙江省,宁波市,江北区,外滩街道","lng":121.57356421747276,"lat":29.894161371468265,"info":"直接检索POI第一个结果成功!","tag":["行政地标","乡镇"]},{"name":"孔浦街道","code":"330205003","level":4,"mergeName":"浙江省,宁波市,江北区,孔浦街道","lng":121.59442799174897,"lat":29.907913885163165,"info":"直接检索POI第一个结果成功!","tag":["行政地标","乡镇"]},{"name":"文教街道","code":"330205004","level":4,"mergeName":"浙江省,宁波市,江北区,文教街道","lng":121.54997767919672,"lat":29.90466092531821,"info":"直接检索POI第一个结果成功!","tag":["行政地标","乡镇"]},{"name":"甬江街道","code":"330205005","level":4,"mergeName":"浙江省,宁波市,江北区,甬江街道","lng":121.58446461584946,"lat":29.90727859512416,"info":"直接检索POI第一个结果成功!","tag":["行政地标","乡镇"]},{"name":"庄桥街道","code":"330205006","level":4,"mergeName":"浙江省,宁波市,江北区,庄桥街道","lng":121.55383401491923,"lat":29.929361619937673,"info":"直接检索POI第一个结果成功!","tag":["行政地标","乡镇"]},{"name":"洪塘街道","code":"330205007","level":4,"mergeName":"浙江省,宁波市,江北区,洪塘街道","lng":121.51557644088962,"lat":29.94933422145986,"info":"直接检索POI第一个结果成功!","tag":["行政地标","乡镇"]},{"name":"前江街道","code":"330205008","level":4,"mergeName":"浙江省,宁波市,江北区,前江街道","lng":121.47793447562579,"lat":29.950290542580003,"info":"直接检索POI第一个结果成功!","tag":""},{"name":"慈城镇","code":"330205103","level":4,"mergeName":"浙江省,宁波市,江北区,慈城镇","lng":121.4564446722399,"lat":29.984420755063383,"info":"直接检索POI第一个结果成功!","tag":["购物","电器商场"]},{"name":"北仑区","code":"330206","level":3,"mergeName":"浙江省,宁波市,北仑区","lng":121.85057899935961,"lat":29.904659203401618,"info":"直接检索POI第一个结果成功!","tag":""},{"name":"大榭街道","code":"330206001","level":4,"mergeName":"浙江省,宁波市,北仑区,大榭街道","lng":121.97160141254041,"lat":29.908145318499276,"info":"直接检索POI第一个结果成功!","tag":["行政地标","乡镇"]},{"name":"新碶街道","code":"330206002","level":4,"mergeName":"浙江省,宁波市,北仑区,新碶街道","lng":121.84579076150136,"lat":29.91823479857388,"info":"直接检索POI第一个结果成功!","tag":["行政地标","乡镇"]},{"name":"小港街道","code":"330206003","level":4,"mergeName":"浙江省,宁波市,北仑区,小港街道","lng":121.75255105129345,"lat":29.95008033110164,"info":"直接检索POI第一个结果成功!","tag":["名称标注类"]},{"name":"大碶街道","code":"330206004","level":4,"mergeName":"浙江省,宁波市,北仑区,大碶街道","lng":121.80892942372544,"lat":29.901141265019735,"info":"直接检索POI第一个结果成功!","tag":""},{"name":"霞浦街道","code":"330206005","level":4,"mergeName":"浙江省,宁波市,北仑区,霞浦街道","lng":121.8905371555496,"lat":29.894479098384984,"info":"直接检索POI第一个结果成功!","tag":["行政地标","乡镇"]},{"name":"柴桥街道","code":"330206006","level":4,"mergeName":"浙江省,宁波市,北仑区,柴桥街道","lng":121.92955703163473,"lat":29.88180954150264,"info":"直接检索POI第一个结果成功!","tag":["行政地标","乡镇"]},{"name":"戚家山街道","code":"330206007","level":4,"mergeName":"浙江省,宁波市,北仑区,戚家山街道","lng":121.7475781218224,"lat":29.957902367785074,"info":"直接检索POI第一个结果成功!","tag":["行政地标","乡镇"]},{"name":"春晓街道","code":"330206008","level":4,"mergeName":"浙江省,宁波市,北仑区,春晓街道","lng":121.91081002446154,"lat":29.767130082604563,"info":"直接检索POI第一个结果成功!","tag":""},{"name":"梅山街道","code":"330206009","level":4,"mergeName":"浙江省,宁波市,北仑区,梅山街道","lng":122.00791783819413,"lat":29.800094640763227,"info":"直接检索POI第一个结果成功!","tag":["行政地标","乡镇"]},{"name":"郭巨街道","code":"330206010","level":4,"mergeName":"浙江省,宁波市,北仑区,郭巨街道","lng":122.03040179628759,"lat":29.859699268444203,"info":"直接检索POI第一个结果成功!","tag":["交通设施","公交车站","公交车站主点"]},{"name":"白峰街道","code":"330206011","level":4,"mergeName":"浙江省,宁波市,北仑区,白峰街道","lng":122.00309025455456,"lat":29.887873158202854,"info":"直接检索POI第一个结果成功!","tag":["行政地标","乡镇"]},{"name":"保税区","code":"330206401","level":4,"mergeName":"浙江省,宁波市,北仑区,保税区","lng":121.70284726845948,"lat":29.935931057633795,"info":"直接检索POI第一个结果成功!","tag":["政府机构","机关单位","工商局"]},{"name":"镇海区","code":"330211","level":3,"mergeName":"浙江省,宁波市,镇海区","lng":121.60304193311185,"lat":29.970938522213245,"info":"直接检索POI第一个结果成功!","tag":""},{"name":"招宝山街道","code":"330211001","level":4,"mergeName":"浙江省,宁波市,镇海区,招宝山街道","lng":121.72363235117304,"lat":29.956744528391077,"info":"直接检索POI第一个结果成功!","tag":["行政地标","乡镇"]},{"name":"蛟川街道","code":"330211002","level":4,"mergeName":"浙江省,宁波市,镇海区,蛟川街道","lng":121.68619915210965,"lat":29.94741474490498,"info":"直接检索POI第一个结果成功!","tag":["行政地标","乡镇"]},{"name":"骆驼街道","code":"330211003","level":4,"mergeName":"浙江省,宁波市,镇海区,骆驼街道","lng":121.58886855861067,"lat":29.986116784342492,"info":"直接检索POI第一个结果成功!","tag":["名称标注类"]},{"name":"庄市街道","code":"330211004","level":4,"mergeName":"浙江省,宁波市,镇海区,庄市街道","lng":121.62703639191984,"lat":29.925579366259683,"info":"直接检索POI第一个结果成功!","tag":["行政地标","乡镇"]},{"name":"贵驷街道","code":"330211005","level":4,"mergeName":"浙江省,宁波市,镇海区,贵驷街道","lng":121.6243925889743,"lat":29.985423266984114,"info":"直接检索POI第一个结果成功!","tag":""},{"name":"澥浦镇","code":"330211100","level":4,"mergeName":"浙江省,宁波市,镇海区,澥浦镇","lng":121.6071366963755,"lat":30.037163299872425,"info":"直接检索POI第一个结果成功!","tag":["行政地标","乡镇"]},{"name":"九龙湖镇","code":"330211101","level":4,"mergeName":"浙江省,宁波市,镇海区,九龙湖镇","lng":121.55853675133578,"lat":30.039458936506797,"info":"直接检索POI第一个结果成功!","tag":["行政地标","乡镇"]},{"name":"鄞州区","code":"330212","level":3,"mergeName":"浙江省,宁波市,鄞州区","lng":121.55542275804366,"lat":29.824207054990314,"info":"直接检索POI第一个结果成功!","tag":""},{"name":"下应街道","code":"330212001","level":4,"mergeName":"浙江省,宁波市,鄞州区,下应街道","lng":121.5827672675889,"lat":29.8075435792477,"info":"直接检索POI第一个结果成功!","tag":["名称标注类"]},{"name":"钟公庙街道","code":"330212002","level":4,"mergeName":"浙江省,宁波市,鄞州区,钟公庙街道","lng":121.54497627344102,"lat":29.821348261362644,"info":"直接检索POI第一个结果成功!","tag":["行政地标","乡镇"]},{"name":"梅墟街道","code":"330212004","level":4,"mergeName":"浙江省,宁波市,鄞州区,梅墟街道","lng":121.66393402123836,"lat":29.902128971020275,"info":"直接检索POI第一个结果成功!","tag":["政府机构"]},{"name":"中河街道","code":"330212005","level":4,"mergeName":"浙江省,宁波市,鄞州区,中河街道","lng":121.58919212825525,"lat":29.830624410942942,"info":"直接检索POI第一个结果成功!","tag":["行政地标","商圈","弱商圈"]},{"name":"首南街道","code":"330212006","level":4,"mergeName":"浙江省,宁波市,鄞州区,首南街道","lng":121.55846900185753,"lat":29.81518608366494,"info":"直接检索POI第一个结果成功!","tag":["行政地标","乡镇"]},{"name":"潘火街道","code":"330212007","level":4,"mergeName":"浙江省,宁波市,鄞州区,潘火街道","lng":121.61597259177096,"lat":29.827049629940923,"info":"直接检索POI第一个结果成功!","tag":["公司企业"]},{"name":"百丈街道","code":"330212008","level":4,"mergeName":"浙江省,宁波市,鄞州区,百丈街道","lng":121.5782531925722,"lat":29.870903315976,"info":"直接检索POI第一个结果成功!","tag":["行政地标","乡镇"]},{"name":"东胜街道","code":"330212009","level":4,"mergeName":"浙江省,宁波市,鄞州区,东胜街道","lng":121.58218004527723,"lat":29.876985374634256,"info":"直接检索POI第一个结果成功!","tag":""},{"name":"明楼街道","code":"330212010","level":4,"mergeName":"浙江省,宁波市,鄞州区,明楼街道","lng":121.58276331504466,"lat":29.888480078668074,"info":"直接检索POI第一个结果成功!","tag":["行政地标","乡镇"]},{"name":"白鹤街道","code":"330212011","level":4,"mergeName":"浙江省,宁波市,鄞州区,白鹤街道","lng":121.57512116058214,"lat":29.862532757923642,"info":"直接检索POI第一个结果成功!","tag":["行政地标","乡镇"]},{"name":"东柳街道","code":"330212012","level":4,"mergeName":"浙江省,宁波市,鄞州区,东柳街道","lng":121.59196043634444,"lat":29.86302473036477,"info":"直接检索POI第一个结果成功!","tag":["政府机构"]},{"name":"东郊街道","code":"330212013","level":4,"mergeName":"浙江省,宁波市,鄞州区,东郊街道","lng":121.58482789059757,"lat":29.874895690331076,"info":"直接检索POI第一个结果成功!","tag":["行政地标","乡镇"]},{"name":"福明街道","code":"330212014","level":4,"mergeName":"浙江省,宁波市,鄞州区,福明街道","lng":121.60911995802091,"lat":29.868913018861882,"info":"直接检索POI第一个结果成功!","tag":["行政地标","乡镇"]},{"name":"新明街道","code":"330212015","level":4,"mergeName":"浙江省,宁波市,鄞州区,新明街道","lng":121.62663826291795,"lat":29.884154837554778,"info":"直接检索POI第一个结果成功!","tag":["行政地标","乡镇"]},{"name":"聚贤街道","code":"330212016","level":4,"mergeName":"浙江省,宁波市,鄞州区,聚贤街道","lng":121.65871971707685,"lat":29.89765498060638,"info":"直接检索POI第一个结果成功!","tag":""},{"name":"瞻岐镇","code":"330212100","level":4,"mergeName":"浙江省,宁波市,鄞州区,瞻岐镇","lng":121.83303742834987,"lat":29.725711199725577,"info":"直接检索POI第一个结果成功!","tag":["行政地标","乡镇"]},{"name":"咸祥镇","code":"330212101","level":4,"mergeName":"浙江省,宁波市,鄞州区,咸祥镇","lng":121.78145915140884,"lat":29.693186971497628,"info":"直接检索POI第一个结果成功!","tag":["行政地标","乡镇"]},{"name":"塘溪镇","code":"330212102","level":4,"mergeName":"浙江省,宁波市,鄞州区,塘溪镇","lng":121.72077717694106,"lat":29.66782389003961,"info":"直接检索POI第一个结果成功!","tag":["行政地标","乡镇"]},{"name":"东钱湖镇","code":"330212103","level":4,"mergeName":"浙江省,宁波市,鄞州区,东钱湖镇","lng":121.6370940898979,"lat":29.78833325954398,"info":"直接检索POI第一个结果成功!","tag":["行政地标","乡镇"]},{"name":"东吴镇","code":"330212104","level":4,"mergeName":"浙江省,宁波市,鄞州区,东吴镇","lng":121.74750248449848,"lat":29.822535969131476,"info":"直接检索POI第一个结果成功!","tag":["行政地标","乡镇"]},{"name":"五乡镇","code":"330212105","level":4,"mergeName":"浙江省,宁波市,鄞州区,五乡镇","lng":121.7017087560565,"lat":29.851759489834706,"info":"直接检索POI第一个结果成功!","tag":["行政地标","乡镇"]},{"name":"邱隘镇","code":"330212106","level":4,"mergeName":"浙江省,宁波市,鄞州区,邱隘镇","lng":121.6464061943029,"lat":29.85184077650342,"info":"直接检索POI第一个结果成功!","tag":["行政地标","乡镇"]},{"name":"云龙镇","code":"330212108","level":4,"mergeName":"浙江省,宁波市,鄞州区,云龙镇","lng":121.60708915875517,"lat":29.77908190806469,"info":"直接检索POI第一个结果成功!","tag":["行政地标","乡镇"]},{"name":"横溪镇","code":"330212109","level":4,"mergeName":"浙江省,宁波市,鄞州区,横溪镇","lng":121.6019656732807,"lat":29.7356424224987,"info":"直接检索POI第一个结果成功!","tag":["行政地标","乡镇"]},{"name":"姜山镇","code":"330212110","level":4,"mergeName":"浙江省,宁波市,鄞州区,姜山镇","lng":121.53578400299101,"lat":29.776958649840438,"info":"直接检索POI第一个结果成功!","tag":""},{"name":"奉化区","code":"330213","level":3,"mergeName":"浙江省,宁波市,奉化区","lng":121.41352641973441,"lat":29.661146883548803,"info":"直接检索POI第一个结果成功!","tag":""},{"name":"锦屏街道","code":"330213001","level":4,"mergeName":"浙江省,宁波市,奉化区,锦屏街道","lng":121.41638931939376,"lat":29.68191206397305,"info":"直接检索POI第一个结果成功!","tag":["行政地标","乡镇"]},{"name":"岳林街道","code":"330213002","level":4,"mergeName":"浙江省,宁波市,奉化区,岳林街道","lng":121.44643090140127,"lat":29.666385463012315,"info":"直接检索POI第一个结果成功!","tag":["行政地标","乡镇"]},{"name":"江口街道","code":"330213003","level":4,"mergeName":"浙江省,宁波市,奉化区,江口街道","lng":121.41273887529407,"lat":29.730524238167636,"info":"直接检索POI第一个结果成功!","tag":["名称标注类"]},{"name":"西坞街道","code":"330213004","level":4,"mergeName":"浙江省,宁波市,奉化区,西坞街道","lng":121.49148092271179,"lat":29.681908220161496,"info":"直接检索POI第一个结果成功!","tag":["名称标注类"]},{"name":"萧王庙街道","code":"330213005","level":4,"mergeName":"浙江省,宁波市,奉化区,萧王庙街道","lng":121.37771268584389,"lat":29.702565150766606,"info":"直接检索POI第一个结果成功!","tag":["行政地标","乡镇"]},{"name":"方桥街道","code":"330213006","level":4,"mergeName":"浙江省,宁波市,奉化区,方桥街道","lng":121.44520606183883,"lat":29.77025158865521,"info":"直接检索POI第一个结果成功!","tag":["名称标注类"]},{"name":"尚田街道","code":"330213007","level":4,"mergeName":"浙江省,宁波市,奉化区,尚田街道","lng":121.41522035443401,"lat":29.628072070089924,"info":"直接检索POI第一个结果成功!","tag":["行政地标","乡镇"]},{"name":"莼湖街道","code":"330213008","level":4,"mergeName":"浙江省,宁波市,奉化区,莼湖街道","lng":121.52886839802471,"lat":29.57079065253141,"info":"直接检索POI第一个结果成功!","tag":["行政地标","乡镇"]},{"name":"溪口镇","code":"330213100","level":4,"mergeName":"浙江省,宁波市,奉化区,溪口镇","lng":121.28827747913057,"lat":29.695369749728325,"info":"直接检索POI第一个结果成功!","tag":["行政地标","乡镇"]},{"name":"裘村镇","code":"330213106","level":4,"mergeName":"浙江省,宁波市,奉化区,裘村镇","lng":121.62760088710213,"lat":29.607361453074517,"info":"直接检索POI第一个结果成功!","tag":["行政地标","乡镇"]},{"name":"大堰镇","code":"330213107","level":4,"mergeName":"浙江省,宁波市,奉化区,大堰镇","lng":121.313856279366,"lat":29.51114457242148,"info":"直接检索POI第一个结果成功!","tag":["行政地标","乡镇"]},{"name":"松岙镇","code":"330213108","level":4,"mergeName":"浙江省,宁波市,奉化区,松岙镇","lng":121.69221806851618,"lat":29.607444039077752,"info":"直接检索POI第一个结果成功!","tag":["行政地标","乡镇"]},{"name":"象山县","code":"330225","level":3,"mergeName":"浙江省,宁波市,象山县","lng":121.87556087558384,"lat":29.482271046815562,"info":"直接检索POI第一个结果成功!","tag":""},{"name":"丹东街道","code":"330225001","level":4,"mergeName":"浙江省,宁波市,象山县,丹东街道","lng":121.90841352502281,"lat":29.470723427810245,"info":"直接检索POI第一个结果成功!","tag":["行政地标","乡镇"]},{"name":"丹西街道","code":"330225002","level":4,"mergeName":"浙江省,宁波市,象山县,丹西街道","lng":121.87920134849237,"lat":29.453554083754494,"info":"直接检索POI第一个结果成功!","tag":["行政地标","乡镇"]},{"name":"爵溪街道","code":"330225003","level":4,"mergeName":"浙江省,宁波市,象山县,爵溪街道","lng":121.95505291827159,"lat":29.47702485211303,"info":"直接检索POI第一个结果成功!","tag":["名称标注类"]},{"name":"石浦镇","code":"330225101","level":4,"mergeName":"浙江省,宁波市,象山县,石浦镇","lng":121.93783240165101,"lat":29.209756286210617,"info":"直接检索POI第一个结果成功!","tag":["行政地标","乡镇"]},{"name":"西周镇","code":"330225102","level":4,"mergeName":"浙江省,宁波市,象山县,西周镇","lng":121.6817769737466,"lat":29.487040190976508,"info":"直接检索POI第一个结果成功!","tag":["行政地标","乡镇"]},{"name":"鹤浦镇","code":"330225103","level":4,"mergeName":"浙江省,宁波市,象山县,鹤浦镇","lng":121.9048026961961,"lat":29.15552241822273,"info":"直接检索POI第一个结果成功!","tag":["行政地标","乡镇"]},{"name":"贤庠镇","code":"330225104","level":4,"mergeName":"浙江省,宁波市,象山县,贤庠镇","lng":121.85297819371488,"lat":29.594890810521182,"info":"直接检索POI第一个结果成功!","tag":["行政地标","乡镇"]},{"name":"墙头镇","code":"330225105","level":4,"mergeName":"浙江省,宁波市,象山县,墙头镇","lng":121.7884150902925,"lat":29.46912360077773,"info":"直接检索POI第一个结果成功!","tag":["行政地标","乡镇"]},{"name":"泗洲头镇","code":"330225106","level":4,"mergeName":"浙江省,宁波市,象山县,泗洲头镇","lng":121.77949680302295,"lat":29.377983076970143,"info":"直接检索POI第一个结果成功!","tag":["行政地标","乡镇"]},{"name":"定塘镇","code":"330225107","level":4,"mergeName":"浙江省,宁波市,象山县,定塘镇","lng":121.8511814030344,"lat":29.235184390316757,"info":"直接检索POI第一个结果成功!","tag":["行政地标","乡镇"]},{"name":"涂茨镇","code":"330225108","level":4,"mergeName":"浙江省,宁波市,象山县,涂茨镇","lng":121.9455885510827,"lat":29.566941225114736,"info":"直接检索POI第一个结果成功!","tag":["行政地标","乡镇"]},{"name":"大徐镇","code":"330225109","level":4,"mergeName":"浙江省,宁波市,象山县,大徐镇","lng":121.89041139277825,"lat":29.52932572593038,"info":"直接检索POI第一个结果成功!","tag":["行政地标","乡镇"]},{"name":"新桥镇","code":"330225110","level":4,"mergeName":"浙江省,宁波市,象山县,新桥镇","lng":121.87455621070183,"lat":29.319869250190465,"info":"直接检索POI第一个结果成功!","tag":["行政地标","乡镇"]},{"name":"东陈乡","code":"330225200","level":4,"mergeName":"浙江省,宁波市,象山县,东陈乡","lng":121.89553775283034,"lat":29.399260029979754,"info":"直接检索POI第一个结果成功!","tag":["行政地标","乡镇"]},{"name":"晓塘乡","code":"330225201","level":4,"mergeName":"浙江省,宁波市,象山县,晓塘乡","lng":121.86529018936946,"lat":29.21191830767447,"info":"直接检索POI第一个结果成功!","tag":["行政地标","乡镇"]},{"name":"黄避岙乡","code":"330225202","level":4,"mergeName":"浙江省,宁波市,象山县,黄避岙乡","lng":121.80234960535869,"lat":29.579888788354893,"info":"直接检索POI第一个结果成功!","tag":["行政地标","乡镇"]},{"name":"茅洋乡","code":"330225203","level":4,"mergeName":"浙江省,宁波市,象山县,茅洋乡","lng":121.83712597604664,"lat":29.398846319348745,"info":"直接检索POI第一个结果成功!","tag":["行政地标","乡镇"]},{"name":"高塘岛乡","code":"330225204","level":4,"mergeName":"浙江省,宁波市,象山县,高塘岛乡","lng":121.84548551728918,"lat":29.12124145702476,"info":"直接检索POI第一个结果成功!","tag":["行政地标","乡镇"]},{"name":"宁海县","code":"330226","level":3,"mergeName":"浙江省,宁波市,宁海县","lng":121.43643321023129,"lat":29.294317204858878,"info":"直接检索POI第一个结果成功!","tag":""},{"name":"跃龙街道","code":"330226001","level":4,"mergeName":"浙江省,宁波市,宁海县,跃龙街道","lng":121.44043004093551,"lat":29.301449870567005,"info":"直接检索POI第一个结果成功!","tag":["行政地标","乡镇"]},{"name":"桃源街道","code":"330226002","level":4,"mergeName":"浙江省,宁波市,宁海县,桃源街道","lng":121.4623648648709,"lat":29.34235583610734,"info":"直接检索POI第一个结果成功!","tag":["行政地标","乡镇"]},{"name":"梅林街道","code":"330226003","level":4,"mergeName":"浙江省,宁波市,宁海县,梅林街道","lng":121.4493249722618,"lat":29.38353570634872,"info":"直接检索POI第一个结果成功!","tag":["名称标注类"]},{"name":"桥头胡街道","code":"330226004","level":4,"mergeName":"浙江省,宁波市,宁海县,桥头胡街道","lng":121.49583698578932,"lat":29.386062460120222,"info":"直接检索POI第一个结果成功!","tag":["行政地标","乡镇"]},{"name":"长街镇","code":"330226101","level":4,"mergeName":"浙江省,宁波市,宁海县,长街镇","lng":121.7198256917452,"lat":29.25390204914134,"info":"直接检索POI第一个结果成功!","tag":["行政地标","乡镇"]},{"name":"力洋镇","code":"330226102","level":4,"mergeName":"浙江省,宁波市,宁海县,力洋镇","lng":121.62816610092882,"lat":29.309720889674423,"info":"直接检索POI第一个结果成功!","tag":["行政地标","乡镇"]},{"name":"一市镇","code":"330226104","level":4,"mergeName":"浙江省,宁波市,宁海县,一市镇","lng":121.4857572793263,"lat":29.20627521817735,"info":"直接检索POI第一个结果成功!","tag":["行政地标","乡镇"]},{"name":"岔路镇","code":"330226105","level":4,"mergeName":"浙江省,宁波市,宁海县,岔路镇","lng":121.32133125917315,"lat":29.208304903356908,"info":"直接检索POI第一个结果成功!","tag":["行政地标","乡镇"]},{"name":"前童镇","code":"330226106","level":4,"mergeName":"浙江省,宁波市,宁海县,前童镇","lng":121.35486635130782,"lat":29.234560805391723,"info":"直接检索POI第一个结果成功!","tag":""},{"name":"桑洲镇","code":"330226107","level":4,"mergeName":"浙江省,宁波市,宁海县,桑洲镇","lng":121.32432683855629,"lat":29.160280289235022,"info":"直接检索POI第一个结果成功!","tag":["行政地标","乡镇"]},{"name":"黄坛镇","code":"330226108","level":4,"mergeName":"浙江省,宁波市,宁海县,黄坛镇","lng":121.37123913701893,"lat":29.293869043905147,"info":"直接检索POI第一个结果成功!","tag":["行政地标","乡镇"]},{"name":"大佳何镇","code":"330226109","level":4,"mergeName":"浙江省,宁波市,宁海县,大佳何镇","lng":121.56176299833099,"lat":29.43166844774482,"info":"直接检索POI第一个结果成功!","tag":["行政地标","乡镇"]},{"name":"强蛟镇","code":"330226110","level":4,"mergeName":"浙江省,宁波市,宁海县,强蛟镇","lng":121.5373881969702,"lat":29.463787488962982,"info":"直接检索POI第一个结果成功!","tag":["行政地标","乡镇"]},{"name":"西店镇","code":"330226111","level":4,"mergeName":"浙江省,宁波市,宁海县,西店镇","lng":121.44259657416374,"lat":29.486363064289698,"info":"直接检索POI第一个结果成功!","tag":["行政地标","乡镇"]},{"name":"深甽镇","code":"330226112","level":4,"mergeName":"浙江省,宁波市,宁海县,深甽镇","lng":121.35511760735888,"lat":29.421429882883473,"info":"直接检索POI第一个结果成功!","tag":""},{"name":"胡陈乡","code":"330226200","level":4,"mergeName":"浙江省,宁波市,宁海县,胡陈乡","lng":121.68345635589694,"lat":29.332143847857274,"info":"直接检索POI第一个结果成功!","tag":["行政地标","乡镇"]},{"name":"茶院乡","code":"330226201","level":4,"mergeName":"浙江省,宁波市,宁海县,茶院乡","lng":121.57942036092093,"lat":29.32103829005047,"info":"直接检索POI第一个结果成功!","tag":["行政地标","乡镇"]},{"name":"越溪乡","code":"330226202","level":4,"mergeName":"浙江省,宁波市,宁海县,越溪乡","lng":121.52816313836907,"lat":29.270182119608364,"info":"直接检索POI第一个结果成功!","tag":["行政地标","乡镇"]},{"name":"余姚市","code":"330281","level":3,"mergeName":"浙江省,宁波市,余姚市","lng":121.16058157142973,"lat":30.04273440509349,"info":"直接检索POI第一个结果成功!","tag":""},{"name":"梨洲街道","code":"330281001","level":4,"mergeName":"浙江省,宁波市,余姚市,梨洲街道","lng":121.1671418965691,"lat":30.045013498307732,"info":"直接检索POI第一个结果成功!","tag":["行政地标","乡镇"]},{"name":"凤山街道","code":"330281002","level":4,"mergeName":"浙江省,宁波市,余姚市,凤山街道","lng":121.18884908989551,"lat":30.072618597554992,"info":"直接检索POI第一个结果成功!","tag":["行政地标","乡镇"]},{"name":"兰江街道","code":"330281003","level":4,"mergeName":"浙江省,宁波市,余姚市,兰江街道","lng":121.12231393636577,"lat":30.026356359265204,"info":"直接检索POI第一个结果成功!","tag":["行政地标","乡镇"]},{"name":"阳明街道","code":"330281004","level":4,"mergeName":"浙江省,宁波市,余姚市,阳明街道","lng":121.14678458693253,"lat":30.049360432566324,"info":"直接检索POI第一个结果成功!","tag":["行政地标","乡镇"]},{"name":"低塘街道","code":"330281005","level":4,"mergeName":"浙江省,宁波市,余姚市,低塘街道","lng":121.15704889518119,"lat":30.173502659456673,"info":"直接检索POI第一个结果成功!","tag":["名称标注类"]},{"name":"朗霞街道","code":"330281006","level":4,"mergeName":"浙江省,宁波市,余姚市,朗霞街道","lng":121.14461733505915,"lat":30.14688308135466,"info":"直接检索POI第一个结果成功!","tag":["行政地标","乡镇"]},{"name":"临山镇","code":"330281100","level":4,"mergeName":"浙江省,宁波市,余姚市,临山镇","lng":120.99526308469811,"lat":30.160288588115854,"info":"直接检索POI第一个结果成功!","tag":["行政地标","乡镇"]},{"name":"黄家埠镇","code":"330281101","level":4,"mergeName":"浙江省,宁波市,余姚市,黄家埠镇","lng":120.97182961767317,"lat":30.13273015968045,"info":"直接检索POI第一个结果成功!","tag":["行政地标","乡镇"]},{"name":"小曹娥镇","code":"330281102","level":4,"mergeName":"浙江省,宁波市,余姚市,小曹娥镇","lng":121.08036567413578,"lat":30.223430827580586,"info":"直接检索POI第一个结果成功!","tag":["行政地标","乡镇"]},{"name":"泗门镇","code":"330281103","level":4,"mergeName":"浙江省,宁波市,余姚市,泗门镇","lng":121.04839444205236,"lat":30.1658138911043,"info":"直接检索POI第一个结果成功!","tag":["行政地标","乡镇"]},{"name":"马渚镇","code":"330281106","level":4,"mergeName":"浙江省,宁波市,余姚市,马渚镇","lng":121.05674751549799,"lat":30.07802236295552,"info":"直接检索POI第一个结果成功!","tag":["行政地标","乡镇"]},{"name":"牟山镇","code":"330281108","level":4,"mergeName":"浙江省,宁波市,余姚市,牟山镇","lng":121.00666213246697,"lat":30.080473144700466,"info":"直接检索POI第一个结果成功!","tag":["行政地标","乡镇"]},{"name":"丈亭镇","code":"330281109","level":4,"mergeName":"浙江省,宁波市,余姚市,丈亭镇","lng":121.28819763692428,"lat":30.036110900175018,"info":"直接检索POI第一个结果成功!","tag":["行政地标","乡镇"]},{"name":"三七市镇","code":"330281110","level":4,"mergeName":"浙江省,宁波市,余姚市,三七市镇","lng":121.34942640997603,"lat":30.03164651764817,"info":"直接检索POI第一个结果成功!","tag":["行政地标","乡镇"]},{"name":"河姆渡镇","code":"330281111","level":4,"mergeName":"浙江省,宁波市,余姚市,河姆渡镇","lng":121.32172220173096,"lat":29.99527039516252,"info":"直接检索POI第一个结果成功!","tag":["名称标注类"]},{"name":"大隐镇","code":"330281112","level":4,"mergeName":"浙江省,宁波市,余姚市,大隐镇","lng":121.38107432472222,"lat":29.947270557728725,"info":"直接检索POI第一个结果成功!","tag":["行政地标","乡镇"]},{"name":"陆埠镇","code":"330281113","level":4,"mergeName":"浙江省,宁波市,余姚市,陆埠镇","lng":121.25325272696922,"lat":29.99942944511615,"info":"直接检索POI第一个结果成功!","tag":["行政地标","乡镇"]},{"name":"梁弄镇","code":"330281114","level":4,"mergeName":"浙江省,宁波市,余姚市,梁弄镇","lng":121.09229138133635,"lat":29.925790490814457,"info":"直接检索POI第一个结果成功!","tag":["行政地标","乡镇"]},{"name":"大岚镇","code":"330281115","level":4,"mergeName":"浙江省,宁波市,余姚市,大岚镇","lng":121.13697704993213,"lat":29.827091145076725,"info":"直接检索POI第一个结果成功!","tag":["行政地标","乡镇"]},{"name":"四明山镇","code":"330281116","level":4,"mergeName":"浙江省,宁波市,余姚市,四明山镇","lng":121.12587363451026,"lat":29.741954661589816,"info":"直接检索POI第一个结果成功!","tag":["行政地标","乡镇"]},{"name":"鹿亭乡","code":"330281201","level":4,"mergeName":"浙江省,宁波市,余姚市,鹿亭乡","lng":121.2112800308432,"lat":29.883150981258783,"info":"直接检索POI第一个结果成功!","tag":["行政地标","乡镇"]},{"name":"慈溪市","code":"330282","level":3,"mergeName":"浙江省,宁波市,慈溪市","lng":121.27260026852397,"lat":30.17525723514677,"info":"直接检索POI第一个结果成功!","tag":""},{"name":"宗汉街道","code":"330282002","level":4,"mergeName":"浙江省,宁波市,慈溪市,宗汉街道","lng":121.24285521715538,"lat":30.20330968930363,"info":"直接检索POI第一个结果成功!","tag":""},{"name":"坎墩街道","code":"330282003","level":4,"mergeName":"浙江省,宁波市,慈溪市,坎墩街道","lng":121.265521890597,"lat":30.22140218970017,"info":"直接检索POI第一个结果成功!","tag":["行政地标","商圈","弱商圈"]},{"name":"浒山街道","code":"330282004","level":4,"mergeName":"浙江省,宁波市,慈溪市,浒山街道","lng":121.24474058075974,"lat":30.17182220547616,"info":"直接检索POI第一个结果成功!","tag":["行政地标","乡镇"]},{"name":"白沙路街道","code":"330282005","level":4,"mergeName":"浙江省,宁波市,慈溪市,白沙路街道","lng":121.29545289120617,"lat":30.17379856435312,"info":"直接检索POI第一个结果成功!","tag":["政府机构"]},{"name":"古塘街道","code":"330282006","level":4,"mergeName":"浙江省,宁波市,慈溪市,古塘街道","lng":121.26919676860777,"lat":30.178411551768907,"info":"直接检索POI第一个结果成功!","tag":""},{"name":"掌起镇","code":"330282104","level":4,"mergeName":"浙江省,宁波市,慈溪市,掌起镇","lng":121.46245668890506,"lat":30.123503007510333,"info":"直接检索POI第一个结果成功!","tag":["行政地标","乡镇"]},{"name":"观海卫镇","code":"330282107","level":4,"mergeName":"浙江省,宁波市,慈溪市,观海卫镇","lng":121.43085735530276,"lat":30.176481961636664,"info":"直接检索POI第一个结果成功!","tag":["行政地标","乡镇"]},{"name":"附海镇","code":"330282108","level":4,"mergeName":"浙江省,宁波市,慈溪市,附海镇","lng":121.40563320607426,"lat":30.227799397827535,"info":"直接检索POI第一个结果成功!","tag":["行政地标","乡镇"]},{"name":"桥头镇","code":"330282109","level":4,"mergeName":"浙江省,宁波市,慈溪市,桥头镇","lng":121.36469436974582,"lat":30.165793829465134,"info":"直接检索POI第一个结果成功!","tag":["行政地标","乡镇"]},{"name":"匡堰镇","code":"330282110","level":4,"mergeName":"浙江省,宁波市,慈溪市,匡堰镇","lng":121.31140428180794,"lat":30.162831296773284,"info":"直接检索POI第一个结果成功!","tag":["行政地标","乡镇"]},{"name":"逍林镇","code":"330282111","level":4,"mergeName":"浙江省,宁波市,慈溪市,逍林镇","lng":121.32838477120197,"lat":30.181533298316864,"info":"直接检索POI第一个结果成功!","tag":["行政地标","乡镇"]},{"name":"新浦镇","code":"330282112","level":4,"mergeName":"浙江省,宁波市,慈溪市,新浦镇","lng":121.37431899464083,"lat":30.252150049468867,"info":"直接检索POI第一个结果成功!","tag":["行政地标","乡镇"]},{"name":"胜山镇","code":"330282113","level":4,"mergeName":"浙江省,宁波市,慈溪市,胜山镇","lng":121.33634510547861,"lat":30.240154498567424,"info":"直接检索POI第一个结果成功!","tag":""},{"name":"横河镇","code":"330282114","level":4,"mergeName":"浙江省,宁波市,慈溪市,横河镇","lng":121.24868441144018,"lat":30.137027209004575,"info":"直接检索POI第一个结果成功!","tag":["行政地标","乡镇"]},{"name":"崇寿镇","code":"330282116","level":4,"mergeName":"浙江省,宁波市,慈溪市,崇寿镇","lng":121.27820398812578,"lat":30.275726342985696,"info":"直接检索POI第一个结果成功!","tag":["行政地标","乡镇"]},{"name":"庵东镇","code":"330282118","level":4,"mergeName":"浙江省,宁波市,慈溪市,庵东镇","lng":121.22555043947229,"lat":30.275251565533424,"info":"直接检索POI第一个结果成功!","tag":["行政地标","乡镇"]},{"name":"长河镇","code":"330282120","level":4,"mergeName":"浙江省,宁波市,慈溪市,长河镇","lng":121.1873172993399,"lat":30.2313527439947,"info":"直接检索POI第一个结果成功!","tag":["行政地标","乡镇"]},{"name":"周巷镇","code":"330282121","level":4,"mergeName":"浙江省,宁波市,慈溪市,周巷镇","lng":121.14240121536605,"lat":30.192973566788773,"info":"直接检索POI第一个结果成功!","tag":["行政地标","乡镇"]},{"name":"龙山镇","code":"330282123","level":4,"mergeName":"浙江省,宁波市,慈溪市,龙山镇","lng":121.48872844201932,"lat":30.108289139103643,"info":"直接检索POI第一个结果成功!","tag":["行政地标","乡镇"]},{"name":"慈溪市农垦场","code":"330282400","level":4,"mergeName":"浙江省,宁波市,慈溪市,慈溪市农垦场","lng":121.12390923712094,"lat":30.272609330882265,"info":"直接检索POI第一个结果成功!","tag":""},{"name":"慈溪市林场","code":"330282401","level":4,"mergeName":"浙江省,宁波市,慈溪市,慈溪市林场","lng":121.35267611998893,"lat":30.084737021224942,"info":"直接检索POI第一个结果成功!","tag":""},{"name":"慈东工业区","code":"330282402","level":4,"mergeName":"浙江省,宁波市,慈溪市,慈东工业区","lng":121.59006601710828,"lat":30.11819359743604,"info":"直接检索POI第一个结果成功!","tag":""},{"name":"温州市","code":"3303","level":2,"mergeName":"浙江省,温州市","lng":120.70647913611943,"lat":28.00108580315343,"info":"直接检索POI第一个结果成功!","tag":""},{"name":"鹿城区","code":"330302","level":3,"mergeName":"浙江省,温州市,鹿城区","lng":120.66159080980066,"lat":28.020352325259953,"info":"直接检索POI第一个结果成功!","tag":""},{"name":"五马街道","code":"330302006","level":4,"mergeName":"浙江省,温州市,鹿城区,五马街道","lng":120.6589755729703,"lat":28.0275759146736,"info":"直接检索POI第一个结果成功!","tag":["行政地标","乡镇"]},{"name":"七都街道","code":"330302023","level":4,"mergeName":"浙江省,温州市,鹿城区,七都街道","lng":120.77407258334814,"lat":28.007186408105785,"info":"直接检索POI第一个结果成功!","tag":["行政地标","乡镇"]},{"name":"滨江街道","code":"330302024","level":4,"mergeName":"浙江省,温州市,鹿城区,滨江街道","lng":120.72718103574279,"lat":28.007913957215187,"info":"直接检索POI第一个结果成功!","tag":""},{"name":"南汇街道","code":"330302025","level":4,"mergeName":"浙江省,温州市,鹿城区,南汇街道","lng":120.6873284304502,"lat":27.993746228005655,"info":"直接检索POI第一个结果成功!","tag":""},{"name":"松台街道","code":"330302026","level":4,"mergeName":"浙江省,温州市,鹿城区,松台街道","lng":120.64991867716061,"lat":28.009690431878717,"info":"直接检索POI第一个结果成功!","tag":["行政地标","乡镇"]},{"name":"双屿街道","code":"330302027","level":4,"mergeName":"浙江省,温州市,鹿城区,双屿街道","lng":120.60950867329925,"lat":28.024677545432873,"info":"直接检索POI第一个结果成功!","tag":["行政地标","乡镇"]},{"name":"仰义街道","code":"330302028","level":4,"mergeName":"浙江省,温州市,鹿城区,仰义街道","lng":120.60044890291192,"lat":28.085364037240762,"info":"直接检索POI第一个结果成功!","tag":""},{"name":"大南街道","code":"330302029","level":4,"mergeName":"浙江省,温州市,鹿城区,大南街道","lng":120.66725498536138,"lat":28.011657985928554,"info":"直接检索POI第一个结果成功!","tag":""},{"name":"蒲鞋市街道","code":"330302030","level":4,"mergeName":"浙江省,温州市,鹿城区,蒲鞋市街道","lng":120.69798700498366,"lat":28.01024295801849,"info":"直接检索POI第一个结果成功!","tag":""},{"name":"南郊街道","code":"330302031","level":4,"mergeName":"浙江省,温州市,鹿城区,南郊街道","lng":120.67012884434797,"lat":27.98722044350511,"info":"直接检索POI第一个结果成功!","tag":["政府机构","各级政府","乡镇级政府"]},{"name":"广化街道","code":"330302032","level":4,"mergeName":"浙江省,温州市,鹿城区,广化街道","lng":120.63946096373911,"lat":28.015410971832306,"info":"直接检索POI第一个结果成功!","tag":""},{"name":"丰门街道","code":"330302033","level":4,"mergeName":"浙江省,温州市,鹿城区,丰门街道","lng":120.58602948253161,"lat":28.045314689847718,"info":"直接检索POI第一个结果成功!","tag":["政府机构","各级政府","乡镇级政府"]},{"name":"藤桥镇","code":"330302102","level":4,"mergeName":"浙江省,温州市,鹿城区,藤桥镇","lng":120.51223736796388,"lat":28.070546111981706,"info":"直接检索POI第一个结果成功!","tag":["行政地标","乡镇"]},{"name":"山福镇","code":"330302105","level":4,"mergeName":"浙江省,温州市,鹿城区,山福镇","lng":120.49687508612064,"lat":28.138910477211766,"info":"直接检索POI第一个结果成功!","tag":["行政地标","乡镇"]},{"name":"龙湾区","code":"330303","level":3,"mergeName":"浙江省,温州市,龙湾区","lng":120.81946800312713,"lat":27.93865200556722,"info":"直接检索POI第一个结果成功!","tag":""},{"name":"永中街道","code":"330303001","level":4,"mergeName":"浙江省,温州市,龙湾区,永中街道","lng":120.8211134293292,"lat":27.92493357541386,"info":"直接检索POI第一个结果成功!","tag":["名称标注类"]},{"name":"蒲州街道","code":"330303002","level":4,"mergeName":"浙江省,温州市,龙湾区,蒲州街道","lng":120.7363265943063,"lat":27.997669369316736,"info":"直接检索POI第一个结果成功!","tag":["行政地标","乡镇"]},{"name":"海滨街道","code":"330303003","level":4,"mergeName":"浙江省,温州市,龙湾区,海滨街道","lng":120.84483489309281,"lat":27.91848865048215,"info":"直接检索POI第一个结果成功!","tag":["行政地标","乡镇"]},{"name":"永兴街道","code":"330303004","level":4,"mergeName":"浙江省,温州市,龙湾区,永兴街道","lng":120.82845959212628,"lat":27.897445144975702,"info":"直接检索POI第一个结果成功!","tag":["行政地标","乡镇"]},{"name":"状元街道","code":"330303006","level":4,"mergeName":"浙江省,温州市,龙湾区,状元街道","lng":120.77266215386739,"lat":27.975601926075036,"info":"直接检索POI第一个结果成功!","tag":["行政地标","乡镇"]},{"name":"瑶溪街道","code":"330303007","level":4,"mergeName":"浙江省,温州市,龙湾区,瑶溪街道","lng":120.78619988738994,"lat":27.950674450661474,"info":"直接检索POI第一个结果成功!","tag":["行政地标","乡镇"]},{"name":"瓯海区","code":"330304","level":3,"mergeName":"浙江省,温州市,瓯海区","lng":120.621445536573,"lat":27.972857431399838,"info":"直接检索POI第一个结果成功!","tag":""},{"name":"景山街道","code":"330304001","level":4,"mergeName":"浙江省,温州市,瓯海区,景山街道","lng":120.64250918382511,"lat":28.01170175677632,"info":"直接检索POI第一个结果成功!","tag":["行政地标","乡镇"]},{"name":"梧田街道","code":"330304002","level":4,"mergeName":"浙江省,温州市,瓯海区,梧田街道","lng":120.68944304161997,"lat":27.979331457690286,"info":"直接检索POI第一个结果成功!","tag":["行政地标","乡镇"]},{"name":"南白象街道","code":"330304003","level":4,"mergeName":"浙江省,温州市,瓯海区,南白象街道","lng":120.69145300019788,"lat":27.932001017598846,"info":"直接检索POI第一个结果成功!","tag":["行政地标","乡镇"]},{"name":"茶山街道","code":"330304004","level":4,"mergeName":"浙江省,温州市,瓯海区,茶山街道","lng":120.70777287571447,"lat":27.91707996838402,"info":"直接检索POI第一个结果成功!","tag":["名称标注类"]},{"name":"娄桥街道","code":"330304005","level":4,"mergeName":"浙江省,温州市,瓯海区,娄桥街道","lng":120.60596916993,"lat":27.95948009051198,"info":"直接检索POI第一个结果成功!","tag":["行政地标","乡镇"]},{"name":"新桥街道","code":"330304006","level":4,"mergeName":"浙江省,温州市,瓯海区,新桥街道","lng":120.63454022581818,"lat":27.99070164523078,"info":"直接检索POI第一个结果成功!","tag":["行政地标","乡镇"]},{"name":"三垟街道","code":"330304007","level":4,"mergeName":"浙江省,温州市,瓯海区,三垟街道","lng":120.72613891152099,"lat":27.9865630901716,"info":"直接检索POI第一个结果成功!","tag":["行政地标","乡镇"]},{"name":"瞿溪街道","code":"330304008","level":4,"mergeName":"浙江省,温州市,瓯海区,瞿溪街道","lng":120.53710255430242,"lat":28.000226482190186,"info":"直接检索POI第一个结果成功!","tag":["行政地标","乡镇"]},{"name":"郭溪街道","code":"330304009","level":4,"mergeName":"浙江省,温州市,瓯海区,郭溪街道","lng":120.58008539497405,"lat":27.997058329152356,"info":"直接检索POI第一个结果成功!","tag":["政府机构"]},{"name":"潘桥街道","code":"330304010","level":4,"mergeName":"浙江省,温州市,瓯海区,潘桥街道","lng":120.58117728532108,"lat":27.96333892522318,"info":"直接检索POI第一个结果成功!","tag":["行政地标","商圈","弱商圈"]},{"name":"丽岙街道","code":"330304011","level":4,"mergeName":"浙江省,温州市,瓯海区,丽岙街道","lng":120.64488080020122,"lat":27.900548173633883,"info":"直接检索POI第一个结果成功!","tag":["行政地标","乡镇"]},{"name":"仙岩街道","code":"330304012","level":4,"mergeName":"浙江省,温州市,瓯海区,仙岩街道","lng":120.68324275733106,"lat":27.87994178597947,"info":"直接检索POI第一个结果成功!","tag":["行政地标","乡镇"]},{"name":"泽雅镇","code":"330304108","level":4,"mergeName":"浙江省,温州市,瓯海区,泽雅镇","lng":120.49002793203418,"lat":28.036132730615257,"info":"直接检索POI第一个结果成功!","tag":["行政地标","乡镇"]},{"name":"洞头区","code":"330305","level":3,"mergeName":"浙江省,温州市,洞头区","lng":121.16354596250032,"lat":27.841869526036582,"info":"直接检索POI第一个结果成功!","tag":""},{"name":"北岙街道","code":"330305001","level":4,"mergeName":"浙江省,温州市,洞头区,北岙街道","lng":121.15871316868879,"lat":27.841706701569322,"info":"直接检索POI第一个结果成功!","tag":["行政地标","乡镇"]},{"name":"灵昆街道","code":"330305002","level":4,"mergeName":"浙江省,温州市,洞头区,灵昆街道","lng":120.89513299485198,"lat":27.96927132147972,"info":"直接检索POI第一个结果成功!","tag":["行政地标","乡镇"]},{"name":"东屏街道","code":"330305003","level":4,"mergeName":"浙江省,温州市,洞头区,东屏街道","lng":121.16441624087811,"lat":27.83155144487382,"info":"直接检索POI第一个结果成功!","tag":["行政地标","乡镇"]},{"name":"元觉街道","code":"330305004","level":4,"mergeName":"浙江省,温州市,洞头区,元觉街道","lng":121.13464747425388,"lat":27.893571959544907,"info":"直接检索POI第一个结果成功!","tag":["名称标注类"]},{"name":"霓屿街道","code":"330305005","level":4,"mergeName":"浙江省,温州市,洞头区,霓屿街道","lng":121.06902347202458,"lat":27.86222526983338,"info":"直接检索POI第一个结果成功!","tag":["行政地标","乡镇"]},{"name":"大门镇","code":"330305101","level":4,"mergeName":"浙江省,温州市,洞头区,大门镇","lng":121.0985639792188,"lat":27.96773273955287,"info":"直接检索POI第一个结果成功!","tag":["名称标注类"]},{"name":"鹿西乡","code":"330305202","level":4,"mergeName":"浙江省,温州市,洞头区,鹿西乡","lng":121.19104291449057,"lat":27.99153377070863,"info":"直接检索POI第一个结果成功!","tag":["名称标注类"]},{"name":"永嘉县","code":"330324","level":3,"mergeName":"浙江省,温州市,永嘉县","lng":120.6885220089809,"lat":28.156450013726623,"info":"直接检索POI第一个结果成功!","tag":""},{"name":"东城街道","code":"330324001","level":4,"mergeName":"浙江省,温州市,永嘉县,东城街道","lng":120.70801694532145,"lat":28.162802843673113,"info":"直接检索POI第一个结果成功!","tag":""},{"name":"北城街道","code":"330324002","level":4,"mergeName":"浙江省,温州市,永嘉县,北城街道","lng":120.69684507901974,"lat":28.16065369477769,"info":"直接检索POI第一个结果成功!","tag":["行政地标","乡镇"]},{"name":"南城街道","code":"330324003","level":4,"mergeName":"浙江省,温州市,永嘉县,南城街道","lng":120.690289065749,"lat":28.154032172669126,"info":"直接检索POI第一个结果成功!","tag":["行政地标","乡镇"]},{"name":"三江街道","code":"330324006","level":4,"mergeName":"浙江省,温州市,永嘉县,三江街道","lng":120.69381275894128,"lat":28.052474899818478,"info":"直接检索POI第一个结果成功!","tag":["名称标注类"]},{"name":"黄田街道","code":"330324007","level":4,"mergeName":"浙江省,温州市,永嘉县,黄田街道","lng":120.69775910487584,"lat":28.080702738018164,"info":"直接检索POI第一个结果成功!","tag":["名称标注类"]},{"name":"乌牛街道","code":"330324008","level":4,"mergeName":"浙江省,温州市,永嘉县,乌牛街道","lng":120.79469875581704,"lat":28.047825867215963,"info":"直接检索POI第一个结果成功!","tag":["行政地标","乡镇"]},{"name":"瓯北街道","code":"330324009","level":4,"mergeName":"浙江省,温州市,永嘉县,瓯北街道","lng":120.66531877766583,"lat":28.0460788011575,"info":"直接检索POI第一个结果成功!","tag":["行政地标","乡镇"]},{"name":"桥头镇","code":"330324102","level":4,"mergeName":"浙江省,温州市,永嘉县,桥头镇","lng":120.48839642956752,"lat":28.17513496545628,"info":"直接检索POI第一个结果成功!","tag":["行政地标","乡镇"]},{"name":"桥下镇","code":"330324104","level":4,"mergeName":"浙江省,温州市,永嘉县,桥下镇","lng":120.56355540579877,"lat":28.167448595003712,"info":"直接检索POI第一个结果成功!","tag":["行政地标","乡镇"]},{"name":"大若岩镇","code":"330324105","level":4,"mergeName":"浙江省,温州市,永嘉县,大若岩镇","lng":120.64417598969831,"lat":28.28667470843668,"info":"直接检索POI第一个结果成功!","tag":["行政地标","乡镇"]},{"name":"碧莲镇","code":"330324106","level":4,"mergeName":"浙江省,温州市,永嘉县,碧莲镇","lng":120.56853597086663,"lat":28.317371092163864,"info":"直接检索POI第一个结果成功!","tag":["行政地标","乡镇"]},{"name":"巽宅镇","code":"330324107","level":4,"mergeName":"浙江省,温州市,永嘉县,巽宅镇","lng":120.49560290585781,"lat":28.350045069967482,"info":"直接检索POI第一个结果成功!","tag":["行政地标","乡镇"]},{"name":"岩头镇","code":"330324108","level":4,"mergeName":"浙江省,温州市,永嘉县,岩头镇","lng":120.74213845129282,"lat":28.345110663799463,"info":"直接检索POI第一个结果成功!","tag":["行政地标","乡镇"]},{"name":"枫林镇","code":"330324109","level":4,"mergeName":"浙江省,温州市,永嘉县,枫林镇","lng":120.77755091211218,"lat":28.321036306951886,"info":"直接检索POI第一个结果成功!","tag":["行政地标","乡镇"]},{"name":"岩坦镇","code":"330324110","level":4,"mergeName":"浙江省,温州市,永嘉县,岩坦镇","lng":120.73759527117761,"lat":28.45257355764764,"info":"直接检索POI第一个结果成功!","tag":["行政地标","乡镇"]},{"name":"沙头镇","code":"330324111","level":4,"mergeName":"浙江省,温州市,永嘉县,沙头镇","lng":120.7709136021928,"lat":28.20149152454662,"info":"直接检索POI第一个结果成功!","tag":["行政地标","乡镇"]},{"name":"鹤盛镇","code":"330324112","level":4,"mergeName":"浙江省,温州市,永嘉县,鹤盛镇","lng":120.84115318796138,"lat":28.3811700308126,"info":"直接检索POI第一个结果成功!","tag":["行政地标","乡镇"]},{"name":"金溪镇","code":"330324113","level":4,"mergeName":"浙江省,温州市,永嘉县,金溪镇","lng":120.52906415727958,"lat":28.219302778598323,"info":"直接检索POI第一个结果成功!","tag":""},{"name":"云岭乡","code":"330324226","level":4,"mergeName":"浙江省,温州市,永嘉县,云岭乡","lng":120.92275606893578,"lat":28.43903595788357,"info":"直接检索POI第一个结果成功!","tag":""},{"name":"茗岙乡","code":"330324227","level":4,"mergeName":"浙江省,温州市,永嘉县,茗岙乡","lng":120.53495228040389,"lat":28.28643908541861,"info":"直接检索POI第一个结果成功!","tag":""},{"name":"溪下乡","code":"330324228","level":4,"mergeName":"浙江省,温州市,永嘉县,溪下乡","lng":120.49492630214792,"lat":28.503885885363943,"info":"直接检索POI第一个结果成功!","tag":["政府机构","各级政府","乡镇级政府"]},{"name":"界坑乡","code":"330324229","level":4,"mergeName":"浙江省,温州市,永嘉县,界坑乡","lng":120.41757806555903,"lat":28.44943045545891,"info":"直接检索POI第一个结果成功!","tag":""},{"name":"县特产场场区","code":"330324400","level":4,"mergeName":"浙江省,温州市,永嘉县,县特产场场区","lng":120.6929486788715,"lat":28.156565701184995,"info":"直接检索POI第一个结果成功!","tag":""},{"name":"四海山林场","code":"330324401","level":4,"mergeName":"浙江省,温州市,永嘉县,四海山林场","lng":120.76663865610277,"lat":28.515779895832235,"info":"直接检索POI第一个结果成功!","tag":""},{"name":"正江山林场","code":"330324402","level":4,"mergeName":"浙江省,温州市,永嘉县,正江山林场","lng":120.88732106064813,"lat":28.309883497499023,"info":"直接检索POI第一个结果成功!","tag":""},{"name":"平阳县","code":"330326","level":3,"mergeName":"浙江省,温州市,平阳县","lng":120.57251483546067,"lat":27.66772464104525,"info":"直接检索POI第一个结果成功!","tag":""},{"name":"昆阳镇","code":"330326100","level":4,"mergeName":"浙江省,温州市,平阳县,昆阳镇","lng":120.56457022153305,"lat":27.67438599845765,"info":"直接检索POI第一个结果成功!","tag":["行政地标","乡镇"]},{"name":"鳌江镇","code":"330326101","level":4,"mergeName":"浙江省,温州市,平阳县,鳌江镇","lng":120.56517972182135,"lat":27.599035789616572,"info":"直接检索POI第一个结果成功!","tag":""},{"name":"水头镇","code":"330326102","level":4,"mergeName":"浙江省,温州市,平阳县,水头镇","lng":120.33010691401209,"lat":27.637275096866624,"info":"直接检索POI第一个结果成功!","tag":["行政地标","乡镇"]},{"name":"萧江镇","code":"330326103","level":4,"mergeName":"浙江省,温州市,平阳县,萧江镇","lng":120.48254962849664,"lat":27.576129534466634,"info":"直接检索POI第一个结果成功!","tag":["行政地标","乡镇"]},{"name":"腾蛟镇","code":"330326105","level":4,"mergeName":"浙江省,温州市,平阳县,腾蛟镇","lng":120.33774790067743,"lat":27.685430169347452,"info":"直接检索POI第一个结果成功!","tag":["行政地标","乡镇"]},{"name":"山门镇","code":"330326107","level":4,"mergeName":"浙江省,温州市,平阳县,山门镇","lng":120.2473961528526,"lat":27.64026466573773,"info":"直接检索POI第一个结果成功!","tag":["行政地标","乡镇"]},{"name":"顺溪镇","code":"330326108","level":4,"mergeName":"浙江省,温州市,平阳县,顺溪镇","lng":120.20499900737327,"lat":27.56844116434341,"info":"直接检索POI第一个结果成功!","tag":["行政地标","乡镇"]},{"name":"南雁镇","code":"330326109","level":4,"mergeName":"浙江省,温州市,平阳县,南雁镇","lng":120.26219690392175,"lat":27.62037796503419,"info":"直接检索POI第一个结果成功!","tag":["行政地标","乡镇"]},{"name":"万全镇","code":"330326117","level":4,"mergeName":"浙江省,温州市,平阳县,万全镇","lng":120.6124630204595,"lat":27.727970003589743,"info":"直接检索POI第一个结果成功!","tag":""},{"name":"海西镇","code":"330326118","level":4,"mergeName":"浙江省,温州市,平阳县,海西镇","lng":120.6726145455238,"lat":27.673050096714476,"info":"直接检索POI第一个结果成功!","tag":""},{"name":"南麂镇","code":"330326119","level":4,"mergeName":"浙江省,温州市,平阳县,南麂镇","lng":121.09151497588434,"lat":27.46876577643021,"info":"直接检索POI第一个结果成功!","tag":["名称标注类"]},{"name":"麻步镇","code":"330326120","level":4,"mergeName":"浙江省,温州市,平阳县,麻步镇","lng":120.43260932182197,"lat":27.596054447374254,"info":"直接检索POI第一个结果成功!","tag":""},{"name":"凤卧镇","code":"330326121","level":4,"mergeName":"浙江省,温州市,平阳县,凤卧镇","lng":120.28792383473572,"lat":27.66753811777093,"info":"直接检索POI第一个结果成功!","tag":["政府机构","各级政府","乡镇级政府"]},{"name":"怀溪镇","code":"330326122","level":4,"mergeName":"浙江省,温州市,平阳县,怀溪镇","lng":120.18402024999183,"lat":27.663618175149995,"info":"直接检索POI第一个结果成功!","tag":["行政地标","乡镇"]},{"name":"青街畲族乡","code":"330326214","level":4,"mergeName":"浙江省,温州市,平阳县,青街畲族乡","lng":120.23376661250695,"lat":27.554772407325203,"info":"直接检索POI第一个结果成功!","tag":["行政地标","乡镇"]},{"name":"闹村乡","code":"330326217","level":4,"mergeName":"浙江省,温州市,平阳县,闹村乡","lng":120.30990294513273,"lat":27.5694803057346,"info":"直接检索POI第一个结果成功!","tag":["政府机构","各级政府","乡镇级政府"]},{"name":"滨海新区","code":"330326401","level":4,"mergeName":"浙江省,温州市,平阳县,滨海新区","lng":120.68118402076396,"lat":27.66543346986686,"info":"直接检索POI第一个结果成功!","tag":["交通设施","公交车站","公交车站主点"]},{"name":"苍南县","code":"330327","level":3,"mergeName":"浙江省,温州市,苍南县","lng":120.43359188838846,"lat":27.523066708355586,"info":"直接检索POI第一个结果成功!","tag":""},{"name":"灵溪镇","code":"330327100","level":4,"mergeName":"浙江省,温州市,苍南县,灵溪镇","lng":120.40876766478118,"lat":27.50979883715474,"info":"直接检索POI第一个结果成功!","tag":["行政地标","乡镇"]},{"name":"宜山镇","code":"330327103","level":4,"mergeName":"浙江省,温州市,苍南县,宜山镇","lng":120.55152889163514,"lat":27.51922475875755,"info":"直接检索POI第一个结果成功!","tag":["行政地标","乡镇"]},{"name":"钱库镇","code":"330327104","level":4,"mergeName":"浙江省,温州市,苍南县,钱库镇","lng":120.5778437634052,"lat":27.485615354517144,"info":"直接检索POI第一个结果成功!","tag":["行政地标","乡镇"]},{"name":"金乡镇","code":"330327107","level":4,"mergeName":"浙江省,温州市,苍南县,金乡镇","lng":120.60981939717504,"lat":27.436403812542093,"info":"直接检索POI第一个结果成功!","tag":["行政地标","乡镇"]},{"name":"藻溪镇","code":"330327112","level":4,"mergeName":"浙江省,温州市,苍南县,藻溪镇","lng":120.45673187899565,"lat":27.465830863810723,"info":"直接检索POI第一个结果成功!","tag":["行政地标","乡镇"]},{"name":"桥墩镇","code":"330327113","level":4,"mergeName":"浙江省,温州市,苍南县,桥墩镇","lng":120.31654465674913,"lat":27.46570345222923,"info":"直接检索POI第一个结果成功!","tag":["行政地标","乡镇"]},{"name":"矾山镇","code":"330327116","level":4,"mergeName":"浙江省,温州市,苍南县,矾山镇","lng":120.41667356174133,"lat":27.343751980104443,"info":"直接检索POI第一个结果成功!","tag":["行政地标","乡镇"]},{"name":"赤溪镇","code":"330327117","level":4,"mergeName":"浙江省,温州市,苍南县,赤溪镇","lng":120.51886138296173,"lat":27.341020930185785,"info":"直接检索POI第一个结果成功!","tag":["行政地标","乡镇"]},{"name":"马站镇","code":"330327118","level":4,"mergeName":"浙江省,温州市,苍南县,马站镇","lng":120.46970628513307,"lat":27.27030509265231,"info":"直接检索POI第一个结果成功!","tag":["行政地标","乡镇"]},{"name":"望里镇","code":"330327122","level":4,"mergeName":"浙江省,温州市,苍南县,望里镇","lng":120.53512556353672,"lat":27.478684885482167,"info":"直接检索POI第一个结果成功!","tag":""},{"name":"炎亭镇","code":"330327123","level":4,"mergeName":"浙江省,温州市,苍南县,炎亭镇","lng":120.64830864419561,"lat":27.440075875063805,"info":"直接检索POI第一个结果成功!","tag":["旅游景点"]},{"name":"大渔镇","code":"330327124","level":4,"mergeName":"浙江省,温州市,苍南县,大渔镇","lng":120.6099730074172,"lat":27.39514596419102,"info":"直接检索POI第一个结果成功!","tag":["政府机构","各级政府","乡镇级政府"]},{"name":"莒溪镇","code":"330327125","level":4,"mergeName":"浙江省,温州市,苍南县,莒溪镇","lng":120.20136661921433,"lat":27.507476372861092,"info":"直接检索POI第一个结果成功!","tag":["行政地标","乡镇"]},{"name":"南宋镇","code":"330327126","level":4,"mergeName":"浙江省,温州市,苍南县,南宋镇","lng":120.4030729468331,"lat":27.394414354731722,"info":"直接检索POI第一个结果成功!","tag":""},{"name":"霞关镇","code":"330327127","level":4,"mergeName":"浙江省,温州市,苍南县,霞关镇","lng":120.47624100856325,"lat":27.177748986810766,"info":"直接检索POI第一个结果成功!","tag":""},{"name":"沿浦镇","code":"330327128","level":4,"mergeName":"浙江省,温州市,苍南县,沿浦镇","lng":120.46676568204713,"lat":27.23439432928817,"info":"直接检索POI第一个结果成功!","tag":["政府机构","各级政府","乡镇级政府"]},{"name":"凤阳畲族乡","code":"330327216","level":4,"mergeName":"浙江省,温州市,苍南县,凤阳畲族乡","lng":120.45973787872269,"lat":27.34279732773128,"info":"直接检索POI第一个结果成功!","tag":["行政地标","乡镇"]},{"name":"岱岭畲族乡","code":"330327218","level":4,"mergeName":"浙江省,温州市,苍南县,岱岭畲族乡","lng":120.43923333681981,"lat":27.28059931339356,"info":"直接检索POI第一个结果成功!","tag":["行政地标","乡镇"]},{"name":"文成县","code":"330328","level":3,"mergeName":"浙江省,温州市,文成县","lng":120.09749088194124,"lat":27.793216832725626,"info":"直接检索POI第一个结果成功!","tag":""},{"name":"大峃镇","code":"330328100","level":4,"mergeName":"浙江省,温州市,文成县,大峃镇","lng":120.09531563514955,"lat":27.79560555203569,"info":"直接检索POI第一个结果成功!","tag":["行政地标","乡镇"]},{"name":"百丈漈镇","code":"330328101","level":4,"mergeName":"浙江省,温州市,文成县,百丈漈镇","lng":120.01278309780317,"lat":27.838228395732457,"info":"直接检索POI第一个结果成功!","tag":["行政地标","乡镇"]},{"name":"南田镇","code":"330328102","level":4,"mergeName":"浙江省,温州市,文成县,南田镇","lng":119.9701119691434,"lat":27.923378077003953,"info":"直接检索POI第一个结果成功!","tag":["行政地标","乡镇"]},{"name":"西坑畲族镇","code":"330328103","level":4,"mergeName":"浙江省,温州市,文成县,西坑畲族镇","lng":119.94041084492406,"lat":27.847169131944472,"info":"直接检索POI第一个结果成功!","tag":["行政地标","乡镇"]},{"name":"黄坦镇","code":"330328104","level":4,"mergeName":"浙江省,温州市,文成县,黄坦镇","lng":120.00217644532816,"lat":27.764415249397285,"info":"直接检索POI第一个结果成功!","tag":["行政地标","乡镇"]},{"name":"珊溪镇","code":"330328105","level":4,"mergeName":"浙江省,温州市,文成县,珊溪镇","lng":120.07459478127993,"lat":27.677058552190335,"info":"直接检索POI第一个结果成功!","tag":["行政地标","乡镇"]},{"name":"巨屿镇","code":"330328106","level":4,"mergeName":"浙江省,温州市,文成县,巨屿镇","lng":120.09515654524378,"lat":27.69978058663102,"info":"直接检索POI第一个结果成功!","tag":["行政地标","乡镇"]},{"name":"玉壶镇","code":"330328107","level":4,"mergeName":"浙江省,温州市,文成县,玉壶镇","lng":120.15193897549403,"lat":27.881369556080475,"info":"直接检索POI第一个结果成功!","tag":["行政地标","乡镇"]},{"name":"峃口镇","code":"330328108","level":4,"mergeName":"浙江省,温州市,文成县,峃口镇","lng":120.15911050770002,"lat":27.757345873541375,"info":"直接检索POI第一个结果成功!","tag":["行政地标","乡镇"]},{"name":"周壤镇","code":"330328109","level":4,"mergeName":"浙江省,温州市,文成县,周壤镇","lng":120.14134849251819,"lat":27.833332048292835,"info":"直接检索POI第一个结果成功!","tag":["政府机构","各级政府","乡镇级政府"]},{"name":"铜铃山镇","code":"330328110","level":4,"mergeName":"浙江省,温州市,文成县,铜铃山镇","lng":119.83832641866783,"lat":27.86879053932859,"info":"直接检索POI第一个结果成功!","tag":""},{"name":"二源镇","code":"330328111","level":4,"mergeName":"浙江省,温州市,文成县,二源镇","lng":120.02753291494994,"lat":27.8815639312277,"info":"直接检索POI第一个结果成功!","tag":""},{"name":"周山畲族乡","code":"330328217","level":4,"mergeName":"浙江省,温州市,文成县,周山畲族乡","lng":120.1742888165749,"lat":27.72807208637908,"info":"直接检索POI第一个结果成功!","tag":["行政地标","乡镇"]},{"name":"桂山乡","code":"330328225","level":4,"mergeName":"浙江省,温州市,文成县,桂山乡","lng":120.08688854133267,"lat":27.593743110408614,"info":"直接检索POI第一个结果成功!","tag":["政府机构","各级政府","乡镇级政府"]},{"name":"双桂乡","code":"330328226","level":4,"mergeName":"浙江省,温州市,文成县,双桂乡","lng":120.16349855045371,"lat":27.711787181250106,"info":"直接检索POI第一个结果成功!","tag":["行政地标","乡镇"]},{"name":"平和乡","code":"330328227","level":4,"mergeName":"浙江省,温州市,文成县,平和乡","lng":120.22597291390497,"lat":27.75045825809766,"info":"直接检索POI第一个结果成功!","tag":""},{"name":"公阳乡","code":"330328228","level":4,"mergeName":"浙江省,温州市,文成县,公阳乡","lng":120.20405821201298,"lat":27.72342910031364,"info":"直接检索POI第一个结果成功!","tag":["政府机构","各级政府","乡镇级政府"]},{"name":"泰顺县","code":"330329","level":3,"mergeName":"浙江省,温州市,泰顺县","lng":119.72353528131605,"lat":27.56217007922447,"info":"直接检索POI第一个结果成功!","tag":""},{"name":"罗阳镇","code":"330329100","level":4,"mergeName":"浙江省,温州市,泰顺县,罗阳镇","lng":119.71925027420431,"lat":27.56203405359061,"info":"直接检索POI第一个结果成功!","tag":["行政地标","乡镇"]},{"name":"司前畲族镇","code":"330329101","level":4,"mergeName":"浙江省,温州市,泰顺县,司前畲族镇","lng":119.79136112018011,"lat":27.67284334758886,"info":"直接检索POI第一个结果成功!","tag":["行政地标","乡镇"]},{"name":"百丈镇","code":"330329102","level":4,"mergeName":"浙江省,温州市,泰顺县,百丈镇","lng":119.8701875184852,"lat":27.653389645770094,"info":"直接检索POI第一个结果成功!","tag":["行政地标","乡镇"]},{"name":"筱村镇","code":"330329103","level":4,"mergeName":"浙江省,温州市,泰顺县,筱村镇","lng":119.92018935908727,"lat":27.565457140108396,"info":"直接检索POI第一个结果成功!","tag":["行政地标","乡镇"]},{"name":"泗溪镇","code":"330329104","level":4,"mergeName":"浙江省,温州市,泰顺县,泗溪镇","lng":120.01043843059236,"lat":27.474799383628753,"info":"直接检索POI第一个结果成功!","tag":["行政地标","乡镇"]},{"name":"彭溪镇","code":"330329105","level":4,"mergeName":"浙江省,温州市,泰顺县,彭溪镇","lng":120.14901579953498,"lat":27.43993392588784,"info":"直接检索POI第一个结果成功!","tag":["行政地标","乡镇"]},{"name":"雅阳镇","code":"330329106","level":4,"mergeName":"浙江省,温州市,泰顺县,雅阳镇","lng":120.05223910121325,"lat":27.392450996745684,"info":"直接检索POI第一个结果成功!","tag":["行政地标","乡镇"]},{"name":"仕阳镇","code":"330329107","level":4,"mergeName":"浙江省,温州市,泰顺县,仕阳镇","lng":119.91117890567241,"lat":27.367338879327406,"info":"直接检索POI第一个结果成功!","tag":["行政地标","乡镇"]},{"name":"三魁镇","code":"330329109","level":4,"mergeName":"浙江省,温州市,泰顺县,三魁镇","lng":119.92158721229089,"lat":27.430134658487308,"info":"直接检索POI第一个结果成功!","tag":["行政地标","乡镇"]},{"name":"南浦溪镇","code":"330329111","level":4,"mergeName":"浙江省,温州市,泰顺县,南浦溪镇","lng":119.94490075552255,"lat":27.626109507045726,"info":"直接检索POI第一个结果成功!","tag":""},{"name":"龟湖镇","code":"330329112","level":4,"mergeName":"浙江省,温州市,泰顺县,龟湖镇","lng":119.81682385934367,"lat":27.32740413562181,"info":"直接检索POI第一个结果成功!","tag":""},{"name":"西旸镇","code":"330329113","level":4,"mergeName":"浙江省,温州市,泰顺县,西旸镇","lng":119.8903459432752,"lat":27.440022574011465,"info":"直接检索POI第一个结果成功!","tag":""},{"name":"竹里畲族乡","code":"330329204","level":4,"mergeName":"浙江省,温州市,泰顺县,竹里畲族乡","lng":119.77880721085177,"lat":27.70682247457429,"info":"直接检索POI第一个结果成功!","tag":["行政地标","乡镇"]},{"name":"包垟乡","code":"330329225","level":4,"mergeName":"浙江省,温州市,泰顺县,包垟乡","lng":119.95212726402572,"lat":27.667861733847044,"info":"直接检索POI第一个结果成功!","tag":""},{"name":"凤垟乡","code":"330329226","level":4,"mergeName":"浙江省,温州市,泰顺县,凤垟乡","lng":119.99524970137355,"lat":27.514465243355996,"info":"直接检索POI第一个结果成功!","tag":["政府机构"]},{"name":"东溪乡","code":"330329227","level":4,"mergeName":"浙江省,温州市,泰顺县,东溪乡","lng":119.97343300461269,"lat":27.42584196690689,"info":"直接检索POI第一个结果成功!","tag":""},{"name":"柳峰乡","code":"330329228","level":4,"mergeName":"浙江省,温州市,泰顺县,柳峰乡","lng":120.00669950339996,"lat":27.390816214736255,"info":"直接检索POI第一个结果成功!","tag":["行政地标","村庄"]},{"name":"雪溪乡","code":"330329229","level":4,"mergeName":"浙江省,温州市,泰顺县,雪溪乡","lng":119.93313196520965,"lat":27.39797124259799,"info":"直接检索POI第一个结果成功!","tag":["政府机构","各级政府","乡镇级政府"]},{"name":"大安乡","code":"330329230","level":4,"mergeName":"浙江省,温州市,泰顺县,大安乡","lng":119.89417524000186,"lat":27.46002290804591,"info":"直接检索POI第一个结果成功!","tag":""},{"name":"乌岩岭自然保护区","code":"330329400","level":4,"mergeName":"浙江省,温州市,泰顺县,乌岩岭自然保护区","lng":119.66898379279907,"lat":27.716820894414745,"info":"直接检索POI第一个结果成功!","tag":["旅游景点"]},{"name":"温州经济技术开发区","code":"330371","level":3,"mergeName":"浙江省,温州市,温州经济技术开发区","lng":120.81325145950848,"lat":27.828060031597023,"info":"直接检索POI第一个结果成功!","tag":""},{"name":"海城街道","code":"330371005","level":4,"mergeName":"浙江省,温州市,温州经济技术开发区,海城街道","lng":120.77007512383007,"lat":27.836242156445767,"info":"直接检索POI第一个结果成功!","tag":["行政地标","乡镇"]},{"name":"沙城街道","code":"330371008","level":4,"mergeName":"浙江省,温州市,温州经济技术开发区,沙城街道","lng":120.81534406219328,"lat":27.880651921579716,"info":"直接检索POI第一个结果成功!","tag":["行政地标","商圈","弱商圈"]},{"name":"天河街道","code":"330371009","level":4,"mergeName":"浙江省,温州市,温州经济技术开发区,天河街道","lng":120.79935395462931,"lat":27.869209911569275,"info":"直接检索POI第一个结果成功!","tag":["行政地标","乡镇"]},{"name":"星海街道","code":"330371011","level":4,"mergeName":"浙江省,温州市,温州经济技术开发区,星海街道","lng":120.82542008560372,"lat":27.868487565215787,"info":"直接检索POI第一个结果成功!","tag":["行政地标","乡镇"]},{"name":"瑞安市","code":"330381","level":3,"mergeName":"浙江省,温州市,瑞安市","lng":120.66158182674556,"lat":27.78395105582384,"info":"直接检索POI第一个结果成功!","tag":""},{"name":"安阳街道","code":"330381001","level":4,"mergeName":"浙江省,温州市,瑞安市,安阳街道","lng":120.64619340421196,"lat":27.782675555855025,"info":"直接检索POI第一个结果成功!","tag":["行政地标","乡镇"]},{"name":"玉海街道","code":"330381002","level":4,"mergeName":"浙江省,温州市,瑞安市,玉海街道","lng":120.64423033718165,"lat":27.788107431702695,"info":"直接检索POI第一个结果成功!","tag":["行政地标","乡镇"]},{"name":"锦湖街道","code":"330381003","level":4,"mergeName":"浙江省,温州市,瑞安市,锦湖街道","lng":120.64141334093385,"lat":27.793696338429534,"info":"直接检索POI第一个结果成功!","tag":["行政地标","乡镇"]},{"name":"东山街道","code":"330381004","level":4,"mergeName":"浙江省,温州市,瑞安市,东山街道","lng":120.65186665265836,"lat":27.76576408483677,"info":"直接检索POI第一个结果成功!","tag":["行政地标","乡镇"]},{"name":"上望街道","code":"330381005","level":4,"mergeName":"浙江省,温州市,瑞安市,上望街道","lng":120.68035596274512,"lat":27.77105130249685,"info":"直接检索POI第一个结果成功!","tag":["行政地标","乡镇"]},{"name":"莘塍街道","code":"330381007","level":4,"mergeName":"浙江省,温州市,瑞安市,莘塍街道","lng":120.68556622453185,"lat":27.784913343589153,"info":"直接检索POI第一个结果成功!","tag":["行政地标","乡镇"]},{"name":"汀田街道","code":"330381008","level":4,"mergeName":"浙江省,温州市,瑞安市,汀田街道","lng":120.70164203044143,"lat":27.803603460862213,"info":"直接检索POI第一个结果成功!","tag":["行政地标","乡镇"]},{"name":"飞云街道","code":"330381009","level":4,"mergeName":"浙江省,温州市,瑞安市,飞云街道","lng":120.6256723334877,"lat":27.76637772385338,"info":"直接检索POI第一个结果成功!","tag":["行政地标","乡镇"]},{"name":"仙降街道","code":"330381010","level":4,"mergeName":"浙江省,温州市,瑞安市,仙降街道","lng":120.55686806026247,"lat":27.78903884311167,"info":"直接检索POI第一个结果成功!","tag":["行政地标","乡镇"]},{"name":"南滨街道","code":"330381011","level":4,"mergeName":"浙江省,温州市,瑞安市,南滨街道","lng":120.63828705809905,"lat":27.725326129613364,"info":"直接检索POI第一个结果成功!","tag":["行政地标","乡镇"]},{"name":"潘岱街道","code":"330381012","level":4,"mergeName":"浙江省,温州市,瑞安市,潘岱街道","lng":120.59755159815154,"lat":27.842842634648246,"info":"直接检索POI第一个结果成功!","tag":["行政地标","乡镇"]},{"name":"云周街道","code":"330381013","level":4,"mergeName":"浙江省,温州市,瑞安市,云周街道","lng":120.58260550125092,"lat":27.77368662363336,"info":"直接检索POI第一个结果成功!","tag":["名称标注类"]},{"name":"塘下镇","code":"330381101","level":4,"mergeName":"浙江省,温州市,瑞安市,塘下镇","lng":120.70057610112364,"lat":27.827313608185644,"info":"直接检索POI第一个结果成功!","tag":["行政地标","乡镇"]},{"name":"马屿镇","code":"330381116","level":4,"mergeName":"浙江省,温州市,瑞安市,马屿镇","lng":120.46407229263745,"lat":27.78165108608699,"info":"直接检索POI第一个结果成功!","tag":["行政地标","乡镇"]},{"name":"陶山镇","code":"330381120","level":4,"mergeName":"浙江省,温州市,瑞安市,陶山镇","lng":120.50449271684273,"lat":27.84790224198997,"info":"直接检索POI第一个结果成功!","tag":["行政地标","乡镇"]},{"name":"湖岭镇","code":"330381122","level":4,"mergeName":"浙江省,温州市,瑞安市,湖岭镇","lng":120.40452972887815,"lat":27.91021216810388,"info":"直接检索POI第一个结果成功!","tag":["行政地标","乡镇"]},{"name":"高楼镇","code":"330381125","level":4,"mergeName":"浙江省,温州市,瑞安市,高楼镇","lng":120.29411055461145,"lat":27.7700166536287,"info":"直接检索POI第一个结果成功!","tag":["行政地标","乡镇"]},{"name":"桐浦镇","code":"330381126","level":4,"mergeName":"浙江省,温州市,瑞安市,桐浦镇","lng":120.5666308445417,"lat":27.85540257790037,"info":"直接检索POI第一个结果成功!","tag":""},{"name":"林川镇","code":"330381127","level":4,"mergeName":"浙江省,温州市,瑞安市,林川镇","lng":120.44992353170723,"lat":27.922264382422888,"info":"直接检索POI第一个结果成功!","tag":""},{"name":"曹村镇","code":"330381128","level":4,"mergeName":"浙江省,温州市,瑞安市,曹村镇","lng":120.46711503305986,"lat":27.714688904383713,"info":"直接检索POI第一个结果成功!","tag":""},{"name":"平阳坑镇","code":"330381129","level":4,"mergeName":"浙江省,温州市,瑞安市,平阳坑镇","lng":120.38100912622652,"lat":27.753155782110948,"info":"直接检索POI第一个结果成功!","tag":["行政地标","乡镇"]},{"name":"芳庄乡","code":"330381221","level":4,"mergeName":"浙江省,温州市,瑞安市,芳庄乡","lng":120.39111937507687,"lat":27.927705552517914,"info":"直接检索POI第一个结果成功!","tag":["行政地标","乡镇"]},{"name":"北麂乡","code":"330381222","level":4,"mergeName":"浙江省,温州市,瑞安市,北麂乡","lng":121.20623317082872,"lat":27.628651631987267,"info":"直接检索POI第一个结果成功!","tag":["名称标注类"]},{"name":"乐清市","code":"330382","level":3,"mergeName":"浙江省,温州市,乐清市","lng":120.99249961040192,"lat":28.118179835931247,"info":"直接检索POI第一个结果成功!","tag":""},{"name":"城东街道","code":"330382001","level":4,"mergeName":"浙江省,温州市,乐清市,城东街道","lng":120.99257821213402,"lat":28.128927460056406,"info":"直接检索POI第一个结果成功!","tag":["行政地标","乡镇"]},{"name":"乐成街道","code":"330382002","level":4,"mergeName":"浙江省,温州市,乐清市,乐成街道","lng":120.97223895844492,"lat":28.117430739024574,"info":"直接检索POI第一个结果成功!","tag":["行政地标","乡镇"]},{"name":"城南街道","code":"330382003","level":4,"mergeName":"浙江省,温州市,乐清市,城南街道","lng":120.97071543230051,"lat":28.107627954266793,"info":"直接检索POI第一个结果成功!","tag":["行政地标","乡镇"]},{"name":"盐盆街道","code":"330382004","level":4,"mergeName":"浙江省,温州市,乐清市,盐盆街道","lng":120.99648673940663,"lat":28.071756986826042,"info":"直接检索POI第一个结果成功!","tag":""},{"name":"翁垟街道","code":"330382005","level":4,"mergeName":"浙江省,温州市,乐清市,翁垟街道","lng":120.98127600170287,"lat":28.030337734149434,"info":"直接检索POI第一个结果成功!","tag":["行政地标","乡镇"]},{"name":"白石街道","code":"330382006","level":4,"mergeName":"浙江省,温州市,乐清市,白石街道","lng":120.8713748802236,"lat":28.093337504859736,"info":"检索POI失败,BMAP_STATUE_CODE:1 ,GetPoint结果: 直接查询获得"},{"name":"石帆街道","code":"330382007","level":4,"mergeName":"浙江省,温州市,乐清市,石帆街道","lng":121.02841404434008,"lat":28.195006189871787,"info":"直接检索POI第一个结果成功!","tag":["行政地标","乡镇"]},{"name":"天成街道","code":"330382008","level":4,"mergeName":"浙江省,温州市,乐清市,天成街道","lng":121.0394167597143,"lat":28.175481807007504,"info":"直接检索POI第一个结果成功!","tag":["名称标注类"]},{"name":"大荆镇","code":"330382101","level":4,"mergeName":"浙江省,温州市,乐清市,大荆镇","lng":121.16477987494841,"lat":28.414325579920956,"info":"直接检索POI第一个结果成功!","tag":["行政地标","乡镇"]},{"name":"仙溪镇","code":"330382102","level":4,"mergeName":"浙江省,温州市,乐清市,仙溪镇","lng":121.07921187345428,"lat":28.420963326067294,"info":"直接检索POI第一个结果成功!","tag":["行政地标","乡镇"]},{"name":"雁荡镇","code":"330382104","level":4,"mergeName":"浙江省,温州市,乐清市,雁荡镇","lng":121.15038129525594,"lat":28.363327800490783,"info":"直接检索POI第一个结果成功!","tag":["行政地标","乡镇"]},{"name":"芙蓉镇","code":"330382105","level":4,"mergeName":"浙江省,温州市,乐清市,芙蓉镇","lng":121.03798171666259,"lat":28.30243568164037,"info":"直接检索POI第一个结果成功!","tag":["行政地标","乡镇"]},{"name":"清江镇","code":"330382106","level":4,"mergeName":"浙江省,温州市,乐清市,清江镇","lng":121.11229008740673,"lat":28.278186142291823,"info":"直接检索POI第一个结果成功!","tag":["名称标注类"]},{"name":"虹桥镇","code":"330382108","level":4,"mergeName":"浙江省,温州市,乐清市,虹桥镇","lng":121.04426805861934,"lat":28.226496045007817,"info":"直接检索POI第一个结果成功!","tag":["行政地标","乡镇"]},{"name":"淡溪镇","code":"330382111","level":4,"mergeName":"浙江省,温州市,乐清市,淡溪镇","lng":121.00384116661441,"lat":28.235049237345564,"info":"直接检索POI第一个结果成功!","tag":["行政地标","乡镇"]},{"name":"柳市镇","code":"330382114","level":4,"mergeName":"浙江省,温州市,乐清市,柳市镇","lng":120.898531104934,"lat":28.043435352795278,"info":"直接检索POI第一个结果成功!","tag":["行政地标","乡镇"]},{"name":"北白象镇","code":"330382115","level":4,"mergeName":"浙江省,温州市,乐清市,北白象镇","lng":120.86783995821244,"lat":28.04040486286278,"info":"直接检索POI第一个结果成功!","tag":["行政地标","乡镇"]},{"name":"湖雾镇","code":"330382121","level":4,"mergeName":"浙江省,温州市,乐清市,湖雾镇","lng":121.2120355956074,"lat":28.400084875787687,"info":"直接检索POI第一个结果成功!","tag":["行政地标","乡镇"]},{"name":"南塘镇","code":"330382122","level":4,"mergeName":"浙江省,温州市,乐清市,南塘镇","lng":121.12256158209607,"lat":28.248660863233848,"info":"直接检索POI第一个结果成功!","tag":["行政地标","乡镇"]},{"name":"南岳镇","code":"330382123","level":4,"mergeName":"浙江省,温州市,乐清市,南岳镇","lng":121.09462850278089,"lat":28.190046613501227,"info":"直接检索POI第一个结果成功!","tag":["行政地标","乡镇"]},{"name":"蒲岐镇","code":"330382124","level":4,"mergeName":"浙江省,温州市,乐清市,蒲岐镇","lng":121.06766379680514,"lat":28.175466841180235,"info":"直接检索POI第一个结果成功!","tag":["行政地标","乡镇"]},{"name":"磐石镇","code":"330382125","level":4,"mergeName":"浙江省,温州市,乐清市,磐石镇","lng":120.83798270849552,"lat":28.002381748449913,"info":"直接检索POI第一个结果成功!","tag":""},{"name":"智仁乡","code":"330382210","level":4,"mergeName":"浙江省,温州市,乐清市,智仁乡","lng":121.1288219630236,"lat":28.49443497063366,"info":"直接检索POI第一个结果成功!","tag":["行政地标","乡镇"]},{"name":"龙西乡","code":"330382211","level":4,"mergeName":"浙江省,温州市,乐清市,龙西乡","lng":121.0537105071538,"lat":28.398524265829487,"info":"直接检索POI第一个结果成功!","tag":["行政地标","乡镇"]},{"name":"岭底乡","code":"330382212","level":4,"mergeName":"浙江省,温州市,乐清市,岭底乡","lng":120.95924290314471,"lat":28.289233526164676,"info":"直接检索POI第一个结果成功!","tag":["行政地标","乡镇"]},{"name":"龙港市","code":"330383","level":3,"mergeName":"浙江省,温州市,龙港市","lng":120.55951671405778,"lat":27.58413250136789,"info":"直接检索POI第一个结果成功!","tag":""},{"name":"龙港县直辖村级区划","code":"330383198","level":4,"mergeName":"浙江省,温州市,龙港市,龙港县直辖村级区划","lng":120.56620504773011,"lat":27.599241799339108,"info":"直接检索POI第一个结果成功!","tag":""},{"name":"嘉兴市","code":"3304","level":2,"mergeName":"浙江省,嘉兴市","lng":120.76354850212967,"lat":30.75097436538776,"info":"直接检索POI第一个结果成功!","tag":""},{"name":"南湖区","code":"330402","level":3,"mergeName":"浙江省,嘉兴市,南湖区","lng":120.78960834497413,"lat":30.75154658055066,"info":"直接检索POI第一个结果成功!","tag":""},{"name":"建设街道","code":"330402007","level":4,"mergeName":"浙江省,嘉兴市,南湖区,建设街道","lng":120.762142564176,"lat":30.76765921489863,"info":"直接检索POI第一个结果成功!","tag":["行政地标","乡镇"]},{"name":"解放街道","code":"330402008","level":4,"mergeName":"浙江省,嘉兴市,南湖区,解放街道","lng":120.77514041609153,"lat":30.781431764604513,"info":"直接检索POI第一个结果成功!","tag":["行政地标","乡镇"]},{"name":"新嘉街道","code":"330402009","level":4,"mergeName":"浙江省,嘉兴市,南湖区,新嘉街道","lng":120.7490299088163,"lat":30.781308748125724,"info":"直接检索POI第一个结果成功!","tag":["行政地标","乡镇"]},{"name":"南湖街道","code":"330402010","level":4,"mergeName":"浙江省,嘉兴市,南湖区,南湖街道","lng":120.77651805742163,"lat":30.761811575899863,"info":"直接检索POI第一个结果成功!","tag":["行政地标","乡镇"]},{"name":"新兴街道","code":"330402011","level":4,"mergeName":"浙江省,嘉兴市,南湖区,新兴街道","lng":120.73820290199619,"lat":30.76257022681423,"info":"直接检索POI第一个结果成功!","tag":["行政地标","乡镇"]},{"name":"城南街道","code":"330402012","level":4,"mergeName":"浙江省,嘉兴市,南湖区,城南街道","lng":120.74260073628139,"lat":30.738843061476135,"info":"直接检索POI第一个结果成功!","tag":["行政地标","乡镇"]},{"name":"东栅街道","code":"330402013","level":4,"mergeName":"浙江省,嘉兴市,南湖区,东栅街道","lng":120.78129425798764,"lat":30.7432454388297,"info":"直接检索POI第一个结果成功!","tag":["行政地标","乡镇"]},{"name":"长水街道","code":"330402014","level":4,"mergeName":"浙江省,嘉兴市,南湖区,长水街道","lng":120.76410599052917,"lat":30.733948869864584,"info":"直接检索POI第一个结果成功!","tag":["政府机构"]},{"name":"七星街道","code":"330402015","level":4,"mergeName":"浙江省,嘉兴市,南湖区,七星街道","lng":120.83937447022691,"lat":30.81775322107641,"info":"直接检索POI第一个结果成功!","tag":["行政地标","乡镇"]},{"name":"凤桥镇","code":"330402100","level":4,"mergeName":"浙江省,嘉兴市,南湖区,凤桥镇","lng":120.86720819696193,"lat":30.66512900316962,"info":"直接检索POI第一个结果成功!","tag":["行政地标","乡镇"]},