[{"name":"湖北省","code":"42","level":1,"mergeName":"湖北省,湖北省","lng":114.34844073658718,"lat":30.551600064658352,"info":"直接查询获得"},{"name":"武汉市","code":"4201","level":2,"mergeName":"湖北省,武汉市","lng":114.31158155473231,"lat":30.598466736400987,"info":"直接查询获得"},{"name":"江岸区","code":"420102","level":3,"mergeName":"湖北省,武汉市,江岸区","lng":114.31657918760652,"lat":30.605402797562395,"info":"直接查询获得"},{"name":"大智街道","code":"420102002","level":4,"mergeName":"湖北省,武汉市,江岸区,大智街道","lng":114.2981429941336,"lat":30.589196890241737,"info":"直接查询获得"},{"name":"一元街道","code":"420102003","level":4,"mergeName":"湖北省,武汉市,江岸区,一元街道","lng":114.31175375989858,"lat":30.598604365240018,"info":"直接查询获得"},{"name":"车站街道","code":"420102004","level":4,"mergeName":"湖北省,武汉市,江岸区,车站街道","lng":114.30516100323538,"lat":30.598719458079312,"info":"直接查询获得"},{"name":"四唯街道","code":"420102005","level":4,"mergeName":"湖北省,武汉市,江岸区,四唯街道","lng":114.30804636322836,"lat":30.606427202639885,"info":"直接查询获得"},{"name":"永清街道","code":"420102006","level":4,"mergeName":"湖北省,武汉市,江岸区,永清街道","lng":114.31533566328906,"lat":30.60896932422732,"info":"直接查询获得"},{"name":"西马街道","code":"420102007","level":4,"mergeName":"湖北省,武汉市,江岸区,西马街道","lng":114.29614659996822,"lat":30.598799345566647,"info":"直接查询获得"},{"name":"球场街道","code":"420102008","level":4,"mergeName":"湖北省,武汉市,江岸区,球场街道","lng":114.3060112520955,"lat":30.605046899131047,"info":"直接查询获得"},{"name":"劳动街道","code":"420102009","level":4,"mergeName":"湖北省,武汉市,江岸区,劳动街道","lng":114.30388876009077,"lat":30.614222182063283,"info":"直接查询获得"},{"name":"二七街道","code":"420102010","level":4,"mergeName":"湖北省,武汉市,江岸区,二七街道","lng":114.32206199528667,"lat":30.621543034715778,"info":"直接查询获得"},{"name":"新村街道","code":"420102011","level":4,"mergeName":"湖北省,武汉市,江岸区,新村街道","lng":114.33659807771002,"lat":30.634331553827202,"info":"直接查询获得"},{"name":"丹水池街道","code":"420102012","level":4,"mergeName":"湖北省,武汉市,江岸区,丹水池街道","lng":114.3388630032398,"lat":30.658432897807792,"info":"直接查询获得"},{"name":"台北街道","code":"420102014","level":4,"mergeName":"湖北省,武汉市,江岸区,台北街道","lng":114.28568816789885,"lat":30.603682272839208,"info":"直接查询获得"},{"name":"花桥街道","code":"420102015","level":4,"mergeName":"湖北省,武汉市,江岸区,花桥街道","lng":114.30000976281389,"lat":30.62669376582144,"info":"直接查询获得"},{"name":"谌家矶街道","code":"420102016","level":4,"mergeName":"湖北省,武汉市,江岸区,谌家矶街道","lng":114.37749427237421,"lat":30.682940806321444,"info":"直接查询获得"},{"name":"后湖街道","code":"420102017","level":4,"mergeName":"湖北省,武汉市,江岸区,后湖街道","lng":114.29918898106942,"lat":30.64025190843652,"info":"直接查询获得"},{"name":"塔子湖街道","code":"420102018","level":4,"mergeName":"湖北省,武汉市,江岸区,塔子湖街道","lng":114.31657918760652,"lat":30.605402797562395,"info":"直接查询获得"},{"name":"百步亭花园","code":"420102400","level":4,"mergeName":"湖北省,武汉市,江岸区,百步亭花园","lng":114.33102843173452,"lat":30.64879602714838,"info":"直接查询获得"},{"name":"江汉区","code":"420103","level":3,"mergeName":"湖北省,武汉市,江汉区","lng":114.27750613182234,"lat":30.6072822768268,"info":"直接查询获得"},{"name":"民族街街道","code":"420103001","level":4,"mergeName":"湖北省,武汉市,江汉区,民族街街道","lng":114.27750613182234,"lat":30.6072822768268,"info":"直接查询获得"},{"name":"花楼街街道","code":"420103002","level":4,"mergeName":"湖北省,武汉市,江汉区,花楼街街道","lng":114.27750613182234,"lat":30.6072822768268,"info":"直接查询获得"},{"name":"水塔街街道","code":"420103003","level":4,"mergeName":"湖北省,武汉市,江汉区,水塔街街道","lng":114.27750613182234,"lat":30.6072822768268,"info":"直接查询获得"},{"name":"民权街街道","code":"420103004","level":4,"mergeName":"湖北省,武汉市,江汉区,民权街街道","lng":114.27750613182234,"lat":30.6072822768268,"info":"直接查询获得"},{"name":"满春街街道","code":"420103005","level":4,"mergeName":"湖北省,武汉市,江汉区,满春街街道","lng":114.27750613182234,"lat":30.6072822768268,"info":"直接查询获得"},{"name":"民意街街道","code":"420103006","level":4,"mergeName":"湖北省,武汉市,江汉区,民意街街道","lng":114.27750613182234,"lat":30.6072822768268,"info":"直接查询获得"},{"name":"新华街街道","code":"420103007","level":4,"mergeName":"湖北省,武汉市,江汉区,新华街街道","lng":114.27750613182234,"lat":30.6072822768268,"info":"直接查询获得"},{"name":"万松街街道","code":"420103008","level":4,"mergeName":"湖北省,武汉市,江汉区,万松街街道","lng":114.27750613182234,"lat":30.6072822768268,"info":"直接查询获得"},{"name":"唐家墩街街道","code":"420103009","level":4,"mergeName":"湖北省,武汉市,江汉区,唐家墩街街道","lng":114.27750613182234,"lat":30.6072822768268,"info":"直接查询获得"},{"name":"北湖街街道","code":"420103010","level":4,"mergeName":"湖北省,武汉市,江汉区,北湖街街道","lng":114.27750613182234,"lat":30.6072822768268,"info":"直接查询获得"},{"name":"前进街街道","code":"420103011","level":4,"mergeName":"湖北省,武汉市,江汉区,前进街街道","lng":114.27750613182234,"lat":30.6072822768268,"info":"直接查询获得"},{"name":"常青街街道","code":"420103012","level":4,"mergeName":"湖北省,武汉市,江汉区,常青街街道","lng":114.27750613182234,"lat":30.6072822768268,"info":"直接查询获得"},{"name":"汉兴街街道","code":"420103013","level":4,"mergeName":"湖北省,武汉市,江汉区,汉兴街街道","lng":114.27750613182234,"lat":30.6072822768268,"info":"直接查询获得"},{"name":"江汉经济开发区","code":"420103400","level":4,"mergeName":"湖北省,武汉市,江汉区,江汉经济开发区","lng":114.27750613182234,"lat":30.6072822768268,"info":"直接查询获得"},{"name":"武汉中央商务区管理委员会","code":"420103401","level":4,"mergeName":"湖北省,武汉市,江汉区,武汉中央商务区管理委员会","lng":114.2571929289863,"lat":30.599009401648832,"info":"直接查询获得"},{"name":"硚口区","code":"420104","level":3,"mergeName":"湖北省,武汉市,硚口区","lng":114.2214603120715,"lat":30.587584340775596,"info":"直接查询获得"},{"name":"古田街道","code":"420104001","level":4,"mergeName":"湖北省,武汉市,硚口区,古田街道","lng":114.2214603120715,"lat":30.587584340775596,"info":"直接查询获得"},{"name":"韩家墩街道","code":"420104002","level":4,"mergeName":"湖北省,武汉市,硚口区,韩家墩街道","lng":114.2224788108587,"lat":30.593737266762297,"info":"直接查询获得"},{"name":"宗关街道","code":"420104003","level":4,"mergeName":"湖北省,武汉市,硚口区,宗关街道","lng":114.23588997313938,"lat":30.585209923505406,"info":"直接查询获得"},{"name":"汉水桥街道","code":"420104004","level":4,"mergeName":"湖北省,武汉市,硚口区,汉水桥街道","lng":114.24963701185023,"lat":30.57868786257237,"info":"直接查询获得"},{"name":"宝丰街道","code":"420104005","level":4,"mergeName":"湖北省,武汉市,硚口区,宝丰街道","lng":114.26498729772678,"lat":30.584942678347616,"info":"直接查询获得"},{"name":"荣华街道","code":"420104006","level":4,"mergeName":"湖北省,武汉市,硚口区,荣华街道","lng":114.26823710565496,"lat":30.57801135023084,"info":"直接查询获得"},{"name":"汉中街道","code":"420104008","level":4,"mergeName":"湖北省,武汉市,硚口区,汉中街道","lng":114.27145227132948,"lat":30.5725886184289,"info":"直接查询获得"},{"name":"汉正街道","code":"420104009","level":4,"mergeName":"湖北省,武汉市,硚口区,汉正街道","lng":114.28247278663103,"lat":30.571824792595045,"info":"直接查询获得"},{"name":"六角亭街道","code":"420104010","level":4,"mergeName":"湖北省,武汉市,硚口区,六角亭街道","lng":114.28259350541698,"lat":30.58115167134308,"info":"直接查询获得"},{"name":"长丰街道","code":"420104011","level":4,"mergeName":"湖北省,武汉市,硚口区,长丰街道","lng":114.20691773400101,"lat":30.60911431986898,"info":"直接查询获得"},{"name":"易家街道","code":"420104012","level":4,"mergeName":"湖北省,武汉市,硚口区,易家街道","lng":114.17574204127723,"lat":30.617902853076345,"info":"直接查询获得"},{"name":"汉阳区","code":"420105","level":3,"mergeName":"湖北省,武汉市,汉阳区","lng":114.22544555463595,"lat":30.56005202744345,"info":"直接查询获得"},{"name":"建桥街道","code":"420105002","level":4,"mergeName":"湖北省,武汉市,汉阳区,建桥街道","lng":114.27475893391171,"lat":30.554926484435946,"info":"直接查询获得"},{"name":"晴川街道","code":"420105004","level":4,"mergeName":"湖北省,武汉市,汉阳区,晴川街道","lng":114.27696050105557,"lat":30.566273029189475,"info":"直接查询获得"},{"name":"鹦鹉街道","code":"420105005","level":4,"mergeName":"湖北省,武汉市,汉阳区,鹦鹉街道","lng":114.27758068578983,"lat":30.54023538027974,"info":"直接查询获得"},{"name":"洲头街道","code":"420105006","level":4,"mergeName":"湖北省,武汉市,汉阳区,洲头街道","lng":114.26131183941064,"lat":30.5301853476775,"info":"直接查询获得"},{"name":"五里墩街道","code":"420105007","level":4,"mergeName":"湖北省,武汉市,汉阳区,五里墩街道","lng":114.2551087703726,"lat":30.551197393980463,"info":"直接查询获得"},{"name":"琴断口街道","code":"420105008","level":4,"mergeName":"湖北省,武汉市,汉阳区,琴断口街道","lng":114.23218374426631,"lat":30.56469049095043,"info":"直接查询获得"},{"name":"江汉二桥街道","code":"420105009","level":4,"mergeName":"湖北省,武汉市,汉阳区,江汉二桥街道","lng":114.22544555463595,"lat":30.56005202744345,"info":"直接查询获得"},{"name":"永丰街道","code":"420105010","level":4,"mergeName":"湖北省,武汉市,汉阳区,永丰街道","lng":114.17436255931914,"lat":30.567275101977238,"info":"直接查询获得"},{"name":"江堤街道","code":"420105011","level":4,"mergeName":"湖北省,武汉市,汉阳区,江堤街道","lng":114.24653902563796,"lat":30.52551387691608,"info":"直接查询获得"},{"name":"四新街道","code":"420105012","level":4,"mergeName":"湖北省,武汉市,汉阳区,四新街道","lng":114.22679301290093,"lat":30.52772287594826,"info":"直接查询获得"},{"name":"龙阳街道","code":"420105013","level":4,"mergeName":"湖北省,武汉市,汉阳区,龙阳街道","lng":114.22544555463595,"lat":30.56005202744345,"info":"直接查询获得"},{"name":"武昌区","code":"420106","level":3,"mergeName":"湖北省,武汉市,武昌区","lng":114.32254851755089,"lat":30.559566983522483,"info":"直接查询获得"},{"name":"积玉桥街道","code":"420106001","level":4,"mergeName":"湖北省,武汉市,武昌区,积玉桥街道","lng":114.31598998902254,"lat":30.568712902702643,"info":"直接查询获得"},{"name":"杨园街道","code":"420106002","level":4,"mergeName":"湖北省,武汉市,武昌区,杨园街道","lng":114.35715600681445,"lat":30.617883895053744,"info":"直接查询获得"},{"name":"徐家棚街道","code":"420106003","level":4,"mergeName":"湖北省,武汉市,武昌区,徐家棚街道","lng":114.34940003704129,"lat":30.58698293091898,"info":"直接查询获得"},{"name":"粮道街道","code":"420106005","level":4,"mergeName":"湖北省,武汉市,武昌区,粮道街道","lng":114.31309789443317,"lat":30.554323548295613,"info":"直接查询获得"},{"name":"中华路街道","code":"420106006","level":4,"mergeName":"湖北省,武汉市,武昌区,中华路街道","lng":114.31041196095833,"lat":30.55171428007351,"info":"直接查询获得"},{"name":"黄鹤楼街道","code":"420106007","level":4,"mergeName":"湖北省,武汉市,武昌区,黄鹤楼街道","lng":114.30737209511257,"lat":30.543995687289325,"info":"直接查询获得"},{"name":"紫阳街道","code":"420106008","level":4,"mergeName":"湖北省,武汉市,武昌区,紫阳街道","lng":114.31493501903162,"lat":30.5364205692558,"info":"直接查询获得"},{"name":"白沙洲街道","code":"420106009","level":4,"mergeName":"湖北省,武汉市,武昌区,白沙洲街道","lng":114.2929127001323,"lat":30.518568233893195,"info":"直接查询获得"},{"name":"首义路街道","code":"420106010","level":4,"mergeName":"湖北省,武汉市,武昌区,首义路街道","lng":114.31764601523018,"lat":30.541803935598754,"info":"直接查询获得"},{"name":"中南路街道","code":"420106011","level":4,"mergeName":"湖北省,武汉市,武昌区,中南路街道","lng":114.33129298270723,"lat":30.53746911682248,"info":"直接查询获得"},{"name":"水果湖街道","code":"420106012","level":4,"mergeName":"湖北省,武汉市,武昌区,水果湖街道","lng":114.34861222310903,"lat":30.560430716066385,"info":"直接查询获得"},{"name":"珞珈山街道","code":"420106013","level":4,"mergeName":"湖北省,武汉市,武昌区,珞珈山街道","lng":114.3727576565388,"lat":30.5440563681714,"info":"直接查询获得"},{"name":"石洞街道","code":"420106014","level":4,"mergeName":"湖北省,武汉市,武昌区,石洞街道","lng":114.28685659387568,"lat":30.345301316364388,"info":"直接查询获得"},{"name":"南湖街道","code":"420106015","level":4,"mergeName":"湖北省,武汉市,武昌区,南湖街道","lng":114.32041818603398,"lat":30.519958180369233,"info":"直接查询获得"},{"name":"东湖风景区街道（武昌）","code":"420106490","level":4,"mergeName":"湖北省,武汉市,武昌区,东湖风景区街道（武昌）","lng":114.38353699387872,"lat":30.595467917394185,"info":"直接查询获得"},{"name":"青山区","code":"420107","level":3,"mergeName":"湖北省,武汉市,青山区","lng":114.39149265696673,"lat":30.64659307554314,"info":"直接查询获得"},{"name":"红卫路街道","code":"420107001","level":4,"mergeName":"湖北省,武汉市,青山区,红卫路街道","lng":114.38703319892355,"lat":30.631828760646275,"info":"直接查询获得"},{"name":"冶金街道","code":"420107002","level":4,"mergeName":"湖北省,武汉市,青山区,冶金街道","lng":114.41320775538163,"lat":30.630423497047023,"info":"直接查询获得"},{"name":"新沟桥街道","code":"420107003","level":4,"mergeName":"湖北省,武汉市,青山区,新沟桥街道","lng":114.39192159784774,"lat":30.645918711491287,"info":"直接查询获得"},{"name":"红钢城街道","code":"420107004","level":4,"mergeName":"湖北省,武汉市,青山区,红钢城街道","lng":114.41870718171373,"lat":30.651649955501163,"info":"直接查询获得"},{"name":"工人村街道","code":"420107005","level":4,"mergeName":"湖北省,武汉市,青山区,工人村街道","lng":114.42646153453694,"lat":30.65582917902504,"info":"直接查询获得"},{"name":"青山镇街道","code":"420107006","level":4,"mergeName":"湖北省,武汉市,青山区,青山镇街道","lng":114.42645803114547,"lat":30.65582987801945,"info":"直接查询获得"},{"name":"厂前街道","code":"420107007","level":4,"mergeName":"湖北省,武汉市,青山区,厂前街道","lng":114.44513639610591,"lat":30.619324598518933,"info":"直接查询获得"},{"name":"武东街道","code":"420107008","level":4,"mergeName":"湖北省,武汉市,青山区,武东街道","lng":114.46531558343781,"lat":30.58237585718168,"info":"直接查询获得"},{"name":"白玉山街道","code":"420107009","level":4,"mergeName":"湖北省,武汉市,青山区,白玉山街道","lng":114.49328405599934,"lat":30.613384055710622,"info":"直接查询获得"},{"name":"钢花村街道","code":"420107010","level":4,"mergeName":"湖北省,武汉市,青山区,钢花村街道","lng":114.38735991263754,"lat":30.626055698359718,"info":"直接查询获得"},{"name":"武钢集团","code":"420107400","level":4,"mergeName":"湖北省,武汉市,青山区,武钢集团","lng":114.3720346409762,"lat":30.628177005700945,"info":"直接查询获得"},{"name":"中国一冶有限责任公司","code":"420107401","level":4,"mergeName":"湖北省,武汉市,青山区,中国一冶有限责任公司","lng":114.41034440656857,"lat":30.63107241148016,"info":"直接查询获得"},{"name":"武汉钢铁有限公司","code":"420107402","level":4,"mergeName":"湖北省,武汉市,青山区,武汉钢铁有限公司","lng":114.46790396093428,"lat":30.601095172191005,"info":"直接查询获得"},{"name":"中国一冶集体企业管理处","code":"420107403","level":4,"mergeName":"湖北省,武汉市,青山区,中国一冶集体企业管理处","lng":114.39469691272083,"lat":30.632439755278437,"info":"直接查询获得"},{"name":"开发区","code":"420107404","level":4,"mergeName":"湖北省,武汉市,青山区,开发区","lng":114.39149265696673,"lat":30.64659307554314,"info":"直接查询获得"},{"name":"钢都花园","code":"420107405","level":4,"mergeName":"湖北省,武汉市,青山区,钢都花园","lng":114.3771576772996,"lat":30.619602611034857,"info":"直接查询获得"},{"name":"北湖工业园管理办公室","code":"420107406","level":4,"mergeName":"湖北省,武汉市,青山区,北湖工业园管理办公室","lng":114.52836216751956,"lat":30.608768614464427,"info":"直接查询获得"},{"name":"洪山区","code":"420111","level":3,"mergeName":"湖北省,武汉市,洪山区","lng":114.35045554601551,"lat":30.50633395680806,"info":"直接查询获得"},{"name":"珞南街道","code":"420111001","level":4,"mergeName":"湖北省,武汉市,洪山区,珞南街道","lng":114.35031702730588,"lat":30.509808954827022,"info":"直接查询获得"},{"name":"关山街道","code":"420111002","level":4,"mergeName":"湖北省,武汉市,洪山区,关山街道","lng":114.42517920342145,"lat":30.499682074656686,"info":"直接查询获得"},{"name":"狮子山街道","code":"420111003","level":4,"mergeName":"湖北省,武汉市,洪山区,狮子山街道","lng":114.36118311041567,"lat":30.483561425813804,"info":"直接查询获得"},{"name":"张家湾街道","code":"420111004","level":4,"mergeName":"湖北省,武汉市,洪山区,张家湾街道","lng":114.28665079208335,"lat":30.48868166901617,"info":"直接查询获得"},{"name":"梨园街道","code":"420111005","level":4,"mergeName":"湖北省,武汉市,洪山区,梨园街道","lng":114.44322542809962,"lat":30.60168437596873,"info":"直接查询获得"},{"name":"卓刀泉街道","code":"420111006","level":4,"mergeName":"湖北省,武汉市,洪山区,卓刀泉街道","lng":114.35045554601551,"lat":30.50633395680806,"info":"直接查询获得"},{"name":"洪山街街道","code":"420111007","level":4,"mergeName":"湖北省,武汉市,洪山区,洪山街街道","lng":114.35045554601551,"lat":30.50633395680806,"info":"直接查询获得"},{"name":"和平街道","code":"420111008","level":4,"mergeName":"湖北省,武汉市,洪山区,和平街道","lng":114.35784806137933,"lat":30.602166870704327,"info":"直接查询获得"},{"name":"青菱街道","code":"420111009","level":4,"mergeName":"湖北省,武汉市,洪山区,青菱街道","lng":114.2716481917612,"lat":30.4531981876671,"info":"直接查询获得"},{"name":"八吉府街道","code":"420111061","level":4,"mergeName":"湖北省,武汉市,洪山区,八吉府街道","lng":114.35045554601551,"lat":30.50633395680806,"info":"直接查询获得"},{"name":"关东街道","code":"420111080","level":4,"mergeName":"湖北省,武汉市,洪山区,关东街道","lng":114.35045554601551,"lat":30.50633395680806,"info":"直接查询获得"},{"name":"花山街道","code":"420111081","level":4,"mergeName":"湖北省,武汉市,洪山区,花山街道","lng":114.52776461469433,"lat":30.54494680193257,"info":"直接查询获得"},{"name":"左岭街道","code":"420111082","level":4,"mergeName":"湖北省,武汉市,洪山区,左岭街道","lng":114.61734202319941,"lat":30.530993896289438,"info":"直接查询获得"},{"name":"九峰街道","code":"420111083","level":4,"mergeName":"湖北省,武汉市,洪山区,九峰街道","lng":114.5037329660303,"lat":30.496581917033566,"info":"直接查询获得"},{"name":"天兴乡","code":"420111205","level":4,"mergeName":"湖北省,武汉市,洪山区,天兴乡","lng":114.42163538818458,"lat":30.67905875861015,"info":"直接查询获得"},{"name":"清谭湖街道","code":"420111460","level":4,"mergeName":"湖北省,武汉市,洪山区,清谭湖街道","lng":114.35045554601551,"lat":30.50633395680806,"info":"直接查询获得"},{"name":"东湖风景区街道（洪山）","code":"420111491","level":4,"mergeName":"湖北省,武汉市,洪山区,东湖风景区街道（洪山）","lng":114.35045554601551,"lat":30.50633395680806,"info":"直接查询获得"},{"name":"东西湖区","code":"420112","level":3,"mergeName":"湖北省,武汉市,东西湖区","lng":114.14345873785965,"lat":30.625919818109203,"info":"直接查询获得"},{"name":"吴家山街道","code":"420112001","level":4,"mergeName":"湖北省,武汉市,东西湖区,吴家山街道","lng":114.15005607318602,"lat":30.626732688342944,"info":"直接查询获得"},{"name":"柏泉街道","code":"420112002","level":4,"mergeName":"湖北省,武汉市,东西湖区,柏泉街道","lng":114.14103394179655,"lat":30.73284085378739,"info":"直接查询获得"},{"name":"将军路街道","code":"420112004","level":4,"mergeName":"湖北省,武汉市,东西湖区,将军路街道","lng":114.26344639296346,"lat":30.65873066086478,"info":"直接查询获得"},{"name":"慈惠街道","code":"420112005","level":4,"mergeName":"湖北省,武汉市,东西湖区,慈惠街道","lng":114.13390301299727,"lat":30.603088890188065,"info":"直接查询获得"},{"name":"走马岭街道","code":"420112006","level":4,"mergeName":"湖北省,武汉市,东西湖区,走马岭街道","lng":114.02842371052398,"lat":30.654141869296648,"info":"直接查询获得"},{"name":"径河街道","code":"420112007","level":4,"mergeName":"湖北省,武汉市,东西湖区,径河街道","lng":114.17124422558878,"lat":30.68439631035295,"info":"直接查询获得"},{"name":"长青街道","code":"420112008","level":4,"mergeName":"湖北省,武汉市,东西湖区,长青街道","lng":114.14270326292575,"lat":30.626393650119763,"info":"直接查询获得"},{"name":"辛安渡街道","code":"420112011","level":4,"mergeName":"湖北省,武汉市,东西湖区,辛安渡街道","lng":113.94020202469456,"lat":30.745389830643724,"info":"直接查询获得"},{"name":"东山街道","code":"420112012","level":4,"mergeName":"湖北省,武汉市,东西湖区,东山街道","lng":114.02607401280153,"lat":30.78345647201388,"info":"直接查询获得"},{"name":"常青花园新区管理委员会街道","code":"420112013","level":4,"mergeName":"湖北省,武汉市,东西湖区,常青花园新区管理委员会街道","lng":114.24107795695114,"lat":30.644802839049355,"info":"直接查询获得"},{"name":"新沟镇街道","code":"420112014","level":4,"mergeName":"湖北省,武汉市,东西湖区,新沟镇街道","lng":113.95600384742893,"lat":30.702044998002126,"info":"直接查询获得"},{"name":"金银湖街道","code":"420112015","level":4,"mergeName":"湖北省,武汉市,东西湖区,金银湖街道","lng":114.22793700496788,"lat":30.655398908161512,"info":"直接查询获得"},{"name":"产业管理处","code":"420112400","level":4,"mergeName":"湖北省,武汉市,东西湖区,产业管理处","lng":114.09454779945236,"lat":30.62937425533645,"info":"直接查询获得"},{"name":"保税物流管理处","code":"420112401","level":4,"mergeName":"湖北省,武汉市,东西湖区,保税物流管理处","lng":114.14345873785965,"lat":30.625919818109203,"info":"直接查询获得"},{"name":"海峡两岸科技产业管理处","code":"420112402","level":4,"mergeName":"湖北省,武汉市,东西湖区,海峡两岸科技产业管理处","lng":114.13160658479154,"lat":30.617942711529654,"info":"直接查询获得"},{"name":"食品工业管理处","code":"420112403","level":4,"mergeName":"湖北省,武汉市,东西湖区,食品工业管理处","lng":114.0223752398642,"lat":30.66219369987527,"info":"直接查询获得"},{"name":"临空经济管理处","code":"420112404","level":4,"mergeName":"湖北省,武汉市,东西湖区,临空经济管理处","lng":114.06570545529074,"lat":30.640694132165,"info":"直接查询获得"},{"name":"农科所管理处","code":"420112405","level":4,"mergeName":"湖北省,武汉市,东西湖区,农科所管理处","lng":114.09454519436638,"lat":30.721703638692027,"info":"直接查询获得"},{"name":"现代服务业管理处","code":"420112406","level":4,"mergeName":"湖北省,武汉市,东西湖区,现代服务业管理处","lng":114.14345873785965,"lat":30.625919818109203,"info":"直接查询获得"},{"name":"汉南区","code":"420113","level":3,"mergeName":"湖北省,武汉市,汉南区","lng":114.09151485055902,"lat":30.314809120144606,"info":"直接查询获得"},{"name":"纱帽街道","code":"420113001","level":4,"mergeName":"湖北省,武汉市,汉南区,纱帽街道","lng":114.09218498646948,"lat":30.319894039977292,"info":"直接查询获得"},{"name":"邓南街道","code":"420113002","level":4,"mergeName":"湖北省,武汉市,汉南区,邓南街道","lng":113.98957208704799,"lat":30.306417975409182,"info":"直接查询获得"},{"name":"东荆街道","code":"420113003","level":4,"mergeName":"湖北省,武汉市,汉南区,东荆街道","lng":113.92498760393316,"lat":30.349057695003395,"info":"直接查询获得"},{"name":"湘口街道","code":"420113004","level":4,"mergeName":"湖北省,武汉市,汉南区,湘口街道","lng":113.85985973581535,"lat":30.268050476778846,"info":"直接查询获得"},{"name":"蔡甸区","code":"420114","level":3,"mergeName":"湖北省,武汉市,蔡甸区","lng":114.03547963081321,"lat":30.588113621855484,"info":"直接查询获得"},{"name":"蔡甸街道","code":"420114001","level":4,"mergeName":"湖北省,武汉市,蔡甸区,蔡甸街道","lng":114.09387299235325,"lat":30.54240982732303,"info":"直接查询获得"},{"name":"奓山街道","code":"420114002","level":4,"mergeName":"湖北省,武汉市,蔡甸区,奓山街道","lng":114.0228536773788,"lat":30.448374241882668,"info":"直接查询获得"},{"name":"永安街道","code":"420114003","level":4,"mergeName":"湖北省,武汉市,蔡甸区,永安街道","lng":113.95183984206798,"lat":30.46255616789961,"info":"直接查询获得"},{"name":"侏儒山街道","code":"420114004","level":4,"mergeName":"湖北省,武汉市,蔡甸区,侏儒山街道","lng":113.85570174910133,"lat":30.446570346900295,"info":"直接查询获得"},{"name":"大集街道","code":"420114005","level":4,"mergeName":"湖北省,武汉市,蔡甸区,大集街道","lng":114.05768601251151,"lat":30.514164931984595,"info":"直接查询获得"},{"name":"张湾街道","code":"420114006","level":4,"mergeName":"湖北省,武汉市,蔡甸区,张湾街道","lng":113.98893806301905,"lat":30.58918515451114,"info":"直接查询获得"},{"name":"索河街道","code":"420114007","level":4,"mergeName":"湖北省,武汉市,蔡甸区,索河街道","lng":113.90884397595225,"lat":30.527616875639477,"info":"直接查询获得"},{"name":"玉贤街道","code":"420114008","level":4,"mergeName":"湖北省,武汉市,蔡甸区,玉贤街道","lng":113.992364020573,"lat":30.52401676205681,"info":"直接查询获得"},{"name":"沌口街道","code":"420114070","level":4,"mergeName":"湖北省,武汉市,蔡甸区,沌口街道","lng":114.15769490392067,"lat":30.495701273898817,"info":"直接查询获得"},{"name":"军山街道","code":"420114071","level":4,"mergeName":"湖北省,武汉市,蔡甸区,军山街道","lng":114.09304214958709,"lat":30.412262139811272,"info":"直接查询获得"},{"name":"沌阳街道","code":"420114072","level":4,"mergeName":"湖北省,武汉市,蔡甸区,沌阳街道","lng":114.03547963081321,"lat":30.588113621855484,"info":"直接查询获得"},{"name":"消泗乡","code":"420114200","level":4,"mergeName":"湖北省,武汉市,蔡甸区,消泗乡","lng":113.77926753834328,"lat":30.29739451253328,"info":"直接查询获得"},{"name":"桐湖","code":"420114400","level":4,"mergeName":"湖北省,武汉市,蔡甸区,桐湖","lng":114.0153926213046,"lat":30.388902832354248,"info":"直接查询获得"},{"name":"侏儒山街道洪北片区","code":"420114401","level":4,"mergeName":"湖北省,武汉市,蔡甸区,侏儒山街道洪北片区","lng":113.85445921291992,"lat":30.395858206852026,"info":"直接查询获得"},{"name":"中法武汉生态示范城","code":"420114404","level":4,"mergeName":"湖北省,武汉市,蔡甸区,中法武汉生态示范城","lng":114.11006503900117,"lat":30.569395894487876,"info":"直接查询获得"},{"name":"侏儒山街道成功片区","code":"420114406","level":4,"mergeName":"湖北省,武汉市,蔡甸区,侏儒山街道成功片区","lng":113.72375863579576,"lat":30.407206129576128,"info":"直接查询获得"},{"name":"蔡甸经济开发区","code":"420114407","level":4,"mergeName":"湖北省,武汉市,蔡甸区,蔡甸经济开发区","lng":114.03547963081321,"lat":30.588113621855484,"info":"直接查询获得"},{"name":"江夏区","code":"420115","level":3,"mergeName":"湖北省,武汉市,江夏区","lng":114.32855126446022,"lat":30.38156421818202,"info":"直接查询获得"},{"name":"纸坊街道","code":"420115001","level":4,"mergeName":"湖北省,武汉市,江夏区,纸坊街道","lng":114.3441889667779,"lat":30.36453701003242,"info":"直接查询获得"},{"name":"金口街道","code":"420115002","level":4,"mergeName":"湖北省,武汉市,江夏区,金口街道","lng":114.16519536596269,"lat":30.304544601651454,"info":"直接查询获得"},{"name":"乌龙泉街道","code":"420115003","level":4,"mergeName":"湖北省,武汉市,江夏区,乌龙泉街道","lng":114.32963057853046,"lat":30.26979235483801,"info":"直接查询获得"},{"name":"郑店街道","code":"420115005","level":4,"mergeName":"湖北省,武汉市,江夏区,郑店街道","lng":114.2658628347853,"lat":30.336134037916988,"info":"直接查询获得"},{"name":"五里界街道","code":"420115007","level":4,"mergeName":"湖北省,武汉市,江夏区,五里界街道","lng":114.39479437886867,"lat":30.344124452425774,"info":"直接查询获得"},{"name":"金水街道","code":"420115008","level":4,"mergeName":"湖北省,武汉市,江夏区,金水街道","lng":114.32855126446022,"lat":30.38156421818202,"info":"直接查询获得"},{"name":"安山街道","code":"420115009","level":4,"mergeName":"湖北省,武汉市,江夏区,安山街道","lng":114.29920128785491,"lat":30.161327553183884,"info":"直接查询获得"},{"name":"山坡街道","code":"420115010","level":4,"mergeName":"湖北省,武汉市,江夏区,山坡街道","lng":114.3577046019894,"lat":30.095916236843195,"info":"直接查询获得"},{"name":"法泗街道","code":"420115014","level":4,"mergeName":"湖北省,武汉市,江夏区,法泗街道","lng":114.13448852852866,"lat":30.195319004079803,"info":"直接查询获得"},{"name":"湖泗街道","code":"420115015","level":4,"mergeName":"湖北省,武汉市,江夏区,湖泗街道","lng":114.47280745139103,"lat":30.02404384316153,"info":"直接查询获得"},{"name":"舒安街道","code":"420115016","level":4,"mergeName":"湖北省,武汉市,江夏区,舒安街道","lng":114.51321979086006,"lat":30.119090715472982,"info":"直接查询获得"},{"name":"佛祖岭街道","code":"420115086","level":4,"mergeName":"湖北省,武汉市,江夏区,佛祖岭街道","lng":114.4582637055234,"lat":30.463877350480416,"info":"直接查询获得"},{"name":"豹澥街道","code":"420115087","level":4,"mergeName":"湖北省,武汉市,江夏区,豹澥街道","lng":114.54516101953946,"lat":30.48551720254839,"info":"直接查询获得"},{"name":"龙泉街道","code":"420115088","level":4,"mergeName":"湖北省,武汉市,江夏区,龙泉街道","lng":114.54710962385171,"lat":30.390171362983892,"info":"直接查询获得"},{"name":"滨湖街道","code":"420115089","level":4,"mergeName":"湖北省,武汉市,江夏区,滨湖街道","lng":114.32855126446022,"lat":30.38156421818202,"info":"直接查询获得"},{"name":"武汉江夏经济开发区庙山高新技术产业园","code":"420115401","level":4,"mergeName":"湖北省,武汉市,江夏区,武汉江夏经济开发区庙山高新技术产业园","lng":114.37994098709173,"lat":30.35602808694839,"info":"直接查询获得"},{"name":"武汉江夏经济开发区藏龙岛高新技术产业园","code":"420115402","level":4,"mergeName":"湖北省,武汉市,江夏区,武汉江夏经济开发区藏龙岛高新技术产业园","lng":114.42254600048007,"lat":30.425173920742463,"info":"直接查询获得"},{"name":"武汉江夏经济开发区大桥现代产业园","code":"420115403","level":4,"mergeName":"湖北省,武汉市,江夏区,武汉江夏经济开发区大桥现代产业园","lng":114.32792182178936,"lat":30.393589334710168,"info":"直接查询获得"},{"name":"江夏梁子湖风景区","code":"420115404","level":4,"mergeName":"湖北省,武汉市,江夏区,江夏梁子湖风景区","lng":114.52702881265111,"lat":30.246302992058528,"info":"直接查询获得"},{"name":"武汉江夏经济开发区金港汽车产业园","code":"420115405","level":4,"mergeName":"湖北省,武汉市,江夏区,武汉江夏经济开发区金港汽车产业园","lng":114.3872310956274,"lat":30.35838525083621,"info":"直接查询获得"},{"name":"黄陂区","code":"420116","level":3,"mergeName":"湖北省,武汉市,黄陂区","lng":114.38245399675588,"lat":30.88753376783457,"info":"直接查询获得"},{"name":"前川街道","code":"420116001","level":4,"mergeName":"湖北省,武汉市,黄陂区,前川街道","lng":114.38216600000939,"lat":30.888536862231557,"info":"直接查询获得"},{"name":"祁家湾街道","code":"420116002","level":4,"mergeName":"湖北省,武汉市,黄陂区,祁家湾街道","lng":114.24146584527035,"lat":30.888696231392622,"info":"直接查询获得"},{"name":"横店街道","code":"420116003","level":4,"mergeName":"湖北省,武汉市,黄陂区,横店街道","lng":114.31711475735159,"lat":30.82879191902885,"info":"直接查询获得"},{"name":"罗汉寺街道","code":"420116004","level":4,"mergeName":"湖北省,武汉市,黄陂区,罗汉寺街道","lng":114.3166789893487,"lat":30.961754829908074,"info":"直接查询获得"},{"name":"滠口街道","code":"420116005","level":4,"mergeName":"湖北省,武汉市,黄陂区,滠口街道","lng":114.36011655228369,"lat":30.723048576892193,"info":"直接查询获得"},{"name":"六指街道","code":"420116006","level":4,"mergeName":"湖北省,武汉市,黄陂区,六指街道","lng":114.50104802069153,"lat":30.892092814955266,"info":"直接查询获得"},{"name":"天河街道","code":"420116007","level":4,"mergeName":"湖北省,武汉市,黄陂区,天河街道","lng":114.22669509760034,"lat":30.809284388795156,"info":"直接查询获得"},{"name":"王家河街道","code":"420116008","level":4,"mergeName":"湖北省,武汉市,黄陂区,王家河街道","lng":114.45471252418135,"lat":30.93451370562601,"info":"直接查询获得"},{"name":"长轩岭街道","code":"420116009","level":4,"mergeName":"湖北省,武汉市,黄陂区,长轩岭街道","lng":114.35788462241358,"lat":31.101937371850948,"info":"直接查询获得"},{"name":"李集街道","code":"420116010","level":4,"mergeName":"湖北省,武汉市,黄陂区,李集街道","lng":114.38245399675588,"lat":30.88753376783457,"info":"直接查询获得"},{"name":"姚集街道","code":"420116011","level":4,"mergeName":"湖北省,武汉市,黄陂区,姚集街道","lng":114.38245399675588,"lat":30.88753376783457,"info":"直接查询获得"},{"name":"蔡榨街道","code":"420116012","level":4,"mergeName":"湖北省,武汉市,黄陂区,蔡榨街道","lng":114.38245399675588,"lat":30.88753376783457,"info":"直接查询获得"},{"name":"武湖街道","code":"420116013","level":4,"mergeName":"湖北省,武汉市,黄陂区,武湖街道","lng":114.43040464657301,"lat":30.70369078601752,"info":"直接查询获得"},{"name":"三里桥街道","code":"420116014","level":4,"mergeName":"湖北省,武汉市,黄陂区,三里桥街道","lng":114.43871238613278,"lat":30.771509459460773,"info":"直接查询获得"},{"name":"蔡店街道","code":"420116015","level":4,"mergeName":"湖北省,武汉市,黄陂区,蔡店街道","lng":114.30374572559934,"lat":31.292738487078015,"info":"直接查询获得"},{"name":"木兰乡","code":"420116201","level":4,"mergeName":"湖北省,武汉市,黄陂区,木兰乡","lng":114.46519539016059,"lat":31.10404946198969,"info":"直接查询获得"},{"name":"木兰山风景区管理处","code":"420116401","level":4,"mergeName":"湖北省,武汉市,黄陂区,木兰山风景区管理处","lng":114.40027422214062,"lat":31.10009656888045,"info":"直接查询获得"},{"name":"大潭","code":"420116402","level":4,"mergeName":"湖北省,武汉市,黄陂区,大潭","lng":114.39746809538856,"lat":30.810873195532462,"info":"直接查询获得"},{"name":"盘龙城经济开发区","code":"420116403","level":4,"mergeName":"湖北省,武汉市,黄陂区,盘龙城经济开发区","lng":114.30463998873451,"lat":30.704310869917006,"info":"直接查询获得"},{"name":"汉口北商贸物流枢纽区管委会","code":"420116404","level":4,"mergeName":"湖北省,武汉市,黄陂区,汉口北商贸物流枢纽区管委会","lng":114.34850748068658,"lat":30.721065118204507,"info":"直接查询获得"},{"name":"新洲区","code":"420117","level":3,"mergeName":"湖北省,武汉市,新洲区","lng":114.80754339289633,"lat":30.847243870522625,"info":"直接查询获得"},{"name":"邾城街道","code":"420117001","level":4,"mergeName":"湖北省,武汉市,新洲区,邾城街道","lng":114.80775557265778,"lat":30.84730835905478,"info":"直接查询获得"},{"name":"阳逻街道","code":"420117002","level":4,"mergeName":"湖北省,武汉市,新洲区,阳逻街道","lng":114.57945760526601,"lat":30.674171209029062,"info":"直接查询获得"},{"name":"仓埠街道","code":"420117003","level":4,"mergeName":"湖北省,武汉市,新洲区,仓埠街道","lng":114.61515662555473,"lat":30.83569537686945,"info":"直接查询获得"},{"name":"汪集街道","code":"420117004","level":4,"mergeName":"湖北省,武汉市,新洲区,汪集街道","lng":114.7164714735143,"lat":30.78473973137088,"info":"直接查询获得"},{"name":"李集街道","code":"420117005","level":4,"mergeName":"湖北省,武汉市,新洲区,李集街道","lng":114.67942167123022,"lat":30.8777647611215,"info":"直接查询获得"},{"name":"三店街道","code":"420117006","level":4,"mergeName":"湖北省,武汉市,新洲区,三店街道","lng":114.78948125383776,"lat":30.925076056771026,"info":"直接查询获得"},{"name":"潘塘街道","code":"420117007","level":4,"mergeName":"湖北省,武汉市,新洲区,潘塘街道","lng":114.90116784738497,"lat":31.000984094535596,"info":"直接查询获得"},{"name":"旧街街道","code":"420117008","level":4,"mergeName":"湖北省,武汉市,新洲区,旧街街道","lng":114.99355012501441,"lat":30.850243858583124,"info":"直接查询获得"},{"name":"双柳街道","code":"420117009","level":4,"mergeName":"湖北省,武汉市,新洲区,双柳街道","lng":114.65533351914961,"lat":30.591851304642386,"info":"直接查询获得"},{"name":"涨渡湖街道","code":"420117010","level":4,"mergeName":"湖北省,武汉市,新洲区,涨渡湖街道","lng":114.74349377345843,"lat":30.6693437910817,"info":"直接查询获得"},{"name":"辛冲街道","code":"420117011","level":4,"mergeName":"湖北省,武汉市,新洲区,辛冲街道","lng":114.83075165472992,"lat":30.78179763297841,"info":"直接查询获得"},{"name":"徐古街道","code":"420117012","level":4,"mergeName":"湖北省,武汉市,新洲区,徐古街道","lng":114.98250563843033,"lat":30.952863260638008,"info":"直接查询获得"},{"name":"凤凰镇","code":"420117102","level":4,"mergeName":"湖北省,武汉市,新洲区,凤凰镇","lng":114.76159291012773,"lat":30.93035227581432,"info":"直接查询获得"},{"name":"道观河风景旅游管理处","code":"420117400","level":4,"mergeName":"湖北省,武汉市,新洲区,道观河风景旅游管理处","lng":114.99102202381768,"lat":30.883030830284458,"info":"直接查询获得"},{"name":"新洲原种场","code":"420117406","level":4,"mergeName":"湖北省,武汉市,新洲区,新洲原种场","lng":114.62123483012691,"lat":30.617187495911924,"info":"直接查询获得"},{"name":"黄石市","code":"4202","level":2,"mergeName":"湖北省,黄石市","lng":115.04553290894361,"lat":30.205207848941598,"info":"直接查询获得"},{"name":"黄石港区","code":"420202","level":3,"mergeName":"湖北省,黄石市,黄石港区","lng":115.07241748607679,"lat":30.229052639992027,"info":"直接查询获得"},{"name":"沈家营街道","code":"420202005","level":4,"mergeName":"湖北省,黄石市,黄石港区,沈家营街道","lng":115.07241748607679,"lat":30.229052639992027,"info":"直接查询获得"},{"name":"黄石港街道","code":"420202006","level":4,"mergeName":"湖北省,黄石市,黄石港区,黄石港街道","lng":115.07241748607679,"lat":30.229052639992027,"info":"直接查询获得"},{"name":"胜阳港街道","code":"420202007","level":4,"mergeName":"湖北省,黄石市,黄石港区,胜阳港街道","lng":115.07241748607679,"lat":30.229052639992027,"info":"直接查询获得"},{"name":"花湖街道","code":"420202070","level":4,"mergeName":"湖北省,黄石市,黄石港区,花湖街道","lng":115.05847102354271,"lat":30.249920085256818,"info":"直接查询获得"},{"name":"江北管理区","code":"420202400","level":4,"mergeName":"湖北省,黄石市,黄石港区,江北管理区","lng":115.15537537110939,"lat":30.240975146956757,"info":"直接查询获得"},{"name":"西塞山区","code":"420203","level":3,"mergeName":"湖北省,黄石市,西塞山区","lng":115.11648143744387,"lat":30.21069518411846,"info":"直接查询获得"},{"name":"章山街道","code":"420203007","level":4,"mergeName":"湖北省,黄石市,西塞山区,章山街道","lng":115.11681587658524,"lat":30.211206167990714,"info":"直接查询获得"},{"name":"八泉街道","code":"420203008","level":4,"mergeName":"湖北省,黄石市,西塞山区,八泉街道","lng":115.11648143744387,"lat":30.21069518411846,"info":"直接查询获得"},{"name":"澄月街道","code":"420203009","level":4,"mergeName":"湖北省,黄石市,西塞山区,澄月街道","lng":115.11648143744387,"lat":30.21069518411846,"info":"直接查询获得"},{"name":"牧羊湖街道","code":"420203010","level":4,"mergeName":"湖北省,黄石市,西塞山区,牧羊湖街道","lng":115.11648143744387,"lat":30.21069518411846,"info":"直接查询获得"},{"name":"黄思湾街道","code":"420203011","level":4,"mergeName":"湖北省,黄石市,西塞山区,黄思湾街道","lng":115.11648143744387,"lat":30.21069518411846,"info":"直接查询获得"},{"name":"冶钢农场","code":"420203400","level":4,"mergeName":"湖北省,黄石市,西塞山区,冶钢农场","lng":115.12234854022118,"lat":30.211051211185723,"info":"直接查询获得"},{"name":"西塞山工业园区管委会","code":"420203402","level":4,"mergeName":"湖北省,黄石市,西塞山区,西塞山工业园区管委会","lng":115.15249055279465,"lat":30.203834991478256,"info":"直接查询获得"},{"name":"下陆区","code":"420204","level":3,"mergeName":"湖北省,黄石市,下陆区","lng":114.96741590247372,"lat":30.180046155273466,"info":"直接查询获得"},{"name":"团城山街道","code":"420204004","level":4,"mergeName":"湖北省,黄石市,下陆区,团城山街道","lng":115.04207901408829,"lat":30.201745080442944,"info":"直接查询获得"},{"name":"新下陆街道","code":"420204005","level":4,"mergeName":"湖北省,黄石市,下陆区,新下陆街道","lng":114.96741590247372,"lat":30.180046155273466,"info":"直接查询获得"},{"name":"老下陆街道","code":"420204006","level":4,"mergeName":"湖北省,黄石市,下陆区,老下陆街道","lng":114.96741590247372,"lat":30.180046155273466,"info":"直接查询获得"},{"name":"东方山街道","code":"420204007","level":4,"mergeName":"湖北省,黄石市,下陆区,东方山街道","lng":114.96741590247372,"lat":30.180046155273466,"info":"直接查询获得"},{"name":"长乐山工业园管理委员会","code":"420204401","level":4,"mergeName":"湖北省,黄石市,下陆区,长乐山工业园管理委员会","lng":114.98072879013158,"lat":30.18392115585582,"info":"直接查询获得"},{"name":"铁山区","code":"420205","level":3,"mergeName":"湖北省,黄石市,铁山区","lng":114.90757141821284,"lat":30.212250832586538,"info":"直接查询获得"},{"name":"铁山街道","code":"420205003","level":4,"mergeName":"湖北省,黄石市,铁山区,铁山街道","lng":114.90757141821284,"lat":30.212250832586538,"info":"直接查询获得"},{"name":"阳新县","code":"420222","level":3,"mergeName":"湖北省,黄石市,阳新县","lng":115.22142677197253,"lat":29.836541808086142,"info":"直接查询获得"},{"name":"兴国镇","code":"420222100","level":4,"mergeName":"湖北省,黄石市,阳新县,兴国镇","lng":115.22196827053378,"lat":29.83676455828861,"info":"直接查询获得"},{"name":"富池镇","code":"420222101","level":4,"mergeName":"湖北省,黄石市,阳新县,富池镇","lng":115.36600248612551,"lat":29.95652259653591,"info":"直接查询获得"},{"name":"黄颡口镇","code":"420222102","level":4,"mergeName":"湖北省,黄石市,阳新县,黄颡口镇","lng":115.34285837850257,"lat":30.01348712724558,"info":"直接查询获得"},{"name":"韦源口镇","code":"420222103","level":4,"mergeName":"湖北省,黄石市,阳新县,韦源口镇","lng":115.2516359929476,"lat":30.138319019851288,"info":"直接查询获得"},{"name":"太子镇","code":"420222104","level":4,"mergeName":"湖北省,黄石市,阳新县,太子镇","lng":115.17024403407999,"lat":30.065791210972474,"info":"直接查询获得"},{"name":"大王镇","code":"420222105","level":4,"mergeName":"湖北省,黄石市,阳新县,大王镇","lng":115.12488346853979,"lat":30.044942922244655,"info":"直接查询获得"},{"name":"陶港镇","code":"420222106","level":4,"mergeName":"湖北省,黄石市,阳新县,陶港镇","lng":115.2739965087046,"lat":29.94228975082771,"info":"直接查询获得"},{"name":"白沙镇","code":"420222107","level":4,"mergeName":"湖北省,黄石市,阳新县,白沙镇","lng":115.10260516147689,"lat":29.95745262503089,"info":"直接查询获得"},{"name":"浮屠镇","code":"420222108","level":4,"mergeName":"湖北省,黄石市,阳新县,浮屠镇","lng":115.09681760455268,"lat":29.907555033278747,"info":"直接查询获得"},{"name":"三溪镇","code":"420222109","level":4,"mergeName":"湖北省,黄石市,阳新县,三溪镇","lng":114.95558107164031,"lat":29.82677962447213,"info":"直接查询获得"},{"name":"龙港镇","code":"420222110","level":4,"mergeName":"湖北省,黄石市,阳新县,龙港镇","lng":114.98749319521065,"lat":29.60825019106563,"info":"直接查询获得"},{"name":"洋港镇","code":"420222111","level":4,"mergeName":"湖北省,黄石市,阳新县,洋港镇","lng":115.15171026950223,"lat":29.579977365009597,"info":"直接查询获得"},{"name":"排市镇","code":"420222112","level":4,"mergeName":"湖北省,黄石市,阳新县,排市镇","lng":115.05538649681849,"lat":29.73079529003828,"info":"直接查询获得"},{"name":"木港镇","code":"420222113","level":4,"mergeName":"湖北省,黄石市,阳新县,木港镇","lng":115.26157923164426,"lat":29.72583257922969,"info":"直接查询获得"},{"name":"枫林镇","code":"420222114","level":4,"mergeName":"湖北省,黄石市,阳新县,枫林镇","lng":115.41047624445156,"lat":29.764341750898737,"info":"直接查询获得"},{"name":"王英镇","code":"420222115","level":4,"mergeName":"湖北省,黄石市,阳新县,王英镇","lng":114.87158492512702,"lat":29.839462819146913,"info":"直接查询获得"},{"name":"率洲农场","code":"420222451","level":4,"mergeName":"湖北省,黄石市,阳新县,率洲农场","lng":115.06943204244567,"lat":29.78706325306082,"info":"直接查询获得"},{"name":"半壁山农场","code":"420222452","level":4,"mergeName":"湖北省,黄石市,阳新县,半壁山农场","lng":115.43352442823566,"lat":29.902224696339545,"info":"直接查询获得"},{"name":"荆头山农场","code":"420222453","level":4,"mergeName":"湖北省,黄石市,阳新县,荆头山农场","lng":115.22142677197253,"lat":29.836541808086142,"info":"直接查询获得"},{"name":"金海开发区","code":"420222455","level":4,"mergeName":"湖北省,黄石市,阳新县,金海开发区","lng":115.21203796742336,"lat":30.085461243018326,"info":"直接查询获得"},{"name":"城东新区","code":"420222456","level":4,"mergeName":"湖北省,黄石市,阳新县,城东新区","lng":115.21741197515811,"lat":29.88029600605699,"info":"直接查询获得"},{"name":"大冶市","code":"420281","level":3,"mergeName":"湖北省,黄石市,大冶市","lng":114.98643626401979,"lat":30.10166780010339,"info":"直接查询获得"},{"name":"东岳路街道","code":"420281001","level":4,"mergeName":"湖北省,黄石市,大冶市,东岳路街道","lng":114.98010267119113,"lat":30.094854156488857,"info":"直接查询获得"},{"name":"东风路街道","code":"420281002","level":4,"mergeName":"湖北省,黄石市,大冶市,东风路街道","lng":114.97646695391077,"lat":30.11351679843803,"info":"直接查询获得"},{"name":"金湖街道","code":"420281003","level":4,"mergeName":"湖北省,黄石市,大冶市,金湖街道","lng":114.93893827034915,"lat":30.066254271847438,"info":"直接查询获得"},{"name":"罗家桥街道","code":"420281004","level":4,"mergeName":"湖北省,黄石市,大冶市,罗家桥街道","lng":114.96990798161949,"lat":30.14797918392391,"info":"直接查询获得"},{"name":"金山街道","code":"420281070","level":4,"mergeName":"湖北省,黄石市,大冶市,金山街道","lng":115.05584851043689,"lat":30.143452050111144,"info":"直接查询获得"},{"name":"金牛镇","code":"420281100","level":4,"mergeName":"湖北省,黄石市,大冶市,金牛镇","lng":114.66670084176775,"lat":29.99301994012295,"info":"直接查询获得"},{"name":"保安镇","code":"420281101","level":4,"mergeName":"湖北省,黄石市,大冶市,保安镇","lng":114.75035995904767,"lat":30.17745074210235,"info":"直接查询获得"},{"name":"灵乡镇","code":"420281102","level":4,"mergeName":"湖北省,黄石市,大冶市,灵乡镇","lng":114.7559080735384,"lat":30.015530403262623,"info":"直接查询获得"},{"name":"金山店镇","code":"420281103","level":4,"mergeName":"湖北省,黄石市,大冶市,金山店镇","lng":114.81675803205488,"lat":30.12924660558988,"info":"直接查询获得"},{"name":"还地桥镇","code":"420281104","level":4,"mergeName":"湖北省,黄石市,大冶市,还地桥镇","lng":114.8410850426723,"lat":30.213547109309907,"info":"直接查询获得"},{"name":"殷祖镇","code":"420281105","level":4,"mergeName":"湖北省,黄石市,大冶市,殷祖镇","lng":114.89860595485823,"lat":29.968178934901648,"info":"直接查询获得"},{"name":"刘仁八镇","code":"420281107","level":4,"mergeName":"湖北省,黄石市,大冶市,刘仁八镇","lng":114.87419055008839,"lat":29.95498791271784,"info":"直接查询获得"},{"name":"陈贵镇","code":"420281108","level":4,"mergeName":"湖北省,黄石市,大冶市,陈贵镇","lng":114.82200997432066,"lat":30.060391068853622,"info":"直接查询获得"},{"name":"大箕铺镇","code":"420281109","level":4,"mergeName":"湖北省,黄石市,大冶市,大箕铺镇","lng":115.05207185441184,"lat":30.007000900325817,"info":"直接查询获得"},{"name":"汪仁镇","code":"420281170","level":4,"mergeName":"湖北省,黄石市,大冶市,汪仁镇","lng":115.13745911686563,"lat":30.160209507971484,"info":"直接查询获得"},{"name":"茗山乡","code":"420281200","level":4,"mergeName":"湖北省,黄石市,大冶市,茗山乡","lng":114.78351973915133,"lat":30.09760822983988,"info":"直接查询获得"},{"name":"东风农场管理区","code":"420281401","level":4,"mergeName":"湖北省,黄石市,大冶市,东风农场管理区","lng":114.74566478563867,"lat":30.303723972175344,"info":"直接查询获得"},{"name":"四顾闸管理处","code":"420281402","level":4,"mergeName":"湖北省,黄石市,大冶市,四顾闸管理处","lng":114.98643626401979,"lat":30.10166780010339,"info":"直接查询获得"},{"name":"十堰市","code":"4203","level":2,"mergeName":"湖北省,十堰市","lng":110.80452956069568,"lat":32.63506185840116,"info":"直接查询获得"},{"name":"茅箭区","code":"420302","level":3,"mergeName":"湖北省,十堰市,茅箭区","lng":110.81958031019317,"lat":32.597286519103754,"info":"直接查询获得"},{"name":"武当路街道","code":"420302001","level":4,"mergeName":"湖北省,十堰市,茅箭区,武当路街道","lng":110.82032096308615,"lat":32.5975570914839,"info":"直接查询获得"},{"name":"二堰街道","code":"420302002","level":4,"mergeName":"湖北省,十堰市,茅箭区,二堰街道","lng":110.80049015030897,"lat":32.650511786763694,"info":"直接查询获得"},{"name":"五堰街道","code":"420302003","level":4,"mergeName":"湖北省,十堰市,茅箭区,五堰街道","lng":110.78586724216657,"lat":32.56767518823908,"info":"直接查询获得"},{"name":"白浪开发区白浪街道","code":"420302004","level":4,"mergeName":"湖北省,十堰市,茅箭区,白浪开发区白浪街道","lng":110.90123556240576,"lat":32.57529987117732,"info":"直接查询获得"},{"name":"大川镇","code":"420302100","level":4,"mergeName":"湖北省,十堰市,茅箭区,大川镇","lng":110.71478641482402,"lat":32.54794217518662,"info":"直接查询获得"},{"name":"茅塔乡","code":"420302201","level":4,"mergeName":"湖北省,十堰市,茅箭区,茅塔乡","lng":110.83270985369646,"lat":32.52191341251249,"info":"直接查询获得"},{"name":"鸳鸯乡","code":"420302202","level":4,"mergeName":"湖北省,十堰市,茅箭区,鸳鸯乡","lng":110.8942724191096,"lat":32.62479314204892,"info":"直接查询获得"},{"name":"张湾区","code":"420303","level":3,"mergeName":"湖北省,十堰市,张湾区","lng":110.77542410285021,"lat":32.65839954547973,"info":"直接查询获得"},{"name":"花果街道","code":"420303001","level":4,"mergeName":"湖北省,十堰市,张湾区,花果街道","lng":110.70353289254777,"lat":32.644550473249176,"info":"直接查询获得"},{"name":"红卫街道","code":"420303002","level":4,"mergeName":"湖北省,十堰市,张湾区,红卫街道","lng":110.74538036489955,"lat":32.65164228958199,"info":"直接查询获得"},{"name":"车城路街道","code":"420303003","level":4,"mergeName":"湖北省,十堰市,张湾区,车城路街道","lng":110.77542410285021,"lat":32.65839954547973,"info":"直接查询获得"},{"name":"汉江路街道","code":"420303004","level":4,"mergeName":"湖北省,十堰市,张湾区,汉江路街道","lng":110.77542410285021,"lat":32.65839954547973,"info":"直接查询获得"},{"name":"黄龙镇","code":"420303100","level":4,"mergeName":"湖北省,十堰市,张湾区,黄龙镇","lng":110.58297131005362,"lat":32.68462685539738,"info":"直接查询获得"},{"name":"柏林镇","code":"420303101","level":4,"mergeName":"湖北省,十堰市,张湾区,柏林镇","lng":110.62625166952436,"lat":32.66487208973446,"info":"直接查询获得"},{"name":"方滩乡","code":"420303200","level":4,"mergeName":"湖北省,十堰市,张湾区,方滩乡","lng":110.61651152254078,"lat":32.741865216216816,"info":"直接查询获得"},{"name":"西沟乡","code":"420303201","level":4,"mergeName":"湖北省,十堰市,张湾区,西沟乡","lng":110.63394125452032,"lat":32.61889518580224,"info":"直接查询获得"},{"name":"西城开发区","code":"420303400","level":4,"mergeName":"湖北省,十堰市,张湾区,西城开发区","lng":110.6576476267592,"lat":32.65469582906029,"info":"直接查询获得"},{"name":"十堰工业新区","code":"420303401","level":4,"mergeName":"湖北省,十堰市,张湾区,十堰工业新区","lng":110.74315301638754,"lat":32.6487088044101,"info":"直接查询获得"},{"name":"郧阳区","code":"420304","level":3,"mergeName":"湖北省,十堰市,郧阳区","lng":110.81857654361632,"lat":32.84059241303827,"info":"直接查询获得"},{"name":"安阳镇","code":"420304101","level":4,"mergeName":"湖北省,十堰市,郧阳区,安阳镇","lng":111.01994681521045,"lat":32.85137738584344,"info":"直接查询获得"},{"name":"杨溪铺镇","code":"420304102","level":4,"mergeName":"湖北省,十堰市,郧阳区,杨溪铺镇","lng":110.87991670655131,"lat":32.83727166933619,"info":"直接查询获得"},{"name":"青曲镇","code":"420304103","level":4,"mergeName":"湖北省,十堰市,郧阳区,青曲镇","lng":110.63863166691013,"lat":32.878303592522315,"info":"直接查询获得"},{"name":"白桑关镇","code":"420304104","level":4,"mergeName":"湖北省,十堰市,郧阳区,白桑关镇","lng":111.00441134005979,"lat":32.96594009297259,"info":"直接查询获得"},{"name":"南化塘镇","code":"420304105","level":4,"mergeName":"湖北省,十堰市,郧阳区,南化塘镇","lng":110.92522570935523,"lat":33.117652466127225,"info":"直接查询获得"},{"name":"白浪镇","code":"420304106","level":4,"mergeName":"湖北省,十堰市,郧阳区,白浪镇","lng":111.00201475078973,"lat":33.239003225508284,"info":"直接查询获得"},{"name":"刘洞镇","code":"420304107","level":4,"mergeName":"湖北省,十堰市,郧阳区,刘洞镇","lng":111.06886359260353,"lat":33.142663710765035,"info":"直接查询获得"},{"name":"谭山镇","code":"420304108","level":4,"mergeName":"湖北省,十堰市,郧阳区,谭山镇","lng":111.1357913954717,"lat":33.03269987008591,"info":"直接查询获得"},{"name":"梅铺镇","code":"420304109","level":4,"mergeName":"湖北省,十堰市,郧阳区,梅铺镇","lng":111.20106595687929,"lat":33.016679298816854,"info":"直接查询获得"},{"name":"青山镇","code":"420304110","level":4,"mergeName":"湖北省,十堰市,郧阳区,青山镇","lng":110.93196075491629,"lat":32.73527014108324,"info":"直接查询获得"},{"name":"茶店镇","code":"420304111","level":4,"mergeName":"湖北省,十堰市,郧阳区,茶店镇","lng":110.82236703354621,"lat":32.794015093727396,"info":"直接查询获得"},{"name":"柳陂镇","code":"420304112","level":4,"mergeName":"湖北省,十堰市,郧阳区,柳陂镇","lng":110.75641577859797,"lat":32.843197607827555,"info":"直接查询获得"},{"name":"鲍峡镇","code":"420304113","level":4,"mergeName":"湖北省,十堰市,郧阳区,鲍峡镇","lng":110.34397703929345,"lat":32.71636914302076,"info":"直接查询获得"},{"name":"胡家营镇","code":"420304114","level":4,"mergeName":"湖北省,十堰市,郧阳区,胡家营镇","lng":110.2731375650821,"lat":32.75915305396214,"info":"直接查询获得"},{"name":"谭家湾镇","code":"420304115","level":4,"mergeName":"湖北省,十堰市,郧阳区,谭家湾镇","lng":110.84204046319805,"lat":32.863985968552434,"info":"直接查询获得"},{"name":"城关镇","code":"420304117","level":4,"mergeName":"湖北省,十堰市,郧阳区,城关镇","lng":110.76176730521597,"lat":32.92324649883369,"info":"直接查询获得"},{"name":"大柳乡","code":"420304200","level":4,"mergeName":"湖北省,十堰市,郧阳区,大柳乡","lng":110.7508325403618,"lat":33.01826178022909,"info":"直接查询获得"},{"name":"五峰乡","code":"420304201","level":4,"mergeName":"湖北省,十堰市,郧阳区,五峰乡","lng":110.38147635365472,"lat":32.83438454453998,"info":"直接查询获得"},{"name":"叶大乡","code":"420304202","level":4,"mergeName":"湖北省,十堰市,郧阳区,叶大乡","lng":110.37820786905667,"lat":32.47979528497616,"info":"直接查询获得"},{"name":"沧浪山林场","code":"420304400","level":4,"mergeName":"湖北省,十堰市,郧阳区,沧浪山林场","lng":110.81857654361632,"lat":32.84059241303827,"info":"直接查询获得"},{"name":"郧西县","code":"420322","level":3,"mergeName":"湖北省,十堰市,郧西县","lng":110.43247261847287,"lat":32.99916700753649,"info":"直接查询获得"},{"name":"城关镇","code":"420322100","level":4,"mergeName":"湖北省,十堰市,郧西县,城关镇","lng":110.43836199922683,"lat":32.99790613790084,"info":"直接查询获得"},{"name":"土门镇","code":"420322101","level":4,"mergeName":"湖北省,十堰市,郧西县,土门镇","lng":110.3511316833582,"lat":33.06135964868934,"info":"直接查询获得"},{"name":"上津镇","code":"420322102","level":4,"mergeName":"湖北省,十堰市,郧西县,上津镇","lng":110.05029033586376,"lat":33.14890882324628,"info":"直接查询获得"},{"name":"店子镇","code":"420322103","level":4,"mergeName":"湖北省,十堰市,郧西县,店子镇","lng":109.87894664458506,"lat":33.12809688999368,"info":"直接查询获得"},{"name":"夹河镇","code":"420322104","level":4,"mergeName":"湖北省,十堰市,郧西县,夹河镇","lng":110.03919222044074,"lat":32.88119647582836,"info":"直接查询获得"},{"name":"羊尾镇","code":"420322105","level":4,"mergeName":"湖北省,十堰市,郧西县,羊尾镇","lng":110.21062403548996,"lat":32.816794076482424,"info":"直接查询获得"},{"name":"观音镇","code":"420322106","level":4,"mergeName":"湖北省,十堰市,郧西县,观音镇","lng":110.38061451934844,"lat":32.90434565878446,"info":"直接查询获得"},{"name":"马鞍镇","code":"420322107","level":4,"mergeName":"湖北省,十堰市,郧西县,马鞍镇","lng":110.43247261847287,"lat":32.99916700753649,"info":"直接查询获得"},{"name":"河夹镇","code":"420322108","level":4,"mergeName":"湖北省,十堰市,郧西县,河夹镇","lng":110.55154058839555,"lat":32.92549813757142,"info":"直接查询获得"},{"name":"香口乡","code":"420322200","level":4,"mergeName":"湖北省,十堰市,郧西县,香口乡","lng":110.23974763910675,"lat":33.126766300476305,"info":"直接查询获得"},{"name":"关防乡","code":"420322201","level":4,"mergeName":"湖北省,十堰市,郧西县,关防乡","lng":109.77353013366694,"lat":33.10995284379738,"info":"直接查询获得"},{"name":"湖北口回族乡","code":"420322202","level":4,"mergeName":"湖北省,十堰市,郧西县,湖北口回族乡","lng":109.58191510058897,"lat":33.20243904244426,"info":"直接查询获得"},{"name":"景阳乡","code":"420322203","level":4,"mergeName":"湖北省,十堰市,郧西县,景阳乡","lng":109.86449914676297,"lat":32.96394375780942,"info":"直接查询获得"},{"name":"六郎乡","code":"420322204","level":4,"mergeName":"湖北省,十堰市,郧西县,六郎乡","lng":110.0557766469354,"lat":33.038004247570846,"info":"直接查询获得"},{"name":"涧池乡","code":"420322205","level":4,"mergeName":"湖北省,十堰市,郧西县,涧池乡","lng":110.34348144414359,"lat":32.87297292701379,"info":"直接查询获得"},{"name":"安家乡","code":"420322206","level":4,"mergeName":"湖北省,十堰市,郧西县,安家乡","lng":110.51851878801821,"lat":33.01731777437007,"info":"直接查询获得"},{"name":"槐树林特场管委会","code":"420322400","level":4,"mergeName":"湖北省,十堰市,郧西县,槐树林特场管委会","lng":110.43247261847287,"lat":32.99916700753649,"info":"直接查询获得"},{"name":"三官洞林区","code":"420322401","level":4,"mergeName":"湖北省,十堰市,郧西县,三官洞林区","lng":110.57533032338576,"lat":33.17056557844157,"info":"直接查询获得"},{"name":"工业园区","code":"420322402","level":4,"mergeName":"湖北省,十堰市,郧西县,工业园区","lng":110.43247261847287,"lat":32.99916700753649,"info":"直接查询获得"},{"name":"竹山县","code":"420323","level":3,"mergeName":"湖北省,十堰市,竹山县","lng":110.23558156764314,"lat":32.2303040603762,"info":"直接查询获得"},{"name":"城关镇","code":"420323100","level":4,"mergeName":"湖北省,十堰市,竹山县,城关镇","lng":110.24718772783207,"lat":32.24457509415837,"info":"直接查询获得"},{"name":"溢水镇","code":"420323101","level":4,"mergeName":"湖北省,十堰市,竹山县,溢水镇","lng":110.10025884934792,"lat":32.27183396713603,"info":"直接查询获得"},{"name":"麻家渡镇","code":"420323102","level":4,"mergeName":"湖北省,十堰市,竹山县,麻家渡镇","lng":110.0460623711505,"lat":32.29708312008349,"info":"直接查询获得"},{"name":"宝丰镇","code":"420323103","level":4,"mergeName":"湖北省,十堰市,竹山县,宝丰镇","lng":110.01289100290575,"lat":32.30657404112229,"info":"直接查询获得"},{"name":"擂鼓镇","code":"420323104","level":4,"mergeName":"湖北省,十堰市,竹山县,擂鼓镇","lng":109.94757925165005,"lat":32.332191890467406,"info":"直接查询获得"},{"name":"秦古镇","code":"420323105","level":4,"mergeName":"湖北省,十堰市,竹山县,秦古镇","lng":109.83858802378552,"lat":32.43105012648442,"info":"直接查询获得"},{"name":"得胜镇","code":"420323106","level":4,"mergeName":"湖北省,十堰市,竹山县,得胜镇","lng":109.8752145445133,"lat":32.49397604793241,"info":"直接查询获得"},{"name":"上庸镇","code":"420323107","level":4,"mergeName":"湖北省,十堰市,竹山县,上庸镇","lng":110.17476053546235,"lat":32.17446182157902,"info":"直接查询获得"},{"name":"官渡镇","code":"420323108","level":4,"mergeName":"湖北省,十堰市,竹山县,官渡镇","lng":110.09708792072826,"lat":32.00363613506759,"info":"直接查询获得"},{"name":"潘口乡","code":"420323200","level":4,"mergeName":"湖北省,十堰市,竹山县,潘口乡","lng":110.2169428062777,"lat":32.23841709140734,"info":"直接查询获得"},{"name":"竹坪乡","code":"420323201","level":4,"mergeName":"湖北省,十堰市,竹山县,竹坪乡","lng":109.72788462561898,"lat":32.46561714004367,"info":"直接查询获得"},{"name":"大庙乡","code":"420323202","level":4,"mergeName":"湖北省,十堰市,竹山县,大庙乡","lng":109.74320908880534,"lat":32.539910968187016,"info":"直接查询获得"},{"name":"双台乡","code":"420323203","level":4,"mergeName":"湖北省,十堰市,竹山县,双台乡","lng":110.24468796008944,"lat":32.46450688805849,"info":"直接查询获得"},{"name":"楼台乡","code":"420323204","level":4,"mergeName":"湖北省,十堰市,竹山县,楼台乡","lng":110.33312936066693,"lat":32.36824867728289,"info":"直接查询获得"},{"name":"文峰乡","code":"420323205","level":4,"mergeName":"湖北省,十堰市,竹山县,文峰乡","lng":110.30178120406491,"lat":32.20195428967855,"info":"直接查询获得"},{"name":"深河乡","code":"420323206","level":4,"mergeName":"湖北省,十堰市,竹山县,深河乡","lng":110.27299830886362,"lat":32.110382304534525,"info":"直接查询获得"},{"name":"柳林乡","code":"420323207","level":4,"mergeName":"湖北省,十堰市,竹山县,柳林乡","lng":110.06496316823319,"lat":31.72524091269371,"info":"直接查询获得"},{"name":"竹溪县","code":"420324","level":3,"mergeName":"湖北省,十堰市,竹溪县","lng":109.72154249888798,"lat":32.32412004885334,"info":"直接查询获得"},{"name":"城关镇","code":"420324100","level":4,"mergeName":"湖北省,十堰市,竹溪县,城关镇","lng":109.71668366140152,"lat":32.33505927357811,"info":"直接查询获得"},{"name":"蒋家堰镇","code":"420324101","level":4,"mergeName":"湖北省,十堰市,竹溪县,蒋家堰镇","lng":109.59495589150787,"lat":32.33077076694751,"info":"直接查询获得"},{"name":"中峰镇","code":"420324102","level":4,"mergeName":"湖北省,十堰市,竹溪县,中峰镇","lng":109.59495589150787,"lat":32.33077076694751,"info":"直接查询获得"},{"name":"水坪镇","code":"420324103","level":4,"mergeName":"湖北省,十堰市,竹溪县,水坪镇","lng":109.82303467235522,"lat":32.30759805938908,"info":"直接查询获得"},{"name":"县河镇","code":"420324104","level":4,"mergeName":"湖北省,十堰市,竹溪县,县河镇","lng":109.90661014242593,"lat":32.31618266003876,"info":"直接查询获得"},{"name":"泉溪镇","code":"420324105","level":4,"mergeName":"湖北省,十堰市,竹溪县,泉溪镇","lng":109.70504853175817,"lat":32.03856167139816,"info":"直接查询获得"},{"name":"丰溪镇","code":"420324106","level":4,"mergeName":"湖北省,十堰市,竹溪县,丰溪镇","lng":109.73249111740972,"lat":31.854959571964297,"info":"直接查询获得"},{"name":"龙坝镇","code":"420324107","level":4,"mergeName":"湖北省,十堰市,竹溪县,龙坝镇","lng":109.66046544963687,"lat":32.359911953300106,"info":"直接查询获得"},{"name":"兵营镇","code":"420324108","level":4,"mergeName":"湖北省,十堰市,竹溪县,兵营镇","lng":109.94963852720112,"lat":32.12892891031567,"info":"直接查询获得"},{"name":"汇湾镇","code":"420324109","level":4,"mergeName":"湖北省,十堰市,竹溪县,汇湾镇","lng":109.82283219429326,"lat":32.146523867757146,"info":"直接查询获得"},{"name":"新洲镇","code":"420324110","level":4,"mergeName":"湖北省,十堰市,竹溪县,新洲镇","lng":109.98358531276207,"lat":32.184532943459516,"info":"直接查询获得"},{"name":"鄂坪乡","code":"420324203","level":4,"mergeName":"湖北省,十堰市,竹溪县,鄂坪乡","lng":109.72919669064686,"lat":32.20130441849385,"info":"直接查询获得"},{"name":"天宝乡","code":"420324205","level":4,"mergeName":"湖北省,十堰市,竹溪县,天宝乡","lng":109.85708027152228,"lat":32.01586868580831,"info":"直接查询获得"},{"name":"桃源乡","code":"420324206","level":4,"mergeName":"湖北省,十堰市,竹溪县,桃源乡","lng":109.83206479866372,"lat":31.73933743371234,"info":"直接查询获得"},{"name":"向坝乡","code":"420324207","level":4,"mergeName":"湖北省,十堰市,竹溪县,向坝乡","lng":109.93590469358126,"lat":31.710624308837076,"info":"直接查询获得"},{"name":"龙王垭茶场","code":"420324500","level":4,"mergeName":"湖北省,十堰市,竹溪县,龙王垭茶场","lng":109.97610664989986,"lat":32.0242162808353,"info":"直接查询获得"},{"name":"国营竹溪综合农场","code":"420324501","level":4,"mergeName":"湖北省,十堰市,竹溪县,国营竹溪综合农场","lng":109.71775003268597,"lat":32.3197145689879,"info":"直接查询获得"},{"name":"原种场","code":"420324502","level":4,"mergeName":"湖北省,十堰市,竹溪县,原种场","lng":109.72154249888798,"lat":32.32412004885334,"info":"直接查询获得"},{"name":"渔种场","code":"420324503","level":4,"mergeName":"湖北省,十堰市,竹溪县,渔种场","lng":109.72154249888798,"lat":32.32412004885334,"info":"直接查询获得"},{"name":"种畜场","code":"420324504","level":4,"mergeName":"湖北省,十堰市,竹溪县,种畜场","lng":109.72154249888798,"lat":32.32412004885334,"info":"直接查询获得"},{"name":"王家山茶场","code":"420324505","level":4,"mergeName":"湖北省,十堰市,竹溪县,王家山茶场","lng":109.83192232740983,"lat":31.920965261826716,"info":"直接查询获得"},{"name":"标湖林场","code":"420324506","level":4,"mergeName":"湖北省,十堰市,竹溪县,标湖林场","lng":109.69114258280261,"lat":32.27174527863789,"info":"直接查询获得"},{"name":"双竹林场","code":"420324507","level":4,"mergeName":"湖北省,十堰市,竹溪县,双竹林场","lng":109.72154249888798,"lat":32.32412004885334,"info":"直接查询获得"},{"name":"房县","code":"420325","level":3,"mergeName":"湖北省,十堰市,房县","lng":110.74746155910506,"lat":32.06168496454368,"info":"直接查询获得"},{"name":"城关镇","code":"420325100","level":4,"mergeName":"湖北省,十堰市,房县,城关镇","lng":110.75343715922187,"lat":32.04517628842222,"info":"直接查询获得"},{"name":"军店镇","code":"420325101","level":4,"mergeName":"湖北省,十堰市,房县,军店镇","lng":110.63019082901617,"lat":32.06207382312649,"info":"直接查询获得"},{"name":"化龙堰镇","code":"420325102","level":4,"mergeName":"湖北省,十堰市,房县,化龙堰镇","lng":110.56141916425824,"lat":32.062821470399946,"info":"直接查询获得"},{"name":"土城镇","code":"420325103","level":4,"mergeName":"湖北省,十堰市,房县,土城镇","lng":110.69896599716559,"lat":32.26439497239055,"info":"直接查询获得"},{"name":"大木厂镇","code":"420325104","level":4,"mergeName":"湖北省,十堰市,房县,大木厂镇","lng":110.54876581250579,"lat":32.3759771824412,"info":"直接查询获得"},{"name":"青峰镇","code":"420325105","level":4,"mergeName":"湖北省,十堰市,房县,青峰镇","lng":110.97911604503486,"lat":32.04524549908349,"info":"直接查询获得"},{"name":"门古寺镇","code":"420325106","level":4,"mergeName":"湖北省,十堰市,房县,门古寺镇","lng":110.46203360704247,"lat":32.01132351358201,"info":"直接查询获得"},{"name":"白鹤镇","code":"420325107","level":4,"mergeName":"湖北省,十堰市,房县,白鹤镇","lng":110.78988313850826,"lat":32.11089921407508,"info":"直接查询获得"},{"name":"野人谷镇","code":"420325108","level":4,"mergeName":"湖北省,十堰市,房县,野人谷镇","lng":110.74336977750711,"lat":31.939728928541196,"info":"直接查询获得"},{"name":"红塔镇","code":"420325109","level":4,"mergeName":"湖北省,十堰市,房县,红塔镇","lng":110.71746668897413,"lat":32.06399376400539,"info":"直接查询获得"},{"name":"窑淮镇","code":"420325110","level":4,"mergeName":"湖北省,十堰市,房县,窑淮镇","lng":110.44602580285466,"lat":32.13734741830175,"info":"直接查询获得"},{"name":"尹吉甫镇","code":"420325111","level":4,"mergeName":"湖北省,十堰市,房县,尹吉甫镇","lng":111.04728620442332,"lat":32.040721923340286,"info":"直接查询获得"},{"name":"姚坪乡","code":"420325203","level":4,"mergeName":"湖北省,十堰市,房县,姚坪乡","lng":110.42900596767932,"lat":32.35447263691392,"info":"直接查询获得"},{"name":"沙河乡","code":"420325205","level":4,"mergeName":"湖北省,十堰市,房县,沙河乡","lng":111.10153550298475,"lat":32.13683306560893,"info":"直接查询获得"},{"name":"万峪河乡","code":"420325206","level":4,"mergeName":"湖北省,十堰市,房县,万峪河乡","lng":111.02411737820161,"lat":32.18418410936644,"info":"直接查询获得"},{"name":"上龛乡","code":"420325208","level":4,"mergeName":"湖北省,十堰市,房县,上龛乡","lng":110.3590122481056,"lat":31.815429290908103,"info":"直接查询获得"},{"name":"中坝乡","code":"420325209","level":4,"mergeName":"湖北省,十堰市,房县,中坝乡","lng":110.2516350955814,"lat":32.01436105274041,"info":"直接查询获得"},{"name":"九道乡","code":"420325210","level":4,"mergeName":"湖北省,十堰市,房县,九道乡","lng":110.15308541164266,"lat":31.693201694192304,"info":"直接查询获得"},{"name":"回龙乡","code":"420325211","level":4,"mergeName":"湖北省,十堰市,房县,回龙乡","lng":110.74746155910506,"lat":32.06168496454368,"info":"直接查询获得"},{"name":"五台乡","code":"420325212","level":4,"mergeName":"湖北省,十堰市,房县,五台乡","lng":110.74746155910506,"lat":32.06168496454368,"info":"直接查询获得"},{"name":"丹江口市","code":"420381","level":3,"mergeName":"湖北省,十堰市,丹江口市","lng":111.5195320584795,"lat":32.54625268850125,"info":"直接查询获得"},{"name":"均州路街道","code":"420381001","level":4,"mergeName":"湖北省,十堰市,丹江口市,均州路街道","lng":111.547128682865,"lat":32.541875306149535,"info":"直接查询获得"},{"name":"大坝路街道","code":"420381002","level":4,"mergeName":"湖北省,十堰市,丹江口市,大坝路街道","lng":111.5195320584795,"lat":32.54625268850125,"info":"直接查询获得"},{"name":"丹赵路街道","code":"420381003","level":4,"mergeName":"湖北省,十堰市,丹江口市,丹赵路街道","lng":111.55626943639534,"lat":32.59332490203328,"info":"直接查询获得"},{"name":"三官殿街道","code":"420381005","level":4,"mergeName":"湖北省,十堰市,丹江口市,三官殿街道","lng":111.49847299257853,"lat":32.51773665618286,"info":"直接查询获得"},{"name":"土关垭镇","code":"420381100","level":4,"mergeName":"湖北省,十堰市,丹江口市,土关垭镇","lng":111.39184064042385,"lat":32.45061850580501,"info":"直接查询获得"},{"name":"浪河镇","code":"420381101","level":4,"mergeName":"湖北省,十堰市,丹江口市,浪河镇","lng":111.27365003022156,"lat":32.422373898357534,"info":"直接查询获得"},{"name":"丁家营镇","code":"420381102","level":4,"mergeName":"湖北省,十堰市,丹江口市,丁家营镇","lng":111.22703228612015,"lat":32.47271487112043,"info":"直接查询获得"},{"name":"六里坪镇","code":"420381103","level":4,"mergeName":"湖北省,十堰市,丹江口市,六里坪镇","lng":110.98504387326466,"lat":32.54546028353411,"info":"直接查询获得"},{"name":"盐池河镇","code":"420381104","level":4,"mergeName":"湖北省,十堰市,丹江口市,盐池河镇","lng":111.06356655450284,"lat":32.334294245498654,"info":"直接查询获得"},{"name":"均县镇","code":"420381105","level":4,"mergeName":"湖北省,十堰市,丹江口市,均县镇","lng":111.08630877543787,"lat":32.6837037222704,"info":"直接查询获得"},{"name":"习家店镇","code":"420381106","level":4,"mergeName":"湖北省,十堰市,丹江口市,习家店镇","lng":111.19003539403062,"lat":32.7536786766247,"info":"直接查询获得"},{"name":"蒿坪镇","code":"420381107","level":4,"mergeName":"湖北省,十堰市,丹江口市,蒿坪镇","lng":111.26969892326647,"lat":32.75042851949301,"info":"直接查询获得"},{"name":"石鼓镇","code":"420381108","level":4,"mergeName":"湖北省,十堰市,丹江口市,石鼓镇","lng":111.39985297131837,"lat":32.7096100865103,"info":"直接查询获得"},{"name":"凉水河镇","code":"420381109","level":4,"mergeName":"湖北省,十堰市,丹江口市,凉水河镇","lng":111.37481602895812,"lat":32.66201207003642,"info":"直接查询获得"},{"name":"官山镇","code":"420381110","level":4,"mergeName":"湖北省,十堰市,丹江口市,官山镇","lng":110.88292603000973,"lat":32.381581832799974,"info":"直接查询获得"},{"name":"龙山镇","code":"420381111","level":4,"mergeName":"湖北省,十堰市,丹江口市,龙山镇","lng":111.266419120019,"lat":32.588025876092864,"info":"直接查询获得"},{"name":"新港经济开发管理处","code":"420381400","level":4,"mergeName":"湖北省,十堰市,丹江口市,新港经济开发管理处","lng":111.52642529564088,"lat":32.52293481409386,"info":"直接查询获得"},{"name":"牛河林业开发管理区","code":"420381401","level":4,"mergeName":"湖北省,十堰市,丹江口市,牛河林业开发管理区","lng":111.38589420199881,"lat":32.509569966636114,"info":"直接查询获得"},{"name":"白杨坪林业开发管理区","code":"420381402","level":4,"mergeName":"湖北省,十堰市,丹江口市,白杨坪林业开发管理区","lng":111.51832329858527,"lat":32.54174271883307,"info":"直接查询获得"},{"name":"大沟林业开发管理区","code":"420381403","level":4,"mergeName":"湖北省,十堰市,丹江口市,大沟林业开发管理区","lng":111.51832329858527,"lat":32.54174271883307,"info":"直接查询获得"},{"name":"武当山特区","code":"420381450","level":4,"mergeName":"湖北省,十堰市,丹江口市,武当山特区","lng":111.08541002077513,"lat":32.52045610637187,"info":"直接查询获得"},{"name":"宜昌市","code":"4205","level":2,"mergeName":"湖北省,宜昌市","lng":111.29254921035434,"lat":30.697446484492378,"info":"直接查询获得"},{"name":"西陵区","code":"420502","level":3,"mergeName":"湖北省,宜昌市,西陵区","lng":111.29255972052881,"lat":30.716749346598352,"info":"直接查询获得"},{"name":"西陵街道","code":"420502001","level":4,"mergeName":"湖北省,宜昌市,西陵区,西陵街道","lng":111.30782601663678,"lat":30.715607905510236,"info":"直接查询获得"},{"name":"学院街道","code":"420502002","level":4,"mergeName":"湖北省,宜昌市,西陵区,学院街道","lng":111.28542519850745,"lat":30.706835411308717,"info":"直接查询获得"},{"name":"云集街道","code":"420502003","level":4,"mergeName":"湖北省,宜昌市,西陵区,云集街道","lng":111.31580616034655,"lat":30.699590663277775,"info":"直接查询获得"},{"name":"西坝街道","code":"420502004","level":4,"mergeName":"湖北省,宜昌市,西陵区,西坝街道","lng":111.28413765722,"lat":30.728581103601634,"info":"直接查询获得"},{"name":"葛洲坝街道","code":"420502005","level":4,"mergeName":"湖北省,宜昌市,西陵区,葛洲坝街道","lng":111.29437438748951,"lat":30.722125772354083,"info":"直接查询获得"},{"name":"夜明珠街道","code":"420502006","level":4,"mergeName":"湖北省,宜昌市,西陵区,夜明珠街道","lng":111.31576402981814,"lat":30.748231564352256,"info":"直接查询获得"},{"name":"东苑街道","code":"420502007","level":4,"mergeName":"湖北省,宜昌市,西陵区,东苑街道","lng":111.29255972052881,"lat":30.716749346598352,"info":"直接查询获得"},{"name":"南苑街道","code":"420502008","level":4,"mergeName":"湖北省,宜昌市,西陵区,南苑街道","lng":111.29255972052881,"lat":30.716749346598352,"info":"直接查询获得"},{"name":"北苑街道","code":"420502009","level":4,"mergeName":"湖北省,宜昌市,西陵区,北苑街道","lng":111.29255972052881,"lat":30.716749346598352,"info":"直接查询获得"},{"name":"窑湾街道","code":"420502010","level":4,"mergeName":"湖北省,宜昌市,西陵区,窑湾街道","lng":111.35248675906604,"lat":30.73798124753701,"info":"直接查询获得"},{"name":"伍家岗区","code":"420503","level":3,"mergeName":"湖北省,宜昌市,伍家岗区","lng":111.3674222559666,"lat":30.650737335260395,"info":"直接查询获得"},{"name":"大公桥街道","code":"420503001","level":4,"mergeName":"湖北省,宜昌市,伍家岗区,大公桥街道","lng":111.30996528809014,"lat":30.689522154180978,"info":"直接查询获得"},{"name":"万寿桥街道","code":"420503002","level":4,"mergeName":"湖北省,宜昌市,伍家岗区,万寿桥街道","lng":111.31538099234868,"lat":30.689592883002494,"info":"直接查询获得"},{"name":"宝塔河街道","code":"420503003","level":4,"mergeName":"湖北省,宜昌市,伍家岗区,宝塔河街道","lng":111.33698227545547,"lat":30.670376244005553,"info":"直接查询获得"},{"name":"伍家岗街道","code":"420503004","level":4,"mergeName":"湖北省,宜昌市,伍家岗区,伍家岗街道","lng":111.35180005570709,"lat":30.65075460522291,"info":"直接查询获得"},{"name":"伍家乡","code":"420503201","level":4,"mergeName":"湖北省,宜昌市,伍家岗区,伍家乡","lng":111.39295542229056,"lat":30.678684731368126,"info":"直接查询获得"},{"name":"点军区","code":"420504","level":3,"mergeName":"湖北省,宜昌市,点军区","lng":111.27447135094933,"lat":30.699329513880368,"info":"直接查询获得"},{"name":"点军街道","code":"420504001","level":4,"mergeName":"湖北省,宜昌市,点军区,点军街道","lng":111.2747656358344,"lat":30.69944005996687,"info":"直接查询获得"},{"name":"艾家镇","code":"420504101","level":4,"mergeName":"湖北省,宜昌市,点军区,艾家镇","lng":111.35742573259046,"lat":30.62814227894552,"info":"直接查询获得"},{"name":"桥边镇","code":"420504102","level":4,"mergeName":"湖北省,宜昌市,点军区,桥边镇","lng":111.16780924961108,"lat":30.667663975950862,"info":"直接查询获得"},{"name":"联棚乡","code":"420504201","level":4,"mergeName":"湖北省,宜昌市,点军区,联棚乡","lng":111.27720363698847,"lat":30.655160705030298,"info":"直接查询获得"},{"name":"土城乡","code":"420504202","level":4,"mergeName":"湖北省,宜昌市,点军区,土城乡","lng":111.07615627029298,"lat":30.684519958304666,"info":"直接查询获得"},{"name":"猇亭区","code":"420505","level":3,"mergeName":"湖北省,宜昌市,猇亭区","lng":111.44157378259324,"lat":30.53646598270678,"info":"直接查询获得"},{"name":"古老背街道","code":"420505001","level":4,"mergeName":"湖北省,宜昌市,猇亭区,古老背街道","lng":111.43527782876544,"lat":30.53402676790121,"info":"直接查询获得"},{"name":"虎牙街道","code":"420505002","level":4,"mergeName":"湖北省,宜昌市,猇亭区,虎牙街道","lng":111.45129677194157,"lat":30.607830020724997,"info":"直接查询获得"},{"name":"云池街道","code":"420505003","level":4,"mergeName":"湖北省,宜昌市,猇亭区,云池街道","lng":111.4533918898825,"lat":30.52552982009181,"info":"直接查询获得"},{"name":"夷陵区","code":"420506","level":3,"mergeName":"湖北省,宜昌市,夷陵区","lng":111.33252973436471,"lat":30.774833327298143,"info":"直接查询获得"},{"name":"小溪塔街道","code":"420506001","level":4,"mergeName":"湖北省,宜昌市,夷陵区,小溪塔街道","lng":111.32661484173427,"lat":30.77435076741282,"info":"直接查询获得"},{"name":"樟村坪镇","code":"420506101","level":4,"mergeName":"湖北省,宜昌市,夷陵区,樟村坪镇","lng":111.14228003583138,"lat":31.30601887824437,"info":"直接查询获得"},{"name":"雾渡河镇","code":"420506102","level":4,"mergeName":"湖北省,宜昌市,夷陵区,雾渡河镇","lng":111.21720581197705,"lat":31.11399728412054,"info":"直接查询获得"},{"name":"分乡镇","code":"420506103","level":4,"mergeName":"湖北省,宜昌市,夷陵区,分乡镇","lng":111.43814701656432,"lat":30.914988861734116,"info":"直接查询获得"},{"name":"太平溪镇","code":"420506104","level":4,"mergeName":"湖北省,宜昌市,夷陵区,太平溪镇","lng":111.02174719911355,"lat":30.847750941429435,"info":"直接查询获得"},{"name":"三斗坪镇","code":"420506105","level":4,"mergeName":"湖北省,宜昌市,夷陵区,三斗坪镇","lng":111.079803965579,"lat":30.83931881128603,"info":"直接查询获得"},{"name":"乐天溪镇","code":"420506106","level":4,"mergeName":"湖北省,宜昌市,夷陵区,乐天溪镇","lng":111.07526644478702,"lat":30.84900039227589,"info":"直接查询获得"},{"name":"龙泉镇","code":"420506107","level":4,"mergeName":"湖北省,宜昌市,夷陵区,龙泉镇","lng":111.49869999438091,"lat":30.73003785246506,"info":"直接查询获得"},{"name":"鸦鹊岭镇","code":"420506108","level":4,"mergeName":"湖北省,宜昌市,夷陵区,鸦鹊岭镇","lng":111.60525492787183,"lat":30.646418620612682,"info":"直接查询获得"},{"name":"黄花镇","code":"420506109","level":4,"mergeName":"湖北省,宜昌市,夷陵区,黄花镇","lng":111.39407399231158,"lat":30.86445687885328,"info":"直接查询获得"},{"name":"下堡坪乡","code":"420506201","level":4,"mergeName":"湖北省,宜昌市,夷陵区,下堡坪乡","lng":111.17415119668098,"lat":31.039740685602244,"info":"直接查询获得"},{"name":"邓村乡","code":"420506202","level":4,"mergeName":"湖北省,宜昌市,夷陵区,邓村乡","lng":110.98161324452205,"lat":30.98868301947411,"info":"直接查询获得"},{"name":"三峡坝区","code":"420506401","level":4,"mergeName":"湖北省,宜昌市,夷陵区,三峡坝区","lng":111.06604363194661,"lat":30.846797100210487,"info":"直接查询获得"},{"name":"东城城乡统筹发展试验区","code":"420506402","level":4,"mergeName":"湖北省,宜昌市,夷陵区,东城城乡统筹发展试验区","lng":111.3705700083041,"lat":30.796790821851786,"info":"直接查询获得"},{"name":"远安县","code":"420525","level":3,"mergeName":"湖北省,宜昌市,远安县","lng":111.64653035927485,"lat":31.06662784157842,"info":"直接查询获得"},{"name":"鸣凤镇","code":"420525101","level":4,"mergeName":"湖北省,宜昌市,远安县,鸣凤镇","lng":111.64689004080103,"lat":31.06714355855474,"info":"直接查询获得"},{"name":"花林寺镇","code":"420525102","level":4,"mergeName":"湖北省,宜昌市,远安县,花林寺镇","lng":111.64207467411481,"lat":30.918660387388957,"info":"直接查询获得"},{"name":"旧县镇","code":"420525103","level":4,"mergeName":"湖北省,宜昌市,远安县,旧县镇","lng":111.62050537068416,"lat":31.129862012342073,"info":"直接查询获得"},{"name":"洋坪镇","code":"420525104","level":4,"mergeName":"湖北省,宜昌市,远安县,洋坪镇","lng":111.56036803882704,"lat":31.226071885276024,"info":"直接查询获得"},{"name":"茅坪场镇","code":"420525105","level":4,"mergeName":"湖北省,宜昌市,远安县,茅坪场镇","lng":111.68950942707752,"lat":31.150047285146044,"info":"直接查询获得"},{"name":"嫘祖镇","code":"420525106","level":4,"mergeName":"湖北省,宜昌市,远安县,嫘祖镇","lng":111.42200958689142,"lat":31.186331515714443,"info":"直接查询获得"},{"name":"河口乡","code":"420525201","level":4,"mergeName":"湖北省,宜昌市,远安县,河口乡","lng":111.66143809134867,"lat":31.298150118339258,"info":"直接查询获得"},{"name":"兴山县","code":"420526","level":3,"mergeName":"湖北省,宜昌市,兴山县","lng":110.75344607041252,"lat":31.35446351771565,"info":"直接查询获得"},{"name":"古夫镇","code":"420526101","level":4,"mergeName":"湖北省,宜昌市,兴山县,古夫镇","lng":110.76257303405501,"lat":31.347455853948308,"info":"直接查询获得"},{"name":"昭君镇","code":"420526102","level":4,"mergeName":"湖北省,宜昌市,兴山县,昭君镇","lng":110.76731563799494,"lat":31.236467218635106,"info":"直接查询获得"},{"name":"峡口镇","code":"420526103","level":4,"mergeName":"湖北省,宜昌市,兴山县,峡口镇","lng":110.7895186061323,"lat":31.12328945928238,"info":"直接查询获得"},{"name":"南阳镇","code":"420526104","level":4,"mergeName":"湖北省,宜昌市,兴山县,南阳镇","lng":110.68385452221564,"lat":31.314722517290466,"info":"直接查询获得"},{"name":"黄粮镇","code":"420526105","level":4,"mergeName":"湖北省,宜昌市,兴山县,黄粮镇","lng":110.86985406788963,"lat":31.342958706045497,"info":"直接查询获得"},{"name":"水月寺镇","code":"420526106","level":4,"mergeName":"湖北省,宜昌市,兴山县,水月寺镇","lng":111.02691299477922,"lat":31.24322472755672,"info":"直接查询获得"},{"name":"高桥乡","code":"420526201","level":4,"mergeName":"湖北省,宜昌市,兴山县,高桥乡","lng":110.55571294799776,"lat":31.22650852440095,"info":"直接查询获得"},{"name":"榛子乡","code":"420526202","level":4,"mergeName":"湖北省,宜昌市,兴山县,榛子乡","lng":110.99108318120825,"lat":31.45508426410148,"info":"直接查询获得"},{"name":"秭归县","code":"420527","level":3,"mergeName":"湖北省,宜昌市,秭归县","lng":110.98444937467816,"lat":30.83193164321606,"info":"直接查询获得"},{"name":"茅坪镇","code":"420527101","level":4,"mergeName":"湖北省,宜昌市,秭归县,茅坪镇","lng":110.97972895888432,"lat":30.829062869686425,"info":"直接查询获得"},{"name":"归州镇","code":"420527102","level":4,"mergeName":"湖北省,宜昌市,秭归县,归州镇","lng":110.77277508973182,"lat":31.079360948348864,"info":"直接查询获得"},{"name":"屈原镇","code":"420527103","level":4,"mergeName":"湖北省,宜昌市,秭归县,屈原镇","lng":110.83058392387655,"lat":31.081324088624754,"info":"直接查询获得"},{"name":"沙镇溪镇","code":"420527104","level":4,"mergeName":"湖北省,宜昌市,秭归县,沙镇溪镇","lng":110.62115109083871,"lat":30.96965115672846,"info":"直接查询获得"},{"name":"两河口镇","code":"420527105","level":4,"mergeName":"湖北省,宜昌市,秭归县,两河口镇","lng":110.56000595002995,"lat":30.876235265178426,"info":"直接查询获得"},{"name":"郭家坝镇","code":"420527106","level":4,"mergeName":"湖北省,宜昌市,秭归县,郭家坝镇","lng":110.76293145795348,"lat":30.95898466555871,"info":"直接查询获得"},{"name":"杨林桥镇","code":"420527107","level":4,"mergeName":"湖北省,宜昌市,秭归县,杨林桥镇","lng":110.77250155570404,"lat":30.754220855322856,"info":"直接查询获得"},{"name":"九畹溪镇","code":"420527108","level":4,"mergeName":"湖北省,宜昌市,秭归县,九畹溪镇","lng":110.79366716063849,"lat":30.846787953953836,"info":"直接查询获得"},{"name":"水田坝乡","code":"420527201","level":4,"mergeName":"湖北省,宜昌市,秭归县,水田坝乡","lng":110.68812928864597,"lat":31.0704866413997,"info":"直接查询获得"},{"name":"泄滩乡","code":"420527202","level":4,"mergeName":"湖北省,宜昌市,秭归县,泄滩乡","lng":110.61861427607855,"lat":31.00960085758122,"info":"直接查询获得"},{"name":"梅家河乡","code":"420527203","level":4,"mergeName":"湖北省,宜昌市,秭归县,梅家河乡","lng":110.50306146544693,"lat":30.926898514916367,"info":"直接查询获得"},{"name":"磨坪乡","code":"420527204","level":4,"mergeName":"湖北省,宜昌市,秭归县,磨坪乡","lng":110.44133925317854,"lat":30.81697523836744,"info":"直接查询获得"},{"name":"长阳土家族自治县","code":"420528","level":3,"mergeName":"湖北省,宜昌市,长阳土家族自治县","lng":111.21350712887026,"lat":30.478645783055725,"info":"直接查询获得"},{"name":"龙舟坪镇","code":"420528101","level":4,"mergeName":"湖北省,宜昌市,长阳土家族自治县,龙舟坪镇","lng":111.17342204209854,"lat":30.497896643125284,"info":"直接查询获得"},{"name":"高家堰镇","code":"420528102","level":4,"mergeName":"湖北省,宜昌市,长阳土家族自治县,高家堰镇","lng":111.06105731772182,"lat":30.60500144039349,"info":"直接查询获得"},{"name":"磨市镇","code":"420528103","level":4,"mergeName":"湖北省,宜昌市,长阳土家族自治县,磨市镇","lng":111.27470877309561,"lat":30.38746613590563,"info":"直接查询获得"},{"name":"都镇湾镇","code":"420528104","level":4,"mergeName":"湖北省,宜昌市,长阳土家族自治县,都镇湾镇","lng":110.96971303210917,"lat":30.41531525541692,"info":"直接查询获得"},{"name":"资丘镇","code":"420528105","level":4,"mergeName":"湖北省,宜昌市,长阳土家族自治县,资丘镇","lng":110.70952000894123,"lat":30.463087927192923,"info":"直接查询获得"},{"name":"渔峡口镇","code":"420528106","level":4,"mergeName":"湖北省,宜昌市,长阳土家族自治县,渔峡口镇","lng":110.51319704651601,"lat":30.423126998713222,"info":"直接查询获得"},{"name":"榔坪镇","code":"420528107","level":4,"mergeName":"湖北省,宜昌市,长阳土家族自治县,榔坪镇","lng":110.5106038181698,"lat":30.61712930055207,"info":"直接查询获得"},{"name":"贺家坪镇","code":"420528108","level":4,"mergeName":"湖北省,宜昌市,长阳土家族自治县,贺家坪镇","lng":110.83815232745921,"lat":30.612617459819354,"info":"直接查询获得"},{"name":"大堰乡","code":"420528201","level":4,"mergeName":"湖北省,宜昌市,长阳土家族自治县,大堰乡","lng":111.09504874906665,"lat":30.342629976692237,"info":"直接查询获得"},{"name":"鸭子口乡","code":"420528202","level":4,"mergeName":"湖北省,宜昌市,长阳土家族自治县,鸭子口乡","lng":110.94526358155245,"lat":30.447463114121728,"info":"直接查询获得"},{"name":"火烧坪乡","code":"420528203","level":4,"mergeName":"湖北省,宜昌市,长阳土家族自治县,火烧坪乡","lng":110.73827988865703,"lat":30.51010570142996,"info":"直接查询获得"},{"name":"五峰土家族自治县","code":"420529","level":3,"mergeName":"湖北省,宜昌市,五峰土家族自治县","lng":111.05258063743803,"lat":30.171156151026448,"info":"直接查询获得"},{"name":"渔洋关镇","code":"420529111","level":4,"mergeName":"湖北省,宜昌市,五峰土家族自治县,渔洋关镇","lng":111.08306589254686,"lat":30.178554618718834,"info":"直接查询获得"},{"name":"仁和坪镇","code":"420529112","level":4,"mergeName":"湖北省,宜昌市,五峰土家族自治县,仁和坪镇","lng":111.25263857451263,"lat":30.107911023269136,"info":"直接查询获得"},{"name":"长乐坪镇","code":"420529113","level":4,"mergeName":"湖北省,宜昌市,五峰土家族自治县,长乐坪镇","lng":110.87909502650132,"lat":30.17714196974036,"info":"直接查询获得"},{"name":"五峰镇","code":"420529114","level":4,"mergeName":"湖北省,宜昌市,五峰土家族自治县,五峰镇","lng":110.64133225174783,"lat":30.187237756681633,"info":"直接查询获得"},{"name":"湾潭镇","code":"420529115","level":4,"mergeName":"湖北省,宜昌市,五峰土家族自治县,湾潭镇","lng":110.43775833792411,"lat":30.055032595355026,"info":"直接查询获得"},{"name":"付家堰乡","code":"420529201","level":4,"mergeName":"湖北省,宜昌市,五峰土家族自治县,付家堰乡","lng":111.05258063743803,"lat":30.171156151026448,"info":"直接查询获得"},{"name":"牛庄乡","code":"420529202","level":4,"mergeName":"湖北省,宜昌市,五峰土家族自治县,牛庄乡","lng":110.35852268328064,"lat":30.238278638527667,"info":"直接查询获得"},{"name":"采花乡","code":"420529203","level":4,"mergeName":"湖北省,宜昌市,五峰土家族自治县,采花乡","lng":110.46230920717292,"lat":30.217342680620735,"info":"直接查询获得"},{"name":"宜都市","code":"420581","level":3,"mergeName":"湖北省,宜昌市,宜都市","lng":111.456515837124,"lat":30.38440427431352,"info":"直接查询获得"},{"name":"陆城街道","code":"420581001","level":4,"mergeName":"湖北省,宜昌市,宜都市,陆城街道","lng":111.4643222916668,"lat":30.391218464540607,"info":"直接查询获得"},{"name":"红花套镇","code":"420581100","level":4,"mergeName":"湖北省,宜昌市,宜都市,红花套镇","lng":111.40922310626239,"lat":30.520173542111074,"info":"直接查询获得"},{"name":"高坝洲镇","code":"420581101","level":4,"mergeName":"湖北省,宜昌市,宜都市,高坝洲镇","lng":111.38626547076778,"lat":30.442529846941184,"info":"直接查询获得"},{"name":"聂家河镇","code":"420581102","level":4,"mergeName":"湖北省,宜昌市,宜都市,聂家河镇","lng":111.403920408837,"lat":30.26489968644799,"info":"直接查询获得"},{"name":"松木坪镇","code":"420581103","level":4,"mergeName":"湖北省,宜昌市,宜都市,松木坪镇","lng":111.49091123645664,"lat":30.12539514487386,"info":"直接查询获得"},{"name":"枝城镇","code":"420581104","level":4,"mergeName":"湖北省,宜昌市,宜都市,枝城镇","lng":111.50728015945947,"lat":30.30397427029434,"info":"直接查询获得"},{"name":"姚家店镇","code":"420581105","level":4,"mergeName":"湖北省,宜昌市,宜都市,姚家店镇","lng":111.43575896119658,"lat":30.353306011704362,"info":"直接查询获得"},{"name":"五眼泉镇","code":"420581106","level":4,"mergeName":"湖北省,宜昌市,宜都市,五眼泉镇","lng":111.33927394264198,"lat":30.363257860214194,"info":"直接查询获得"},{"name":"王家畈镇","code":"420581107","level":4,"mergeName":"湖北省,宜昌市,宜都市,王家畈镇","lng":111.36964888583417,"lat":30.18681218422062,"info":"直接查询获得"},{"name":"潘家湾土家族乡","code":"420581200","level":4,"mergeName":"湖北省,宜昌市,宜都市,潘家湾土家族乡","lng":111.456515837124,"lat":30.38440427431352,"info":"直接查询获得"},{"name":"松宜矿区管理委员会","code":"420581400","level":4,"mergeName":"湖北省,宜昌市,宜都市,松宜矿区管理委员会","lng":111.48926994245937,"lat":30.134981702785804,"info":"直接查询获得"},{"name":"当阳市","code":"420582","level":3,"mergeName":"湖北省,宜昌市,当阳市","lng":111.79456850223322,"lat":30.82698905028075,"info":"直接查询获得"},{"name":"当阳市玉阳街道","code":"420582001","level":4,"mergeName":"湖北省,宜昌市,当阳市,当阳市玉阳街道","lng":111.82380753810804,"lat":30.81383463254287,"info":"直接查询获得"},{"name":"当阳市坝陵街道","code":"420582002","level":4,"mergeName":"湖北省,宜昌市,当阳市,当阳市坝陵街道","lng":111.81812297101035,"lat":30.83993088155327,"info":"直接查询获得"},{"name":"当阳市玉泉街道","code":"420582003","level":4,"mergeName":"湖北省,宜昌市,当阳市,当阳市玉泉街道","lng":111.6858878679903,"lat":30.867611244135365,"info":"直接查询获得"},{"name":"当阳市两河镇","code":"420582101","level":4,"mergeName":"湖北省,宜昌市,当阳市,当阳市两河镇","lng":111.93856220429404,"lat":30.703701653822076,"info":"直接查询获得"},{"name":"当阳市河溶镇","code":"420582102","level":4,"mergeName":"湖北省,宜昌市,当阳市,当阳市河溶镇","lng":111.99019446941325,"lat":30.707632690496872,"info":"直接查询获得"},{"name":"当阳市淯溪镇","code":"420582103","level":4,"mergeName":"湖北省,宜昌市,当阳市,当阳市淯溪镇","lng":111.79456850223322,"lat":30.82698905028075,"info":"直接查询获得"},{"name":"当阳市庙前镇","code":"420582104","level":4,"mergeName":"湖北省,宜昌市,当阳市,当阳市庙前镇","lng":111.88671596280236,"lat":30.89660306921681,"info":"直接查询获得"},{"name":"当阳市王店镇","code":"420582105","level":4,"mergeName":"湖北省,宜昌市,当阳市,当阳市王店镇","lng":111.6838536955867,"lat":30.71156868835712,"info":"直接查询获得"},{"name":"当阳市半月镇","code":"420582106","level":4,"mergeName":"湖北省,宜昌市,当阳市,当阳市半月镇","lng":111.87931087116141,"lat":30.679567191053476,"info":"直接查询获得"},{"name":"当阳市草埠湖镇","code":"420582107","level":4,"mergeName":"湖北省,宜昌市,当阳市,当阳市草埠湖镇","lng":111.9825204251026,"lat":30.57093731120365,"info":"直接查询获得"},{"name":"枝江市","code":"420583","level":3,"mergeName":"湖北省,宜昌市,枝江市","lng":111.766539753372,"lat":30.431730676997983,"info":"直接查询获得"},{"name":"马家店街道","code":"420583001","level":4,"mergeName":"湖北省,宜昌市,枝江市,马家店街道","lng":111.76732999272913,"lat":30.42859594863901,"info":"直接查询获得"},{"name":"安福寺镇","code":"420583101","level":4,"mergeName":"湖北省,宜昌市,枝江市,安福寺镇","lng":111.5870405260293,"lat":30.537262347631113,"info":"直接查询获得"},{"name":"白洋镇","code":"420583102","level":4,"mergeName":"湖北省,宜昌市,枝江市,白洋镇","lng":111.52037017752032,"lat":30.424033529247488,"info":"直接查询获得"},{"name":"顾家店镇","code":"420583103","level":4,"mergeName":"湖北省,宜昌市,枝江市,顾家店镇","lng":111.5726000852953,"lat":30.341957143414334,"info":"直接查询获得"},{"name":"董市镇","code":"420583104","level":4,"mergeName":"湖北省,宜昌市,枝江市,董市镇","lng":111.71031202675539,"lat":30.41547899598729,"info":"直接查询获得"},{"name":"仙女镇","code":"420583105","level":4,"mergeName":"湖北省,宜昌市,枝江市,仙女镇","lng":111.7550850106615,"lat":30.532606929297746,"info":"直接查询获得"},{"name":"问安镇","code":"420583106","level":4,"mergeName":"湖北省,宜昌市,枝江市,问安镇","lng":111.83633692370012,"lat":30.527674969733663,"info":"直接查询获得"},{"name":"七星台镇","code":"420583107","level":4,"mergeName":"湖北省,宜昌市,枝江市,七星台镇","lng":111.89939240100641,"lat":30.4169102153513,"info":"直接查询获得"},{"name":"百里洲镇","code":"420583108","level":4,"mergeName":"湖北省,宜昌市,枝江市,百里洲镇","lng":111.81747996392632,"lat":30.410361952551913,"info":"直接查询获得"},{"name":"襄阳市","code":"4206","level":2,"mergeName":"湖北省,襄阳市","lng":112.12853720100244,"lat":32.014796804669224,"info":"直接查询获得"},{"name":"襄城区","code":"420602","level":3,"mergeName":"湖北省,襄阳市,襄城区","lng":112.14057206941128,"lat":32.01617461814126,"info":"直接查询获得"},{"name":"真武山街道","code":"420602001","level":4,"mergeName":"湖北省,襄阳市,襄城区,真武山街道","lng":112.14057206941128,"lat":32.01617461814126,"info":"直接查询获得"},{"name":"古城街道","code":"420602002","level":4,"mergeName":"湖北省,襄阳市,襄城区,古城街道","lng":112.14057206941128,"lat":32.01617461814126,"info":"直接查询获得"},{"name":"庞公街道","code":"420602003","level":4,"mergeName":"湖北省,襄阳市,襄城区,庞公街道","lng":112.17703066450024,"lat":31.999855069425166,"info":"直接查询获得"},{"name":"檀溪街道","code":"420602004","level":4,"mergeName":"湖北省,襄阳市,襄城区,檀溪街道","lng":112.11460860037515,"lat":32.00065295093699,"info":"直接查询获得"},{"name":"隆中街道","code":"420602005","level":4,"mergeName":"湖北省,襄阳市,襄城区,隆中街道","lng":112.0646598675783,"lat":31.99779339838359,"info":"直接查询获得"},{"name":"余家湖街道","code":"420602006","level":4,"mergeName":"湖北省,襄阳市,襄城区,余家湖街道","lng":112.1695660187972,"lat":31.912718551603724,"info":"直接查询获得"},{"name":"欧庙镇","code":"420602100","level":4,"mergeName":"湖北省,襄阳市,襄城区,欧庙镇","lng":112.12614365159823,"lat":31.83963615246838,"info":"直接查询获得"},{"name":"卧龙镇","code":"420602101","level":4,"mergeName":"湖北省,襄阳市,襄城区,卧龙镇","lng":111.95460750914367,"lat":32.00433158469312,"info":"直接查询获得"},{"name":"尹集乡","code":"420602200","level":4,"mergeName":"湖北省,襄阳市,襄城区,尹集乡","lng":112.09066188559878,"lat":31.917903252136046,"info":"直接查询获得"},{"name":"樊城区","code":"420606","level":3,"mergeName":"湖北省,襄阳市,樊城区","lng":112.14259891613344,"lat":32.05057237469156,"info":"直接查询获得"},{"name":"汉江街道","code":"420606001","level":4,"mergeName":"湖北省,襄阳市,樊城区,汉江街道","lng":112.1341783646728,"lat":32.04053358242519,"info":"直接查询获得"},{"name":"王寨街道","code":"420606002","level":4,"mergeName":"湖北省,襄阳市,樊城区,王寨街道","lng":112.1151551285491,"lat":32.065388592707166,"info":"直接查询获得"},{"name":"中原街道","code":"420606003","level":4,"mergeName":"湖北省,襄阳市,樊城区,中原街道","lng":112.15812604063606,"lat":32.06624075246599,"info":"直接查询获得"},{"name":"定中门街道","code":"420606004","level":4,"mergeName":"湖北省,襄阳市,樊城区,定中门街道","lng":112.16071038114757,"lat":32.04445022448226,"info":"直接查询获得"},{"name":"清河口街道","code":"420606005","level":4,"mergeName":"湖北省,襄阳市,樊城区,清河口街道","lng":112.1724075630406,"lat":32.06306720601545,"info":"直接查询获得"},{"name":"屏襄门街道","code":"420606006","level":4,"mergeName":"湖北省,襄阳市,樊城区,屏襄门街道","lng":112.16625780214643,"lat":32.05195887478358,"info":"直接查询获得"},{"name":"米公街道","code":"420606007","level":4,"mergeName":"湖北省,襄阳市,樊城区,米公街道","lng":112.14989148153468,"lat":32.04195954025023,"info":"直接查询获得"},{"name":"柿铺街道","code":"420606008","level":4,"mergeName":"湖北省,襄阳市,樊城区,柿铺街道","lng":112.08079551501307,"lat":32.05269964973867,"info":"直接查询获得"},{"name":"高新区紫贞街道","code":"420606070","level":4,"mergeName":"湖北省,襄阳市,樊城区,高新区紫贞街道","lng":112.15113620149678,"lat":32.07528724044392,"info":"直接查询获得"},{"name":"高新区七里河街道","code":"420606071","level":4,"mergeName":"湖北省,襄阳市,樊城区,高新区七里河街道","lng":112.15138320047811,"lat":32.069705115340746,"info":"直接查询获得"},{"name":"高新区东风街道","code":"420606072","level":4,"mergeName":"湖北省,襄阳市,樊城区,高新区东风街道","lng":112.14259891613344,"lat":32.05057237469156,"info":"直接查询获得"},{"name":"牛首镇","code":"420606100","level":4,"mergeName":"湖北省,襄阳市,樊城区,牛首镇","lng":112.01155751830557,"lat":32.12194523710972,"info":"直接查询获得"},{"name":"太平店镇","code":"420606101","level":4,"mergeName":"湖北省,襄阳市,樊城区,太平店镇","lng":111.84750561988538,"lat":32.148143333144205,"info":"直接查询获得"},{"name":"高新区团山镇","code":"420606170","level":4,"mergeName":"湖北省,襄阳市,樊城区,高新区团山镇","lng":112.13189818501716,"lat":32.11421590925938,"info":"直接查询获得"},{"name":"高新区米庄镇","code":"420606171","level":4,"mergeName":"湖北省,襄阳市,樊城区,高新区米庄镇","lng":112.14259891613344,"lat":32.05057237469156,"info":"直接查询获得"},{"name":"经济开发区","code":"420606400","level":4,"mergeName":"湖北省,襄阳市,樊城区,经济开发区","lng":111.81874608062735,"lat":32.14804544446994,"info":"直接查询获得"},{"name":"鱼梁洲开发区","code":"420606480","level":4,"mergeName":"湖北省,襄阳市,樊城区,鱼梁洲开发区","lng":112.14259891613344,"lat":32.05057237469156,"info":"直接查询获得"},{"name":"高新区汽车工业园","code":"420606570","level":4,"mergeName":"湖北省,襄阳市,樊城区,高新区汽车工业园","lng":112.15422532502687,"lat":32.06016814766116,"info":"直接查询获得"},{"name":"高新区高新技术产业园","code":"420606571","level":4,"mergeName":"湖北省,襄阳市,樊城区,高新区高新技术产业园","lng":112.1283079534363,"lat":32.08608985290785,"info":"直接查询获得"},{"name":"高新区高新技术创业服务中心","code":"420606572","level":4,"mergeName":"湖北省,襄阳市,樊城区,高新区高新技术创业服务中心","lng":112.13849797181929,"lat":32.08300400789167,"info":"直接查询获得"},{"name":"襄州区","code":"420607","level":3,"mergeName":"湖北省,襄阳市,襄州区","lng":112.21843413677742,"lat":32.093375783399296,"info":"直接查询获得"},{"name":"张湾街道","code":"420607001","level":4,"mergeName":"湖北省,襄阳市,襄州区,张湾街道","lng":112.23598493249226,"lat":32.12489382214049,"info":"直接查询获得"},{"name":"刘集街道","code":"420607002","level":4,"mergeName":"湖北省,襄阳市,襄州区,刘集街道","lng":112.30144578000497,"lat":32.16605264544515,"info":"直接查询获得"},{"name":"肖湾街道","code":"420607003","level":4,"mergeName":"湖北省,襄阳市,襄州区,肖湾街道","lng":112.21843413677742,"lat":32.093375783399296,"info":"直接查询获得"},{"name":"六两河街道","code":"420607004","level":4,"mergeName":"湖北省,襄阳市,襄州区,六两河街道","lng":112.21843413677742,"lat":32.093375783399296,"info":"直接查询获得"},{"name":"龙王镇","code":"420607100","level":4,"mergeName":"湖北省,襄阳市,襄州区,龙王镇","lng":111.92709170171169,"lat":32.23690298982928,"info":"直接查询获得"},{"name":"石桥镇","code":"420607101","level":4,"mergeName":"湖北省,襄阳市,襄州区,石桥镇","lng":112.0076545236953,"lat":32.378708914196785,"info":"直接查询获得"},{"name":"黄集镇","code":"420607102","level":4,"mergeName":"湖北省,襄阳市,襄州区,黄集镇","lng":112.08278526980241,"lat":32.30139443081295,"info":"直接查询获得"},{"name":"伙牌镇","code":"420607103","level":4,"mergeName":"湖北省,襄阳市,襄州区,伙牌镇","lng":112.13429332621875,"lat":32.21525549085888,"info":"直接查询获得"},{"name":"古驿镇","code":"420607104","level":4,"mergeName":"湖北省,襄阳市,襄州区,古驿镇","lng":112.25164390668442,"lat":32.297424045800994,"info":"直接查询获得"},{"name":"朱集镇","code":"420607105","level":4,"mergeName":"湖北省,襄阳市,襄州区,朱集镇","lng":112.38499892269225,"lat":32.308835495332794,"info":"直接查询获得"},{"name":"程河镇","code":"420607106","level":4,"mergeName":"湖北省,襄阳市,襄州区,程河镇","lng":112.47111756842446,"lat":32.303015215782395,"info":"直接查询获得"},{"name":"双沟镇","code":"420607107","level":4,"mergeName":"湖北省,襄阳市,襄州区,双沟镇","lng":112.39564587585085,"lat":32.185924437478135,"info":"直接查询获得"},{"name":"张家集镇","code":"420607108","level":4,"mergeName":"湖北省,襄阳市,襄州区,张家集镇","lng":112.4409244305895,"lat":32.10462375935006,"info":"直接查询获得"},{"name":"黄龙镇","code":"420607109","level":4,"mergeName":"湖北省,襄阳市,襄州区,黄龙镇","lng":112.4913028902847,"lat":31.978133634620516,"info":"直接查询获得"},{"name":"峪山镇","code":"420607110","level":4,"mergeName":"湖北省,襄阳市,襄州区,峪山镇","lng":112.39282229951425,"lat":31.949100023722746,"info":"直接查询获得"},{"name":"东津镇","code":"420607111","level":4,"mergeName":"湖北省,襄阳市,襄州区,东津镇","lng":112.27593866094757,"lat":32.00828451643159,"info":"直接查询获得"},{"name":"鹿门风景名胜区","code":"420607402","level":4,"mergeName":"湖北省,襄阳市,襄州区,鹿门风景名胜区","lng":112.28366270494291,"lat":31.908519241306017,"info":"直接查询获得"},{"name":"襄北农场","code":"420607500","level":4,"mergeName":"湖北省,襄阳市,襄州区,襄北农场","lng":112.21843413677742,"lat":32.093375783399296,"info":"直接查询获得"},{"name":"深圳工业园","code":"420607570","level":4,"mergeName":"湖北省,襄阳市,襄州区,深圳工业园","lng":112.27057489761192,"lat":32.13633494773983,"info":"直接查询获得"},{"name":"南漳县","code":"420624","level":3,"mergeName":"湖北省,襄阳市,南漳县","lng":111.84538618391599,"lat":31.78112970677853,"info":"直接查询获得"},{"name":"城关镇","code":"420624100","level":4,"mergeName":"湖北省,襄阳市,南漳县,城关镇","lng":111.8429072757256,"lat":31.727516210444048,"info":"直接查询获得"},{"name":"武安镇","code":"420624101","level":4,"mergeName":"湖北省,襄阳市,南漳县,武安镇","lng":112.00618144189627,"lat":31.5862834649821,"info":"直接查询获得"},{"name":"九集镇","code":"420624102","level":4,"mergeName":"湖北省,襄阳市,南漳县,九集镇","lng":111.92969487070668,"lat":31.844055545878376,"info":"直接查询获得"},{"name":"李庙镇","code":"420624103","level":4,"mergeName":"湖北省,襄阳市,南漳县,李庙镇","lng":111.66434328413071,"lat":31.882018292445455,"info":"直接查询获得"},{"name":"长坪镇","code":"420624104","level":4,"mergeName":"湖北省,襄阳市,南漳县,长坪镇","lng":111.5538938800505,"lat":31.79257723256512,"info":"直接查询获得"},{"name":"薛坪镇","code":"420624105","level":4,"mergeName":"湖北省,襄阳市,南漳县,薛坪镇","lng":111.64856484159382,"lat":31.637061430156276,"info":"直接查询获得"},{"name":"板桥镇","code":"420624106","level":4,"mergeName":"湖北省,襄阳市,南漳县,板桥镇","lng":111.57185210043275,"lat":31.49341940065371,"info":"直接查询获得"},{"name":"巡检镇","code":"420624107","level":4,"mergeName":"湖北省,襄阳市,南漳县,巡检镇","lng":111.57689662215968,"lat":31.389928925697003,"info":"直接查询获得"},{"name":"东巩镇","code":"420624108","level":4,"mergeName":"湖北省,襄阳市,南漳县,东巩镇","lng":111.85846816843066,"lat":31.363725526257305,"info":"直接查询获得"},{"name":"肖堰镇","code":"420624109","level":4,"mergeName":"湖北省,襄阳市,南漳县,肖堰镇","lng":111.78543125568758,"lat":31.531830465994876,"info":"直接查询获得"},{"name":"清河管理区","code":"420624500","level":4,"mergeName":"湖北省,襄阳市,南漳县,清河管理区","lng":111.95686029407447,"lat":31.732070288550236,"info":"直接查询获得"},{"name":"谷城县","code":"420625","level":3,"mergeName":"湖北省,襄阳市,谷城县","lng":111.65957564172129,"lat":32.268983068947186,"info":"直接查询获得"},{"name":"城关镇","code":"420625100","level":4,"mergeName":"湖北省,襄阳市,谷城县,城关镇","lng":111.64237486625689,"lat":32.26195833960951,"info":"直接查询获得"},{"name":"石花镇","code":"420625101","level":4,"mergeName":"湖北省,襄阳市,谷城县,石花镇","lng":111.47121032674097,"lat":32.30409933562977,"info":"直接查询获得"},{"name":"盛康镇","code":"420625102","level":4,"mergeName":"湖北省,襄阳市,谷城县,盛康镇","lng":111.65957564172129,"lat":32.268983068947186,"info":"直接查询获得"},{"name":"庙滩镇","code":"420625103","level":4,"mergeName":"湖北省,襄阳市,谷城县,庙滩镇","lng":111.70109802898698,"lat":32.104510673284366,"info":"直接查询获得"},{"name":"五山镇","code":"420625104","level":4,"mergeName":"湖北省,襄阳市,谷城县,五山镇","lng":111.33116646322786,"lat":32.306150166695986,"info":"直接查询获得"},{"name":"茨河镇","code":"420625105","level":4,"mergeName":"湖北省,襄阳市,谷城县,茨河镇","lng":111.77983094156197,"lat":32.0254528604526,"info":"直接查询获得"},{"name":"南河镇","code":"420625106","level":4,"mergeName":"湖北省,襄阳市,谷城县,南河镇","lng":111.44870151881474,"lat":32.097335080296766,"info":"直接查询获得"},{"name":"紫金镇","code":"420625107","level":4,"mergeName":"湖北省,襄阳市,谷城县,紫金镇","lng":111.28351352533133,"lat":32.129213265122296,"info":"直接查询获得"},{"name":"冷集镇","code":"420625108","level":4,"mergeName":"湖北省,襄阳市,谷城县,冷集镇","lng":111.5567964803228,"lat":32.40656749052709,"info":"直接查询获得"},{"name":"赵湾乡","code":"420625200","level":4,"mergeName":"湖北省,襄阳市,谷城县,赵湾乡","lng":111.42686820069981,"lat":31.97333429519196,"info":"直接查询获得"},{"name":"薤山林场","code":"420625500","level":4,"mergeName":"湖北省,襄阳市,谷城县,薤山林场","lng":111.43889899439485,"lat":32.183279605842664,"info":"直接查询获得"},{"name":"保康县","code":"420626","level":3,"mergeName":"湖北省,襄阳市,保康县","lng":111.26744121202825,"lat":31.883847150262206,"info":"直接查询获得"},{"name":"城关镇","code":"420626100","level":4,"mergeName":"湖北省,襄阳市,保康县,城关镇","lng":111.2230111625387,"lat":31.84514633978207,"info":"直接查询获得"},{"name":"黄堡镇","code":"420626101","level":4,"mergeName":"湖北省,襄阳市,保康县,黄堡镇","lng":111.40662598735503,"lat":31.79204818551449,"info":"直接查询获得"},{"name":"后坪镇","code":"420626102","level":4,"mergeName":"湖北省,襄阳市,保康县,后坪镇","lng":111.20549095322818,"lat":31.737009022562763,"info":"直接查询获得"},{"name":"龙坪镇","code":"420626103","level":4,"mergeName":"湖北省,襄阳市,保康县,龙坪镇","lng":111.44652250452903,"lat":31.6562388877552,"info":"直接查询获得"},{"name":"店垭镇","code":"420626104","level":4,"mergeName":"湖北省,襄阳市,保康县,店垭镇","lng":111.35038266974799,"lat":31.41211156774721,"info":"直接查询获得"},{"name":"马良镇","code":"420626105","level":4,"mergeName":"湖北省,襄阳市,保康县,马良镇","lng":111.31783452071352,"lat":31.504719468314285,"info":"直接查询获得"},{"name":"歇马镇","code":"420626106","level":4,"mergeName":"湖北省,襄阳市,保康县,歇马镇","lng":111.11779204257843,"lat":31.600373983034245,"info":"直接查询获得"},{"name":"马桥镇","code":"420626107","level":4,"mergeName":"湖北省,襄阳市,保康县,马桥镇","lng":110.9527545754544,"lat":31.792612071379025,"info":"直接查询获得"},{"name":"寺坪镇","code":"420626108","level":4,"mergeName":"湖北省,襄阳市,保康县,寺坪镇","lng":111.11512351377286,"lat":31.962915237085063,"info":"直接查询获得"},{"name":"过渡湾镇","code":"420626109","level":4,"mergeName":"湖北省,襄阳市,保康县,过渡湾镇","lng":111.29530112886042,"lat":31.94853106760082,"info":"直接查询获得"},{"name":"两峪乡","code":"420626200","level":4,"mergeName":"湖北省,襄阳市,保康县,两峪乡","lng":111.37848364596545,"lat":31.598094348251777,"info":"直接查询获得"},{"name":"湖北保康经济开发区管理委员会","code":"420626400","level":4,"mergeName":"湖北省,襄阳市,保康县,湖北保康经济开发区管理委员会","lng":111.26551695179533,"lat":31.87814737702353,"info":"直接查询获得"},{"name":"老河口市","code":"420682","level":3,"mergeName":"湖北省,襄阳市,老河口市","lng":111.6815563690755,"lat":32.39245958527059,"info":"直接查询获得"},{"name":"光化街道","code":"420682001","level":4,"mergeName":"湖北省,襄阳市,老河口市,光化街道","lng":111.716766532404,"lat":32.418421969455835,"info":"直接查询获得"},{"name":"酂阳街道","code":"420682002","level":4,"mergeName":"湖北省,襄阳市,老河口市,酂阳街道","lng":111.6815563690755,"lat":32.39245958527059,"info":"直接查询获得"},{"name":"孟楼镇","code":"420682100","level":4,"mergeName":"湖北省,襄阳市,老河口市,孟楼镇","lng":111.83296119400045,"lat":32.50593066943991,"info":"直接查询获得"},{"name":"竹林桥镇","code":"420682101","level":4,"mergeName":"湖北省,襄阳市,老河口市,竹林桥镇","lng":111.82971528112495,"lat":32.44181572775655,"info":"直接查询获得"},{"name":"薛集镇","code":"420682102","level":4,"mergeName":"湖北省,襄阳市,老河口市,薛集镇","lng":111.94957871584793,"lat":32.46420365716445,"info":"直接查询获得"},{"name":"张集镇","code":"420682103","level":4,"mergeName":"湖北省,襄阳市,老河口市,张集镇","lng":111.85118772117075,"lat":32.360418637617386,"info":"直接查询获得"},{"name":"仙人渡镇","code":"420682104","level":4,"mergeName":"湖北省,襄阳市,老河口市,仙人渡镇","lng":111.7523158842151,"lat":32.24999790300078,"info":"直接查询获得"},{"name":"洪山嘴镇","code":"420682105","level":4,"mergeName":"湖北省,襄阳市,老河口市,洪山嘴镇","lng":111.62764557897938,"lat":32.52551681204673,"info":"直接查询获得"},{"name":"李楼镇","code":"420682106","level":4,"mergeName":"湖北省,襄阳市,老河口市,李楼镇","lng":111.7377137960995,"lat":32.34513543917682,"info":"直接查询获得"},{"name":"袁冲乡","code":"420682200","level":4,"mergeName":"湖北省,襄阳市,老河口市,袁冲乡","lng":111.72442687126748,"lat":32.54027095605261,"info":"直接查询获得"},{"name":"蔬菜原种场","code":"420682501","level":4,"mergeName":"湖北省,襄阳市,老河口市,蔬菜原种场","lng":111.6815563690755,"lat":32.39245958527059,"info":"直接查询获得"},{"name":"百花山林场","code":"420682502","level":4,"mergeName":"湖北省,襄阳市,老河口市,百花山林场","lng":111.6815563690755,"lat":32.39245958527059,"info":"直接查询获得"},{"name":"林茂山林场","code":"420682503","level":4,"mergeName":"湖北省,襄阳市,老河口市,林茂山林场","lng":111.65045900859218,"lat":32.5919164981302,"info":"直接查询获得"},{"name":"枣阳市","code":"420683","level":3,"mergeName":"湖北省,襄阳市,枣阳市","lng":112.77847075950989,"lat":32.13472991431875,"info":"直接查询获得"},{"name":"北城街道","code":"420683001","level":4,"mergeName":"湖北省,襄阳市,枣阳市,北城街道","lng":112.75877825344226,"lat":32.12319254088856,"info":"直接查询获得"},{"name":"南城街道","code":"420683002","level":4,"mergeName":"湖北省,襄阳市,枣阳市,南城街道","lng":112.71701277212931,"lat":32.06065652461703,"info":"直接查询获得"},{"name":"环城街道","code":"420683003","level":4,"mergeName":"湖北省,襄阳市,枣阳市,环城街道","lng":112.76172449339626,"lat":32.15675247122269,"info":"直接查询获得"},{"name":"琚湾镇","code":"420683100","level":4,"mergeName":"湖北省,襄阳市,枣阳市,琚湾镇","lng":112.58138874779317,"lat":32.077107826165545,"info":"直接查询获得"},{"name":"七方镇","code":"420683101","level":4,"mergeName":"湖北省,襄阳市,枣阳市,七方镇","lng":112.58614713585922,"lat":32.228360703762434,"info":"直接查询获得"},{"name":"杨当镇","code":"420683102","level":4,"mergeName":"湖北省,襄阳市,枣阳市,杨当镇","lng":112.53356860290224,"lat":32.37489897882877,"info":"直接查询获得"},{"name":"太平镇","code":"420683103","level":4,"mergeName":"湖北省,襄阳市,枣阳市,太平镇","lng":112.78316594729179,"lat":32.29954506832782,"info":"直接查询获得"},{"name":"新市镇","code":"420683104","level":4,"mergeName":"湖北省,襄阳市,枣阳市,新市镇","lng":112.9935938135803,"lat":32.33830880372269,"info":"直接查询获得"},{"name":"鹿头镇","code":"420683105","level":4,"mergeName":"湖北省,襄阳市,枣阳市,鹿头镇","lng":112.89548611032535,"lat":32.23396420553569,"info":"直接查询获得"},{"name":"刘升镇","code":"420683106","level":4,"mergeName":"湖北省,襄阳市,枣阳市,刘升镇","lng":112.96033028547836,"lat":32.14694136099779,"info":"直接查询获得"},{"name":"兴隆镇","code":"420683107","level":4,"mergeName":"湖北省,襄阳市,枣阳市,兴隆镇","lng":112.89138007261897,"lat":32.0308977438532,"info":"直接查询获得"},{"name":"王城镇","code":"420683108","level":4,"mergeName":"湖北省,襄阳市,枣阳市,王城镇","lng":112.92257773699721,"lat":31.9125298788911,"info":"直接查询获得"},{"name":"吴店镇","code":"420683109","level":4,"mergeName":"湖北省,襄阳市,枣阳市,吴店镇","lng":112.80697089957732,"lat":31.908848261222147,"info":"直接查询获得"},{"name":"熊集镇","code":"420683110","level":4,"mergeName":"湖北省,襄阳市,枣阳市,熊集镇","lng":112.63554133119018,"lat":31.92745974025084,"info":"直接查询获得"},{"name":"平林镇","code":"420683111","level":4,"mergeName":"湖北省,襄阳市,枣阳市,平林镇","lng":112.7101336150085,"lat":31.763569868868167,"info":"直接查询获得"},{"name":"枣阳经济开发区","code":"420683402","level":4,"mergeName":"湖北省,襄阳市,枣阳市,枣阳经济开发区","lng":112.76203029545627,"lat":32.13684095772302,"info":"直接查询获得"},{"name":"随阳农场","code":"420683500","level":4,"mergeName":"湖北省,襄阳市,枣阳市,随阳农场","lng":112.96793402300996,"lat":32.05298826666861,"info":"直接查询获得"},{"name":"车河农场","code":"420683501","level":4,"mergeName":"湖北省,襄阳市,枣阳市,车河农场","lng":112.65249551730054,"lat":31.816576578923243,"info":"直接查询获得"},{"name":"宜城市","code":"420684","level":3,"mergeName":"湖北省,襄阳市,宜城市","lng":112.2646114416873,"lat":31.725469730972,"info":"直接查询获得"},{"name":"鄢城街道","code":"420684001","level":4,"mergeName":"湖北省,襄阳市,宜城市,鄢城街道","lng":112.28172766953539,"lat":31.71162933580378,"info":"直接查询获得"},{"name":"南营街道","code":"420684002","level":4,"mergeName":"湖北省,襄阳市,宜城市,南营街道","lng":112.33604360978937,"lat":31.756511047879403,"info":"直接查询获得"},{"name":"龙头街道","code":"420684003","level":4,"mergeName":"湖北省,襄阳市,宜城市,龙头街道","lng":112.2646114416873,"lat":31.725469730972,"info":"直接查询获得"},{"name":"郑集镇","code":"420684102","level":4,"mergeName":"湖北省,襄阳市,宜城市,郑集镇","lng":112.34839195897372,"lat":31.60319345399277,"info":"直接查询获得"},{"name":"小河镇","code":"420684103","level":4,"mergeName":"湖北省,襄阳市,宜城市,小河镇","lng":112.13294814695487,"lat":31.741773348557462,"info":"直接查询获得"},{"name":"刘猴镇","code":"420684104","level":4,"mergeName":"湖北省,襄阳市,宜城市,刘猴镇","lng":112.08727009868812,"lat":31.502675229628455,"info":"直接查询获得"},{"name":"孔湾镇","code":"420684105","level":4,"mergeName":"湖北省,襄阳市,宜城市,孔湾镇","lng":112.27984323028743,"lat":31.557750115263115,"info":"直接查询获得"},{"name":"流水镇","code":"420684106","level":4,"mergeName":"湖北省,襄阳市,宜城市,流水镇","lng":112.57005900878593,"lat":31.607748927787608,"info":"直接查询获得"},{"name":"板桥店镇","code":"420684107","level":4,"mergeName":"湖北省,襄阳市,宜城市,板桥店镇","lng":112.5196993578115,"lat":31.76876558478348,"info":"直接查询获得"},{"name":"王集镇","code":"420684108","level":4,"mergeName":"湖北省,襄阳市,宜城市,王集镇","lng":112.26493035002468,"lat":31.835931608902825,"info":"直接查询获得"},{"name":"雷河镇","code":"420684109","level":4,"mergeName":"湖北省,襄阳市,宜城市,雷河镇","lng":112.19042255453449,"lat":31.616303115273123,"info":"直接查询获得"},{"name":"襄南监狱","code":"420684400","level":4,"mergeName":"湖北省,襄阳市,宜城市,襄南监狱","lng":112.2646114416873,"lat":31.725469730972,"info":"直接查询获得"},{"name":"劳教所","code":"420684401","level":4,"mergeName":"湖北省,襄阳市,宜城市,劳教所","lng":112.2646114416873,"lat":31.725469730972,"info":"直接查询获得"},{"name":"大雁工业园区","code":"420684450","level":4,"mergeName":"湖北省,襄阳市,宜城市,大雁工业园区","lng":112.2646114416873,"lat":31.725469730972,"info":"直接查询获得"},{"name":"宜城经济开发区","code":"420684452","level":4,"mergeName":"湖北省,襄阳市,宜城市,宜城经济开发区","lng":112.2646114416873,"lat":31.725469730972,"info":"直接查询获得"},{"name":"鄂州市","code":"4207","level":2,"mergeName":"湖北省,鄂州市","lng":114.90160738827099,"lat":30.39657217331699,"info":"直接查询获得"},{"name":"梁子湖区","code":"420702","level":3,"mergeName":"湖北省,鄂州市,梁子湖区","lng":114.69150657525594,"lat":30.105906774051476,"info":"直接查询获得"},{"name":"太和镇","code":"420702100","level":4,"mergeName":"湖北省,鄂州市,梁子湖区,太和镇","lng":114.68697597141637,"lat":30.09919919213568,"info":"直接查询获得"},{"name":"东沟镇","code":"420702101","level":4,"mergeName":"湖北省,鄂州市,梁子湖区,东沟镇","lng":114.67077691798549,"lat":30.28203904854973,"info":"直接查询获得"},{"name":"梁子镇","code":"420702102","level":4,"mergeName":"湖北省,鄂州市,梁子湖区,梁子镇","lng":114.61675406607364,"lat":30.248257507286688,"info":"直接查询获得"},{"name":"涂家垴镇","code":"420702103","level":4,"mergeName":"湖北省,鄂州市,梁子湖区,涂家垴镇","lng":114.53694583598961,"lat":30.14564486649726,"info":"直接查询获得"},{"name":"沼山镇","code":"420702104","level":4,"mergeName":"湖北省,鄂州市,梁子湖区,沼山镇","lng":114.6764898715373,"lat":30.18041173825161,"info":"直接查询获得"},{"name":"梧桐湖新区","code":"420702400","level":4,"mergeName":"湖北省,鄂州市,梁子湖区,梧桐湖新区","lng":114.6151530323327,"lat":30.333686016177598,"info":"直接查询获得"},{"name":"华容区","code":"420703","level":3,"mergeName":"湖北省,鄂州市,华容区","lng":114.73642634228239,"lat":30.540599527838044,"info":"直接查询获得"},{"name":"华容镇","code":"420703100","level":4,"mergeName":"湖北省,鄂州市,华容区,华容镇","lng":114.73657671862476,"lat":30.541229765687433,"info":"直接查询获得"},{"name":"葛店镇","code":"420703101","level":4,"mergeName":"湖北省,鄂州市,华容区,葛店镇","lng":114.65545101751032,"lat":30.54219886981896,"info":"直接查询获得"},{"name":"庙岭镇","code":"420703102","level":4,"mergeName":"湖北省,鄂州市,华容区,庙岭镇","lng":114.63474498567476,"lat":30.452966954477883,"info":"直接查询获得"},{"name":"段店镇","code":"420703103","level":4,"mergeName":"湖北省,鄂州市,华容区,段店镇","lng":114.79677710973209,"lat":30.56690682933569,"info":"直接查询获得"},{"name":"临江乡","code":"420703200","level":4,"mergeName":"湖北省,鄂州市,华容区,临江乡","lng":114.82456053315515,"lat":30.49445365640905,"info":"直接查询获得"},{"name":"蒲团乡","code":"420703201","level":4,"mergeName":"湖北省,鄂州市,华容区,蒲团乡","lng":114.74464404108767,"lat":30.412557940884064,"info":"直接查询获得"},{"name":"葛店开发区","code":"420703400","level":4,"mergeName":"湖北省,鄂州市,华容区,葛店开发区","lng":114.68827770593089,"lat":30.546585493159995,"info":"直接查询获得"},{"name":"鄂城区","code":"420704","level":3,"mergeName":"湖北省,鄂州市,鄂城区","lng":114.89859968176249,"lat":30.406389456291524,"info":"直接查询获得"},{"name":"凤凰街道","code":"420704001","level":4,"mergeName":"湖北省,鄂州市,鄂城区,凤凰街道","lng":114.90697045182667,"lat":30.375287822170126,"info":"直接查询获得"},{"name":"古楼街道","code":"420704002","level":4,"mergeName":"湖北省,鄂州市,鄂城区,古楼街道","lng":114.88828183450543,"lat":30.39531774443868,"info":"直接查询获得"},