[{"name":"辽宁省","code":"21","level":1,"mergeName":"辽宁省,辽宁省","lng":123.43559417377949,"lat":41.84146599014109,"info":"直接检索POI第一个结果成功!","tag":""},{"name":"沈阳市","code":"2101","level":2,"mergeName":"辽宁省,沈阳市","lng":123.47109520753382,"lat":41.68382979981956,"info":"直接检索POI第一个结果成功!","tag":""},{"name":"和平区","code":"210102","level":3,"mergeName":"辽宁省,沈阳市,和平区","lng":123.42664705090012,"lat":41.79523524620007,"info":"直接检索POI第一个结果成功!","tag":""},{"name":"浑河湾街道","code":"210102001","level":4,"mergeName":"辽宁省,沈阳市,和平区,浑河湾街道","lng":123.39052852193822,"lat":41.762951985401486,"info":"直接检索POI第一个结果成功!","tag":""},{"name":"新华街道","code":"210102002","level":4,"mergeName":"辽宁省,沈阳市,和平区,新华街道","lng":123.38991111656121,"lat":41.78100901134373,"info":"直接检索POI第一个结果成功!","tag":["行政地标","乡镇"]},{"name":"马路湾街道","code":"210102016","level":4,"mergeName":"辽宁省,沈阳市,和平区,马路湾街道","lng":123.41329778186908,"lat":41.77856996072894,"info":"直接检索POI第一个结果成功!","tag":["行政地标","乡镇"]},{"name":"南湖街道","code":"210102019","level":4,"mergeName":"辽宁省,沈阳市,和平区,南湖街道","lng":123.42466898216715,"lat":41.77842888522074,"info":"直接检索POI第一个结果成功!","tag":""},{"name":"长白街道","code":"210102021","level":4,"mergeName":"辽宁省,沈阳市,和平区,长白街道","lng":123.40845429822038,"lat":41.738647447118275,"info":"直接检索POI第一个结果成功!","tag":""},{"name":"太原街街道","code":"210102022","level":4,"mergeName":"辽宁省,沈阳市,和平区,太原街街道","lng":123.4081000963578,"lat":41.796086445617924,"info":"直接检索POI第一个结果成功!","tag":["行政地标","乡镇"]},{"name":"北市场街道","code":"210102023","level":4,"mergeName":"辽宁省,沈阳市,和平区,北市场街道","lng":123.43394883740741,"lat":41.81172068764215,"info":"直接检索POI第一个结果成功!","tag":""},{"name":"南市场街道","code":"210102025","level":4,"mergeName":"辽宁省,沈阳市,和平区,南市场街道","lng":123.42502372301303,"lat":41.79379735077081,"info":"直接检索POI第一个结果成功!","tag":["行政地标","乡镇"]},{"name":"沈水湾街道","code":"210102027","level":4,"mergeName":"辽宁省,沈阳市,和平区,沈水湾街道","lng":123.41730539224075,"lat":41.740516393490374,"info":"直接检索POI第一个结果成功!","tag":["政府机构","各级政府","乡镇级政府"]},{"name":"浑河站西街道","code":"210102028","level":4,"mergeName":"辽宁省,沈阳市,和平区,浑河站西街道","lng":123.36956027472432,"lat":41.7261092804679,"info":"直接检索POI第一个结果成功!","tag":["行政地标","乡镇"]},{"name":"沈河区","code":"210103","level":3,"mergeName":"辽宁省,沈阳市,沈河区","lng":123.46546283198626,"lat":41.80227333219184,"info":"直接检索POI第一个结果成功!","tag":""},{"name":"滨河街道","code":"210103005","level":4,"mergeName":"辽宁省,沈阳市,沈河区,滨河街道","lng":123.46597801019622,"lat":41.79034308241782,"info":"直接检索POI第一个结果成功!","tag":["行政地标","乡镇"]},{"name":"万莲街道","code":"210103006","level":4,"mergeName":"辽宁省,沈阳市,沈河区,万莲街道","lng":123.48729291350645,"lat":41.791066073392344,"info":"直接检索POI第一个结果成功!","tag":["行政地标","乡镇"]},{"name":"朱剪炉街道","code":"210103013","level":4,"mergeName":"辽宁省,沈阳市,沈河区,朱剪炉街道","lng":123.4518084085735,"lat":41.80309486201259,"info":"直接检索POI第一个结果成功!","tag":""},{"name":"北站街道","code":"210103014","level":4,"mergeName":"辽宁省,沈阳市,沈河区,北站街道","lng":123.44998790262697,"lat":41.820087098247434,"info":"直接检索POI第一个结果成功!","tag":["行政地标","乡镇"]},{"name":"风雨坛街道","code":"210103015","level":4,"mergeName":"辽宁省,沈阳市,沈河区,风雨坛街道","lng":123.44346943852436,"lat":41.79449556334513,"info":"直接检索POI第一个结果成功!","tag":["政府机构","各级政府"]},{"name":"皇城街道","code":"210103017","level":4,"mergeName":"辽宁省,沈阳市,沈河区,皇城街道","lng":123.46472559265422,"lat":41.80231117576399,"info":"直接检索POI第一个结果成功!","tag":["行政地标","乡镇"]},{"name":"五里河街道","code":"210103018","level":4,"mergeName":"辽宁省,沈阳市,沈河区,五里河街道","lng":123.44398201164836,"lat":41.77560690591767,"info":"直接检索POI第一个结果成功!","tag":["政府机构"]},{"name":"南塔街道","code":"210103019","level":4,"mergeName":"辽宁省,沈阳市,沈河区,南塔街道","lng":123.45641132600663,"lat":41.76713618207144,"info":"直接检索POI第一个结果成功!","tag":""},{"name":"泉园街道","code":"210103020","level":4,"mergeName":"辽宁省,沈阳市,沈河区,泉园街道","lng":123.51531672168736,"lat":41.78119983875353,"info":"直接检索POI第一个结果成功!","tag":""},{"name":"马官桥街道","code":"210103022","level":4,"mergeName":"辽宁省,沈阳市,沈河区,马官桥街道","lng":123.56514887239511,"lat":41.827549635675105,"info":"直接检索POI第一个结果成功!","tag":["交通设施","桥","陆地桥"]},{"name":"东陵街道","code":"210103023","level":4,"mergeName":"辽宁省,沈阳市,沈河区,东陵街道","lng":123.53735736601908,"lat":41.81905417554148,"info":"直接检索POI第一个结果成功!","tag":["行政地标","乡镇"]},{"name":"大东区","code":"210104","level":3,"mergeName":"辽宁省,沈阳市,大东区","lng":123.47640419309779,"lat":41.81142436799772,"info":"直接检索POI第一个结果成功!","tag":""},{"name":"大北街道","code":"210104002","level":4,"mergeName":"辽宁省,沈阳市,大东区,大北街道","lng":123.46888573530147,"lat":41.81342861515958,"info":"直接检索POI第一个结果成功!","tag":["行政地标","乡镇"]},{"name":"万泉街道","code":"210104003","level":4,"mergeName":"辽宁省,沈阳市,大东区,万泉街道","lng":123.48585257045175,"lat":41.802726243660885,"info":"直接检索POI第一个结果成功!","tag":["行政地标","乡镇"]},{"name":"文官街道","code":"210104006","level":4,"mergeName":"辽宁省,沈阳市,大东区,文官街道","lng":123.49316522645572,"lat":41.87926491115851,"info":"直接检索POI第一个结果成功!","tag":["行政地标","乡镇"]},{"name":"二台子街道","code":"210104007","level":4,"mergeName":"辽宁省,沈阳市,大东区,二台子街道","lng":123.5027552665886,"lat":41.8401184865861,"info":"直接检索POI第一个结果成功!","tag":["行政地标","乡镇"]},{"name":"津桥街道","code":"210104008","level":4,"mergeName":"辽宁省,沈阳市,大东区,津桥街道","lng":123.48730369317256,"lat":41.81684285409132,"info":"直接检索POI第一个结果成功!","tag":["行政地标","乡镇"]},{"name":"东站街道","code":"210104009","level":4,"mergeName":"辽宁省,沈阳市,大东区,东站街道","lng":123.51638561541368,"lat":41.84158710888177,"info":"直接检索POI第一个结果成功!","tag":["行政地标","乡镇"]},{"name":"长安街道","code":"210104012","level":4,"mergeName":"辽宁省,沈阳市,大东区,长安街道","lng":123.49216801750909,"lat":41.80276966599204,"info":"直接检索POI第一个结果成功!","tag":["行政地标","乡镇"]},{"name":"东塔街道","code":"210104015","level":4,"mergeName":"辽宁省,沈阳市,大东区,东塔街道","lng":123.51199137435053,"lat":41.814699802821714,"info":"直接检索POI第一个结果成功!","tag":["行政地标","乡镇"]},{"name":"上园街道","code":"210104017","level":4,"mergeName":"辽宁省,沈阳市,大东区,上园街道","lng":123.48802404436101,"lat":41.838145244817255,"info":"直接检索POI第一个结果成功!","tag":["政府机构"]},{"name":"前进街道","code":"210104018","level":4,"mergeName":"辽宁省,沈阳市,大东区,前进街道","lng":123.5140668194008,"lat":41.86391052601603,"info":"直接检索POI第一个结果成功!","tag":["行政地标","乡镇"]},{"name":"皇姑区","code":"210105","level":3,"mergeName":"辽宁省,沈阳市,皇姑区","lng":123.4316236634254,"lat":41.8260438000918,"info":"直接检索POI第一个结果成功!","tag":""},{"name":"三台子街道","code":"210105001","level":4,"mergeName":"辽宁省,沈阳市,皇姑区,三台子街道","lng":123.42975554728683,"lat":41.88720502682298,"info":"直接检索POI第一个结果成功!","tag":["名称标注类"]},{"name":"黄河街道","code":"210105008","level":4,"mergeName":"辽宁省,沈阳市,皇姑区,黄河街道","lng":123.4296526014754,"lat":41.82706370842775,"info":"直接检索POI第一个结果成功!","tag":["行政地标","乡镇"]},{"name":"华山街道","code":"210105013","level":4,"mergeName":"辽宁省,沈阳市,皇姑区,华山街道","lng":123.40800433699043,"lat":41.821972537054805,"info":"直接检索POI第一个结果成功!","tag":["行政地标","乡镇"]},{"name":"明廉街道","code":"210105017","level":4,"mergeName":"辽宁省,沈阳市,皇姑区,明廉街道","lng":123.37139704000057,"lat":41.83676394582192,"info":"直接检索POI第一个结果成功!","tag":["行政地标","乡镇"]},{"name":"新乐街道","code":"210105019","level":4,"mergeName":"辽宁省,沈阳市,皇姑区,新乐街道","lng":123.42152626034049,"lat":41.84133298094177,"info":"直接检索POI第一个结果成功!","tag":["行政地标","乡镇"]},{"name":"舍利塔街道","code":"210105020","level":4,"mergeName":"辽宁省,沈阳市,皇姑区,舍利塔街道","lng":123.41328304965873,"lat":41.82891487515421,"info":"直接检索POI第一个结果成功!","tag":["行政地标","乡镇"]},{"name":"北塔街道","code":"210105021","level":4,"mergeName":"辽宁省,沈阳市,皇姑区,北塔街道","lng":123.43908382119412,"lat":41.831644056749155,"info":"直接检索POI第一个结果成功!","tag":["行政地标","乡镇"]},{"name":"陵东街道","code":"210105022","level":4,"mergeName":"辽宁省,沈阳市,皇姑区,陵东街道","lng":123.47050232589724,"lat":41.85775750987988,"info":"直接检索POI第一个结果成功!","tag":["行政地标","乡镇"]},{"name":"鸭绿江街道","code":"210105023","level":4,"mergeName":"辽宁省,沈阳市,皇姑区,鸭绿江街道","lng":123.44125358832291,"lat":41.90484566192885,"info":"直接检索POI第一个结果成功!","tag":""},{"name":"四台子街道","code":"210105024","level":4,"mergeName":"辽宁省,沈阳市,皇姑区,四台子街道","lng":123.41861853523524,"lat":41.90671247854296,"info":"直接检索POI第一个结果成功!","tag":""},{"name":"铁西区","code":"210106","level":3,"mergeName":"辽宁省,沈阳市,铁西区","lng":123.38343855587017,"lat":41.80903843711196,"info":"直接检索POI第一个结果成功!","tag":""},{"name":"昆明湖街道","code":"210106001","level":4,"mergeName":"辽宁省,沈阳市,铁西区,昆明湖街道","lng":123.3400141980262,"lat":41.78782350828754,"info":"直接检索POI第一个结果成功!","tag":["行政地标","乡镇"]},{"name":"工人村街道","code":"210106003","level":4,"mergeName":"辽宁省,沈阳市,铁西区,工人村街道","lng":123.33050787996685,"lat":41.79733102360052,"info":"直接检索POI第一个结果成功!","tag":""},{"name":"启工街道","code":"210106007","level":4,"mergeName":"辽宁省,沈阳市,铁西区,启工街道","lng":123.34624349758514,"lat":41.83129999282464,"info":"直接检索POI第一个结果成功!","tag":["行政地标","乡镇"]},{"name":"笃工街道","code":"210106013","level":4,"mergeName":"辽宁省,沈阳市,铁西区,笃工街道","lng":123.38130813452271,"lat":41.8185855882599,"info":"直接检索POI第一个结果成功!","tag":["行政地标","乡镇"]},{"name":"兴华街道","code":"210106015","level":4,"mergeName":"辽宁省,沈阳市,铁西区,兴华街道","lng":123.38190802294227,"lat":41.79155180522894,"info":"直接检索POI第一个结果成功!","tag":["政府机构","各级政府"]},{"name":"霁虹街道","code":"210106019","level":4,"mergeName":"辽宁省,沈阳市,铁西区,霁虹街道","lng":123.39093527467314,"lat":41.818753051657545,"info":"直接检索POI第一个结果成功!","tag":["政府机构","各级政府"]},{"name":"凌空街道","code":"210106020","level":4,"mergeName":"辽宁省,沈阳市,铁西区,凌空街道","lng":123.35908755959736,"lat":41.78166776020251,"info":"直接检索POI第一个结果成功!","tag":["行政地标","乡镇"]},{"name":"重工街道","code":"210106021","level":4,"mergeName":"辽宁省,沈阳市,铁西区,重工街道","lng":123.3426578213115,"lat":41.80330343560023,"info":"直接检索POI第一个结果成功!","tag":["行政地标","乡镇"]},{"name":"兴顺街道","code":"210106024","level":4,"mergeName":"辽宁省,沈阳市,铁西区,兴顺街道","lng":123.37036524629181,"lat":41.80256801404854,"info":"直接检索POI第一个结果成功!","tag":["行政地标","乡镇"]},{"name":"大青中朝友谊街道","code":"210106026","level":4,"mergeName":"辽宁省,沈阳市,铁西区,大青中朝友谊街道","lng":123.26087141649445,"lat":41.74775610046727,"info":"直接检索POI第一个结果成功!","tag":""},{"name":"翟家街道","code":"210106027","level":4,"mergeName":"辽宁省,沈阳市,铁西区,翟家街道","lng":123.26336861598165,"lat":41.752669027923105,"info":"直接检索POI第一个结果成功!","tag":["行政地标","乡镇"]},{"name":"大潘街道","code":"210106029","level":4,"mergeName":"辽宁省,沈阳市,铁西区,大潘街道","lng":123.15995999753945,"lat":41.69800744943354,"info":"直接检索POI第一个结果成功!","tag":""},{"name":"彰驿站街道","code":"210106030","level":4,"mergeName":"辽宁省,沈阳市,铁西区,彰驿站街道","lng":123.09618821141949,"lat":41.66542903554686,"info":"直接检索POI第一个结果成功!","tag":["行政地标","乡镇"]},{"name":"高花街道","code":"210106031","level":4,"mergeName":"辽宁省,沈阳市,铁西区,高花街道","lng":123.09238730114568,"lat":41.694873800909704,"info":"直接检索POI第一个结果成功!","tag":["行政地标","乡镇"]},{"name":"沈阳市经济技术开发区","code":"210106401","level":4,"mergeName":"辽宁省,沈阳市,铁西区,沈阳市经济技术开发区","lng":123.30284554992313,"lat":41.77381134755272,"info":"直接检索POI第一个结果成功!","tag":""},{"name":"苏家屯区","code":"210111","level":3,"mergeName":"辽宁省,沈阳市,苏家屯区","lng":123.35043481143359,"lat":41.6712522978387,"info":"直接检索POI第一个结果成功!","tag":""},{"name":"解放街道","code":"210111001","level":4,"mergeName":"辽宁省,沈阳市,苏家屯区,解放街道","lng":123.35624064977513,"lat":41.680924903056194,"info":"直接检索POI第一个结果成功!","tag":["行政地标","乡镇"]},{"name":"民主街道","code":"210111003","level":4,"mergeName":"辽宁省,沈阳市,苏家屯区,民主街道","lng":123.33399016127626,"lat":41.66124537053733,"info":"直接检索POI第一个结果成功!","tag":["行政地标","乡镇"]},{"name":"中兴街道","code":"210111005","level":4,"mergeName":"辽宁省,沈阳市,苏家屯区,中兴街道","lng":123.38476131073362,"lat":41.691786728630746,"info":"直接检索POI第一个结果成功!","tag":["行政地标","乡镇"]},{"name":"林盛街道","code":"210111009","level":4,"mergeName":"辽宁省,沈阳市,苏家屯区,林盛街道","lng":123.35976578025738,"lat":41.6071733606629,"info":"直接检索POI第一个结果成功!","tag":["政府机构"]},{"name":"沙河街道","code":"210111010","level":4,"mergeName":"辽宁省,沈阳市,苏家屯区,沙河街道","lng":123.41087927394457,"lat":41.59164599150709,"info":"直接检索POI第一个结果成功!","tag":["行政地标","乡镇"]},{"name":"十里河街道","code":"210111011","level":4,"mergeName":"辽宁省,沈阳市,苏家屯区,十里河街道","lng":123.38086500041463,"lat":41.52157731671681,"info":"直接检索POI第一个结果成功!","tag":["行政地标","乡镇"]},{"name":"陈相街道","code":"210111012","level":4,"mergeName":"辽宁省,沈阳市,苏家屯区,陈相街道","lng":123.52047604955337,"lat":41.573448864334125,"info":"直接检索POI第一个结果成功!","tag":["政府机构"]},{"name":"永乐街道","code":"210111015","level":4,"mergeName":"辽宁省,沈阳市,苏家屯区,永乐街道","lng":123.14853256331645,"lat":41.59376613205511,"info":"直接检索POI第一个结果成功!","tag":["行政地标","乡镇"]},{"name":"佟沟街道","code":"210111018","level":4,"mergeName":"辽宁省,沈阳市,苏家屯区,佟沟街道","lng":123.5547748810437,"lat":41.61147645698812,"info":"直接检索POI第一个结果成功!","tag":["行政地标","乡镇"]},{"name":"八一红菱街道","code":"210111019","level":4,"mergeName":"辽宁省,沈阳市,苏家屯区,八一红菱街道","lng":123.31007457368413,"lat":41.62083993735468,"info":"直接检索POI第一个结果成功!","tag":["行政地标","乡镇"]},{"name":"沈水街道","code":"210111020","level":4,"mergeName":"辽宁省,沈阳市,苏家屯区,沈水街道","lng":123.34324288769015,"lat":41.66567376187096,"info":"直接检索POI第一个结果成功!","tag":""},{"name":"白清姚千街道","code":"210111021","level":4,"mergeName":"辽宁省,沈阳市,苏家屯区,白清姚千街道","lng":123.69085990139466,"lat":41.58255228938785,"info":"直接检索POI第一个结果成功!","tag":["旅游景点"]},{"name":"浑南区","code":"210112","level":3,"mergeName":"辽宁省,沈阳市,浑南区","lng":123.45598570885599,"lat":41.72091479394142,"info":"直接检索POI第一个结果成功!","tag":""},{"name":"东湖街道","code":"210112009","level":4,"mergeName":"辽宁省,沈阳市,浑南区,东湖街道","lng":123.58246937042466,"lat":41.7534409480576,"info":"直接检索POI第一个结果成功!","tag":["行政地标","乡镇"]},{"name":"五三街道","code":"210112010","level":4,"mergeName":"辽宁省,沈阳市,浑南区,五三街道","lng":123.49000840123254,"lat":41.74595195257595,"info":"直接检索POI第一个结果成功!","tag":""},{"name":"浑河站东街道","code":"210112012","level":4,"mergeName":"辽宁省,沈阳市,浑南区,浑河站东街道","lng":123.4290052825249,"lat":41.7366460924481,"info":"直接检索POI第一个结果成功!","tag":["行政地标","乡镇"]},{"name":"高坎街道","code":"210112014","level":4,"mergeName":"辽宁省,沈阳市,浑南区,高坎街道","lng":123.69357107725433,"lat":41.86218709963172,"info":"直接检索POI第一个结果成功!","tag":["行政地标","乡镇"]},{"name":"满堂街道","code":"210112015","level":4,"mergeName":"辽宁省,沈阳市,浑南区,满堂街道","lng":123.6570339379248,"lat":41.88936576973354,"info":"直接检索POI第一个结果成功!","tag":["行政地标","乡镇"]},{"name":"深井子街道","code":"210112016","level":4,"mergeName":"辽宁省,沈阳市,浑南区,深井子街道","lng":123.66464186694989,"lat":41.787106665972544,"info":"直接检索POI第一个结果成功!","tag":["行政地标","乡镇"]},{"name":"祝家街道","code":"210112017","level":4,"mergeName":"辽宁省,沈阳市,浑南区,祝家街道","lng":123.64497724069207,"lat":41.690256469040214,"info":"直接检索POI第一个结果成功!","tag":""},{"name":"白塔街道","code":"210112018","level":4,"mergeName":"辽宁省,沈阳市,浑南区,白塔街道","lng":123.43250373333352,"lat":41.684929093853796,"info":"直接检索POI第一个结果成功!","tag":""},{"name":"桃仙街道","code":"210112019","level":4,"mergeName":"辽宁省,沈阳市,浑南区,桃仙街道","lng":123.53086117989312,"lat":41.6654036400007,"info":"直接检索POI第一个结果成功!","tag":["行政地标","乡镇"]},{"name":"李相街道","code":"210112020","level":4,"mergeName":"辽宁省,沈阳市,浑南区,李相街道","lng":123.62340533217545,"lat":41.65036501004539,"info":"直接检索POI第一个结果成功!","tag":["行政地标","乡镇"]},{"name":"汪家街道","code":"210112022","level":4,"mergeName":"辽宁省,沈阳市,浑南区,汪家街道","lng":123.63091956793588,"lat":41.80753155801206,"info":"直接检索POI第一个结果成功!","tag":["行政地标","乡镇"]},{"name":"王滨街道","code":"210112023","level":4,"mergeName":"辽宁省,沈阳市,浑南区,王滨街道","lng":123.76341792387716,"lat":41.7190678202703,"info":"直接检索POI第一个结果成功!","tag":["行政地标","乡镇"]},{"name":"沈北新区","code":"210113","level":3,"mergeName":"辽宁省,沈阳市,沈北新区","lng":123.5336082879732,"lat":42.05891485216694,"info":"直接检索POI第一个结果成功!","tag":""},{"name":"新城子街道","code":"210113001","level":4,"mergeName":"辽宁省,沈阳市,沈北新区,新城子街道","lng":123.52241342504674,"lat":42.060609428760046,"info":"直接检索POI第一个结果成功!","tag":["行政地标","乡镇"]},{"name":"清水台街道","code":"210113002","level":4,"mergeName":"辽宁省,沈阳市,沈北新区,清水台街道","lng":123.61891865547533,"lat":42.032220383136156,"info":"直接检索POI第一个结果成功!","tag":["行政地标","乡镇"]},{"name":"辉山街道","code":"210113003","level":4,"mergeName":"辽宁省,沈阳市,沈北新区,辉山街道","lng":123.58296254014965,"lat":41.93606871497839,"info":"直接检索POI第一个结果成功!","tag":["政府机构"]},{"name":"道义街道","code":"210113004","level":4,"mergeName":"辽宁省,沈阳市,沈北新区,道义街道","lng":123.42594062344706,"lat":41.949756535556155,"info":"直接检索POI第一个结果成功!","tag":["行政地标","乡镇"]},{"name":"虎石台街道","code":"210113006","level":4,"mergeName":"辽宁省,沈阳市,沈北新区,虎石台街道","lng":123.52386912912566,"lat":41.94954052966924,"info":"直接检索POI第一个结果成功!","tag":["政府机构","各级政府"]},{"name":"财落街道","code":"210113007","level":4,"mergeName":"辽宁省,沈阳市,沈北新区,财落街道","lng":123.43913565342203,"lat":42.02449169462599,"info":"直接检索POI第一个结果成功!","tag":["名称标注类"]},{"name":"马刚街道","code":"210113010","level":4,"mergeName":"辽宁省,沈阳市,沈北新区,马刚街道","lng":123.66125929755206,"lat":42.030739768031275,"info":"直接检索POI第一个结果成功!","tag":["行政地标","乡镇"]},{"name":"黄家街道","code":"210113012","level":4,"mergeName":"辽宁省,沈阳市,沈北新区,黄家街道","lng":123.51123976213033,"lat":42.11963775964521,"info":"直接检索POI第一个结果成功!","tag":["行政地标","乡镇"]},{"name":"兴隆台街道","code":"210113014","level":4,"mergeName":"辽宁省,沈阳市,沈北新区,兴隆台街道","lng":123.36370125669659,"lat":42.07012513654179,"info":"直接检索POI第一个结果成功!","tag":["行政地标","乡镇"]},{"name":"正良街道","code":"210113016","level":4,"mergeName":"辽宁省,沈阳市,沈北新区,正良街道","lng":123.38532508727168,"lat":41.92998823931908,"info":"直接检索POI第一个结果成功!","tag":""},{"name":"青年农场","code":"210113401","level":4,"mergeName":"辽宁省,沈阳市,沈北新区,青年农场","lng":123.37788379391868,"lat":42.06952794940772,"info":"直接检索POI第一个结果成功!","tag":["名称标注类"]},{"name":"前进农场","code":"210113402","level":4,"mergeName":"辽宁省,沈阳市,沈北新区,前进农场","lng":123.54335490275645,"lat":42.09188627520329,"info":"直接检索POI第一个结果成功!","tag":""},{"name":"育新农场","code":"210113403","level":4,"mergeName":"辽宁省,沈阳市,沈北新区,育新农场","lng":108.61590699924051,"lat":34.201400069219574,"info":"直接检索POI第一个结果成功!","tag":""},{"name":"沈北新区马刚林场","code":"210113404","level":4,"mergeName":"辽宁省,沈阳市,沈北新区,沈北新区马刚林场","lng":123.67496187014018,"lat":42.02617828798645,"info":"直接检索POI第一个结果成功!","tag":["公司企业","农林园艺"]},{"name":"沈北新区示范农场","code":"210113405","level":4,"mergeName":"辽宁省,沈阳市,沈北新区,沈北新区示范农场","lng":123.52845120587097,"lat":42.08811975458251,"info":"直接检索POI第一个结果成功!","tag":""},{"name":"沈北新区种畜场","code":"210113406","level":4,"mergeName":"辽宁省,沈阳市,沈北新区,沈北新区种畜场","lng":123.55331890747311,"lat":41.955437741970556,"info":"直接检索POI第一个结果成功!","tag":""},{"name":"于洪区","code":"210114","level":3,"mergeName":"辽宁省,沈阳市,于洪区","lng":123.31463733686097,"lat":41.799668591717456,"info":"直接检索POI第一个结果成功!","tag":""},{"name":"迎宾路街道","code":"210114001","level":4,"mergeName":"辽宁省,沈阳市,于洪区,迎宾路街道","lng":123.31754281620243,"lat":41.80377468974362,"info":"直接检索POI第一个结果成功!","tag":["行政地标","乡镇"]},{"name":"陵西街道","code":"210114003","level":4,"mergeName":"辽宁省,沈阳市,于洪区,陵西街道","lng":123.41046461612117,"lat":41.85778719417671,"info":"直接检索POI第一个结果成功!","tag":["行政地标","乡镇"]},{"name":"北陵街道","code":"210114007","level":4,"mergeName":"辽宁省,沈阳市,于洪区,北陵街道","lng":123.39936290747612,"lat":41.86679922856118,"info":"直接检索POI第一个结果成功!","tag":["行政地标","乡镇"]},{"name":"沙岭街道","code":"210114009","level":4,"mergeName":"辽宁省,沈阳市,于洪区,沙岭街道","lng":123.18779345478279,"lat":41.790817256242875,"info":"直接检索POI第一个结果成功!","tag":["行政地标","乡镇"]},{"name":"南阳湖街道","code":"210114010","level":4,"mergeName":"辽宁省,沈阳市,于洪区,南阳湖街道","lng":123.31238294935311,"lat":41.76909784154156,"info":"直接检索POI第一个结果成功!","tag":["行政地标","乡镇"]},{"name":"城东湖街道","code":"210114011","level":4,"mergeName":"辽宁省,沈阳市,于洪区,城东湖街道","lng":123.3377967308748,"lat":41.76135368314828,"info":"直接检索POI第一个结果成功!","tag":["行政地标","乡镇"]},{"name":"平罗街道","code":"210114012","level":4,"mergeName":"辽宁省,沈阳市,于洪区,平罗街道","lng":123.34197241420739,"lat":41.9479245864215,"info":"直接检索POI第一个结果成功!","tag":["名称标注类"]},{"name":"马三家街道","code":"210114013","level":4,"mergeName":"辽宁省,沈阳市,于洪区,马三家街道","lng":123.23986921333227,"lat":41.89418084214651,"info":"直接检索POI第一个结果成功!","tag":""},{"name":"造化街道","code":"210114014","level":4,"mergeName":"辽宁省,沈阳市,于洪区,造化街道","lng":123.36621660195507,"lat":41.88861066930845,"info":"直接检索POI第一个结果成功!","tag":["行政地标","乡镇"]},{"name":"光辉街道","code":"210114016","level":4,"mergeName":"辽宁省,沈阳市,于洪区,光辉街道","lng":123.1605410215433,"lat":41.96364736401764,"info":"直接检索POI第一个结果成功!","tag":["行政地标","乡镇"]},{"name":"马三家强制隔离戒毒所","code":"210114401","level":4,"mergeName":"辽宁省,沈阳市,于洪区,马三家强制隔离戒毒所","lng":123.24367093208106,"lat":41.90467265413924,"info":"直接检索POI第一个结果成功!","tag":["交通设施","火车站","客运火车站主点"]},{"name":"光辉农场","code":"210114402","level":4,"mergeName":"辽宁省,沈阳市,于洪区,光辉农场","lng":123.16822602518116,"lat":41.95849935999871,"info":"直接检索POI第一个结果成功!","tag":["交通设施","公交车站","公交车站主点"]},{"name":"监狱城","code":"210114404","level":4,"mergeName":"辽宁省,沈阳市,于洪区,监狱城","lng":123.31772220781278,"lat":41.977301802537106,"info":"直接检索POI第一个结果成功!","tag":["交通设施","公交车站","公交车站主点"]},{"name":"辽中区","code":"210115","level":3,"mergeName":"辽宁省,沈阳市,辽中区","lng":122.77237521576278,"lat":41.52315036456966,"info":"直接检索POI第一个结果成功!","tag":""},{"name":"蒲西街道","code":"210115001","level":4,"mergeName":"辽宁省,沈阳市,辽中区,蒲西街道","lng":122.73864123877713,"lat":41.50897662338902,"info":"直接检索POI第一个结果成功!","tag":["行政地标","乡镇"]},{"name":"蒲东街道","code":"210115002","level":4,"mergeName":"辽宁省,沈阳市,辽中区,蒲东街道","lng":122.7845044960807,"lat":41.523524244696674,"info":"直接检索POI第一个结果成功!","tag":""},{"name":"茨榆坨街道","code":"210115003","level":4,"mergeName":"辽宁省,沈阳市,辽中区,茨榆坨街道","lng":122.89345233578909,"lat":41.513699615650815,"info":"直接检索POI第一个结果成功!","tag":["行政地标","乡镇"]},{"name":"城郊街道","code":"210115004","level":4,"mergeName":"辽宁省,沈阳市,辽中区,城郊街道","lng":122.71547735323573,"lat":41.52154936607609,"info":"直接检索POI第一个结果成功!","tag":["行政地标","乡镇"]},{"name":"于家房镇","code":"210115101","level":4,"mergeName":"辽宁省,沈阳市,辽中区,于家房镇","lng":122.62749335904425,"lat":41.259735336978196,"info":"直接检索POI第一个结果成功!","tag":["行政地标","乡镇"]},{"name":"朱家房镇","code":"210115102","level":4,"mergeName":"辽宁省,沈阳市,辽中区,朱家房镇","lng":122.67595370740771,"lat":41.3488493184491,"info":"直接检索POI第一个结果成功!","tag":["行政地标","乡镇"]},{"name":"冷子堡镇","code":"210115103","level":4,"mergeName":"辽宁省,沈阳市,辽中区,冷子堡镇","lng":122.80373640857437,"lat":41.70535457933802,"info":"直接检索POI第一个结果成功!","tag":["行政地标","乡镇"]},{"name":"刘二堡镇","code":"210115104","level":4,"mergeName":"辽宁省,沈阳市,辽中区,刘二堡镇","lng":122.89247821329407,"lat":41.66760573989279,"info":"直接检索POI第一个结果成功!","tag":["行政地标","乡镇"]},{"name":"新民屯镇","code":"210115106","level":4,"mergeName":"辽宁省,沈阳市,辽中区,新民屯镇","lng":123.04729263403642,"lat":41.64987328310487,"info":"直接检索POI第一个结果成功!","tag":["行政地标","商圈","弱商圈"]},{"name":"满都户镇","code":"210115107","level":4,"mergeName":"辽宁省,沈阳市,辽中区,满都户镇","lng":122.64676740206633,"lat":41.61025164388148,"info":"直接检索POI第一个结果成功!","tag":["行政地标","乡镇"]},{"name":"杨士岗镇","code":"210115108","level":4,"mergeName":"辽宁省,沈阳市,辽中区,杨士岗镇","lng":122.99533275689772,"lat":41.698791073171925,"info":"直接检索POI第一个结果成功!","tag":["行政地标","乡镇"]},{"name":"肖寨门镇","code":"210115109","level":4,"mergeName":"辽宁省,沈阳市,辽中区,肖寨门镇","lng":122.87633512429646,"lat":41.47379617553964,"info":"直接检索POI第一个结果成功!","tag":["行政地标","乡镇"]},{"name":"长滩镇","code":"210115110","level":4,"mergeName":"辽宁省,沈阳市,辽中区,长滩镇","lng":123.05303469268677,"lat":41.56388900135891,"info":"检索POI失败,BMAP_STATUE_CODE:1 ,GetPoint结果: 直接查询获得"},{"name":"四方台镇","code":"210115111","level":4,"mergeName":"辽宁省,沈阳市,辽中区,四方台镇","lng":122.97266392752287,"lat":41.58720539217516,"info":"直接检索POI第一个结果成功!","tag":["行政地标","乡镇"]},{"name":"六间房镇","code":"210115113","level":4,"mergeName":"辽宁省,沈阳市,辽中区,六间房镇","lng":122.70670809484733,"lat":41.46180308854576,"info":"直接检索POI第一个结果成功!","tag":["行政地标","乡镇"]},{"name":"养士堡镇","code":"210115114","level":4,"mergeName":"辽宁省,沈阳市,辽中区,养士堡镇","lng":122.76844270373175,"lat":41.63181159046653,"info":"直接检索POI第一个结果成功!","tag":["行政地标","乡镇"]},{"name":"潘家堡镇","code":"210115115","level":4,"mergeName":"辽宁省,沈阳市,辽中区,潘家堡镇","lng":122.85440461222026,"lat":41.61504316104216,"info":"直接检索POI第一个结果成功!","tag":["行政地标","乡镇"]},{"name":"老大房镇","code":"210115117","level":4,"mergeName":"辽宁省,沈阳市,辽中区,老大房镇","lng":122.66608429426124,"lat":41.675376374992155,"info":"直接检索POI第一个结果成功!","tag":["行政地标","乡镇"]},{"name":"大黑岗子镇","code":"210115118","level":4,"mergeName":"辽宁省,沈阳市,辽中区,大黑岗子镇","lng":122.648267572268,"lat":41.72961986037548,"info":"直接检索POI第一个结果成功!","tag":["行政地标","乡镇"]},{"name":"牛心坨镇","code":"210115119","level":4,"mergeName":"辽宁省,沈阳市,辽中区,牛心坨镇","lng":122.56517053971189,"lat":41.601614586739714,"info":"直接检索POI第一个结果成功!","tag":""},{"name":"四方台农场","code":"210115401","level":4,"mergeName":"辽宁省,沈阳市,辽中区,四方台农场","lng":122.94967530138649,"lat":41.593832153499896,"info":"直接检索POI第一个结果成功!","tag":""},{"name":"康平县","code":"210123","level":3,"mergeName":"辽宁省,沈阳市,康平县","lng":123.337508195145,"lat":42.74992629020435,"info":"直接检索POI第一个结果成功!","tag":""},{"name":"北三家子街道","code":"210123001","level":4,"mergeName":"辽宁省,沈阳市,康平县,北三家子街道","lng":123.47306752711154,"lat":42.97278574144377,"info":"直接检索POI第一个结果成功!","tag":["行政地标","乡镇"]},{"name":"胜利街道","code":"210123002","level":4,"mergeName":"辽宁省,沈阳市,康平县,胜利街道","lng":123.37723943937637,"lat":42.748878223232026,"info":"直接检索POI第一个结果成功!","tag":["行政地标","乡镇"]},{"name":"东关街道","code":"210123003","level":4,"mergeName":"辽宁省,沈阳市,康平县,东关街道","lng":123.36309292420523,"lat":42.71465085222448,"info":"直接检索POI第一个结果成功!","tag":["行政地标","乡镇"]},{"name":"小城子镇","code":"210123101","level":4,"mergeName":"辽宁省,沈阳市,康平县,小城子镇","lng":123.21738256031485,"lat":42.89710995699585,"info":"直接检索POI第一个结果成功!","tag":["行政地标","乡镇"]},{"name":"张强镇","code":"210123102","level":4,"mergeName":"辽宁省,沈阳市,康平县,张强镇","lng":123.02110154875696,"lat":42.70566902882022,"info":"直接检索POI第一个结果成功!","tag":["行政地标","乡镇"]},{"name":"方家屯镇","code":"210123103","level":4,"mergeName":"辽宁省,沈阳市,康平县,方家屯镇","lng":123.2404567051358,"lat":42.64055826570774,"info":"直接检索POI第一个结果成功!","tag":["行政地标","乡镇"]},{"name":"郝官屯镇","code":"210123105","level":4,"mergeName":"辽宁省,沈阳市,康平县,郝官屯镇","lng":123.5064923971712,"lat":42.68233912499918,"info":"直接检索POI第一个结果成功!","tag":["行政地标","乡镇"]},{"name":"二牛所口镇","code":"210123106","level":4,"mergeName":"辽宁省,沈阳市,康平县,二牛所口镇","lng":123.16254334452502,"lat":42.770330774265794,"info":"直接检索POI第一个结果成功!","tag":["行政地标","乡镇"]},{"name":"北四家子乡","code":"210123203","level":4,"mergeName":"辽宁省,沈阳市,康平县,北四家子乡","lng":123.49905838009283,"lat":42.856875588174255,"info":"直接检索POI第一个结果成功!","tag":["行政地标","乡镇"]},{"name":"两家子乡","code":"210123204","level":4,"mergeName":"辽宁省,沈阳市,康平县,两家子乡","lng":123.4998432296169,"lat":42.78504289234684,"info":"直接检索POI第一个结果成功!","tag":["行政地标","乡镇"]},{"name":"海洲窝堡乡","code":"210123206","level":4,"mergeName":"辽宁省,沈阳市,康平县,海洲窝堡乡","lng":123.38579633834222,"lat":42.947619833547165,"info":"直接检索POI第一个结果成功!","tag":["行政地标","乡镇"]},{"name":"沙金台蒙古族满族乡","code":"210123208","level":4,"mergeName":"辽宁省,沈阳市,康平县,沙金台蒙古族满族乡","lng":122.90209960428923,"lat":42.68088625565922,"info":"直接检索POI第一个结果成功!","tag":["行政地标","乡镇"]},{"name":"柳树屯蒙古族满族乡","code":"210123209","level":4,"mergeName":"辽宁省,沈阳市,康平县,柳树屯蒙古族满族乡","lng":122.98710095469595,"lat":42.63821158916664,"info":"直接检索POI第一个结果成功!","tag":["行政地标","乡镇"]},{"name":"西关屯蒙古族满族乡","code":"210123210","level":4,"mergeName":"辽宁省,沈阳市,康平县,西关屯蒙古族满族乡","lng":123.1900506270377,"lat":42.588141106622516,"info":"直接检索POI第一个结果成功!","tag":["行政地标","乡镇"]},{"name":"东升满族蒙古族乡","code":"210123211","level":4,"mergeName":"辽宁省,沈阳市,康平县,东升满族蒙古族乡","lng":123.14275960295657,"lat":42.66281333344342,"info":"直接检索POI第一个结果成功!","tag":["行政地标","乡镇"]},{"name":"法库县","code":"210124","level":3,"mergeName":"辽宁省,沈阳市,法库县","lng":123.41461874012151,"lat":42.50960721455372,"info":"直接检索POI第一个结果成功!","tag":""},{"name":"吉祥街道","code":"210124001","level":4,"mergeName":"辽宁省,沈阳市,法库县,吉祥街道","lng":123.43506300573144,"lat":42.50849118936048,"info":"直接检索POI第一个结果成功!","tag":""},{"name":"龙山街道","code":"210124002","level":4,"mergeName":"辽宁省,沈阳市,法库县,龙山街道","lng":123.29410252205562,"lat":42.45325974337819,"info":"直接检索POI第一个结果成功!","tag":["行政地标","乡镇"]},{"name":"大孤家子镇","code":"210124101","level":4,"mergeName":"辽宁省,沈阳市,法库县,大孤家子镇","lng":123.38858162440644,"lat":42.329641665243585,"info":"直接检索POI第一个结果成功!","tag":["行政地标","乡镇"]},{"name":"三面船镇","code":"210124102","level":4,"mergeName":"辽宁省,沈阳市,法库县,三面船镇","lng":123.30943884287473,"lat":42.20531851012133,"info":"直接检索POI第一个结果成功!","tag":["行政地标","乡镇"]},{"name":"秀水河子镇","code":"210124103","level":4,"mergeName":"辽宁省,沈阳市,法库县,秀水河子镇","lng":123.03687166130682,"lat":42.36518253799999,"info":"直接检索POI第一个结果成功!","tag":["行政地标","乡镇"]},{"name":"叶茂台镇","code":"210124104","level":4,"mergeName":"辽宁省,沈阳市,法库县,叶茂台镇","lng":122.89126828560268,"lat":42.33467983806439,"info":"直接检索POI第一个结果成功!","tag":["行政地标","乡镇"]},{"name":"登仕堡子镇","code":"210124105","level":4,"mergeName":"辽宁省,沈阳市,法库县,登仕堡子镇","lng":123.1349371585757,"lat":42.29367697495996,"info":"直接检索POI第一个结果成功!","tag":["行政地标","乡镇"]},{"name":"柏家沟镇","code":"210124106","level":4,"mergeName":"辽宁省,沈阳市,法库县,柏家沟镇","lng":123.62251035039587,"lat":42.56351128484048,"info":"直接检索POI第一个结果成功!","tag":["行政地标","乡镇"]},{"name":"丁家房镇","code":"210124107","level":4,"mergeName":"辽宁省,沈阳市,法库县,丁家房镇","lng":123.19102870207698,"lat":42.34812506155468,"info":"直接检索POI第一个结果成功!","tag":["行政地标","乡镇"]},{"name":"孟家镇","code":"210124108","level":4,"mergeName":"辽宁省,沈阳市,法库县,孟家镇","lng":123.43677230145583,"lat":42.55349831182945,"info":"直接检索POI第一个结果成功!","tag":["行政地标","乡镇"]},{"name":"十间房镇","code":"210124109","level":4,"mergeName":"辽宁省,沈阳市,法库县,十间房镇","lng":123.40972764628077,"lat":42.42912356774403,"info":"直接检索POI第一个结果成功!","tag":["行政地标","乡镇"]},{"name":"冯贝堡镇","code":"210124110","level":4,"mergeName":"辽宁省,沈阳市,法库县,冯贝堡镇","lng":123.45959339361461,"lat":42.32510478889967,"info":"直接检索POI第一个结果成功!","tag":["行政地标","乡镇"]},{"name":"依牛堡子镇","code":"210124111","level":4,"mergeName":"辽宁省,沈阳市,法库县,依牛堡子镇","lng":123.37594201672832,"lat":42.22516865747977,"info":"直接检索POI第一个结果成功!","tag":["行政地标","乡镇"]},{"name":"包家屯镇","code":"210124113","level":4,"mergeName":"辽宁省,沈阳市,法库县,包家屯镇","lng":122.95463511559873,"lat":42.48434261777412,"info":"直接检索POI第一个结果成功!","tag":["行政地标","乡镇"]},{"name":"慈恩寺乡","code":"210124201","level":4,"mergeName":"辽宁省,沈阳市,法库县,慈恩寺乡","lng":123.3526780599531,"lat":42.56487321738574,"info":"直接检索POI第一个结果成功!","tag":["行政地标","乡镇"]},{"name":"和平乡","code":"210124203","level":4,"mergeName":"辽宁省,沈阳市,法库县,和平乡","lng":123.61392901752015,"lat":42.644628142933385,"info":"直接检索POI第一个结果成功!","tag":["行政地标","乡镇"]},{"name":"四家子蒙古族乡","code":"210124208","level":4,"mergeName":"辽宁省,沈阳市,法库县,四家子蒙古族乡","lng":123.19999235377774,"lat":42.503282474027195,"info":"直接检索POI第一个结果成功!","tag":["行政地标","乡镇"]},{"name":"双台子乡","code":"210124209","level":4,"mergeName":"辽宁省,沈阳市,法库县,双台子乡","lng":123.19586284334837,"lat":42.414756228037696,"info":"直接检索POI第一个结果成功!","tag":["行政地标","乡镇"]},{"name":"卧牛石乡","code":"210124210","level":4,"mergeName":"辽宁省,沈阳市,法库县,卧牛石乡","lng":123.06706487729436,"lat":42.52308686219529,"info":"直接检索POI第一个结果成功!","tag":["行政地标","乡镇"]},{"name":"新民市","code":"210181","level":3,"mergeName":"辽宁省,沈阳市,新民市","lng":122.87539289164704,"lat":42.00711099568491,"info":"直接检索POI第一个结果成功!","tag":""},{"name":"东城街道","code":"210181001","level":4,"mergeName":"辽宁省,沈阳市,新民市,东城街道","lng":122.84440413629989,"lat":41.99406707038038,"info":"直接检索POI第一个结果成功!","tag":""},{"name":"辽滨街道","code":"210181002","level":4,"mergeName":"辽宁省,沈阳市,新民市,辽滨街道","lng":122.84043048187651,"lat":41.98997937973818,"info":"直接检索POI第一个结果成功!","tag":["行政地标","乡镇"]},{"name":"西城街道","code":"210181003","level":4,"mergeName":"辽宁省,沈阳市,新民市,西城街道","lng":122.82908003243573,"lat":42.0006028048203,"info":"直接检索POI第一个结果成功!","tag":["行政地标","乡镇"]},{"name":"新柳街道","code":"210181004","level":4,"mergeName":"辽宁省,沈阳市,新民市,新柳街道","lng":122.83212025760369,"lat":42.00491641307644,"info":"直接检索POI第一个结果成功!","tag":["行政地标","乡镇"]},{"name":"大红旗镇","code":"210181101","level":4,"mergeName":"辽宁省,沈阳市,新民市,大红旗镇","lng":122.61757175434764,"lat":41.91286671856363,"info":"直接检索POI第一个结果成功!","tag":["行政地标","乡镇"]},{"name":"梁山镇","code":"210181102","level":4,"mergeName":"辽宁省,沈阳市,新民市,梁山镇","lng":122.65016793757435,"lat":42.06461121483272,"info":"直接检索POI第一个结果成功!","tag":["行政地标","乡镇"]},{"name":"公主屯镇","code":"210181103","level":4,"mergeName":"辽宁省,沈阳市,新民市,公主屯镇","lng":123.00954233311566,"lat":42.165139617969984,"info":"直接检索POI第一个结果成功!","tag":["行政地标","乡镇"]},{"name":"兴隆镇","code":"210181104","level":4,"mergeName":"辽宁省,沈阳市,新民市,兴隆镇","lng":123.05037454058005,"lat":41.97875927183964,"info":"直接检索POI第一个结果成功!","tag":["行政地标","乡镇"]},{"name":"前当堡镇","code":"210181105","level":4,"mergeName":"辽宁省,沈阳市,新民市,前当堡镇","lng":122.88651229691065,"lat":41.78901452978709,"info":"直接检索POI第一个结果成功!","tag":["行政地标","乡镇"]},{"name":"大民屯镇","code":"210181106","level":4,"mergeName":"辽宁省,沈阳市,新民市,大民屯镇","lng":122.95662369450616,"lat":41.86820552476307,"info":"直接检索POI第一个结果成功!","tag":["行政地标","乡镇"]},{"name":"大柳屯镇","code":"210181107","level":4,"mergeName":"辽宁省,沈阳市,新民市,大柳屯镇","lng":122.80458746321453,"lat":42.19005792132676,"info":"直接检索POI第一个结果成功!","tag":["行政地标","乡镇"]},{"name":"兴隆堡镇","code":"210181108","level":4,"mergeName":"辽宁省,沈阳市,新民市,兴隆堡镇","lng":123.08515953501238,"lat":41.91730836203584,"info":"直接检索POI第一个结果成功!","tag":["行政地标","乡镇"]},{"name":"胡台镇","code":"210181109","level":4,"mergeName":"辽宁省,沈阳市,新民市,胡台镇","lng":123.14156009560911,"lat":41.802175395880134,"info":"直接检索POI第一个结果成功!","tag":["行政地标","乡镇"]},{"name":"法哈牛镇","code":"210181110","level":4,"mergeName":"辽宁省,沈阳市,新民市,法哈牛镇","lng":123.08713814272866,"lat":41.79238107032021,"info":"直接检索POI第一个结果成功!","tag":["行政地标","乡镇"]},{"name":"柳河沟镇","code":"210181111","level":4,"mergeName":"辽宁省,沈阳市,新民市,柳河沟镇","lng":122.73202656615439,"lat":41.93856624572472,"info":"直接检索POI第一个结果成功!","tag":["行政地标","乡镇"]},{"name":"高台子镇","code":"210181112","level":4,"mergeName":"辽宁省,沈阳市,新民市,高台子镇","lng":122.87298785830518,"lat":42.072259354901284,"info":"直接检索POI第一个结果成功!","tag":["行政地标","乡镇"]},{"name":"张家屯镇","code":"210181113","level":4,"mergeName":"辽宁省,沈阳市,新民市,张家屯镇","lng":123.00755761692191,"lat":41.83362569699612,"info":"直接检索POI第一个结果成功!","tag":["行政地标","乡镇"]},{"name":"罗家房镇","code":"210181114","level":4,"mergeName":"辽宁省,沈阳市,新民市,罗家房镇","lng":123.2278117076246,"lat":42.06355824356709,"info":"直接检索POI第一个结果成功!","tag":["行政地标","乡镇"]},{"name":"三道岗子镇","code":"210181115","level":4,"mergeName":"辽宁省,沈阳市,新民市,三道岗子镇","lng":123.13158225698757,"lat":42.08597001348442,"info":"直接检索POI第一个结果成功!","tag":["行政地标","乡镇"]},{"name":"东蛇山子镇","code":"210181116","level":4,"mergeName":"辽宁省,沈阳市,新民市,东蛇山子镇","lng":123.14653059965691,"lat":42.182994155148464,"info":"直接检索POI第一个结果成功!","tag":["行政地标","乡镇"]},{"name":"陶家屯镇","code":"210181117","level":4,"mergeName":"辽宁省,沈阳市,新民市,陶家屯镇","lng":123.19445052742559,"lat":42.191149126761246,"info":"直接检索POI第一个结果成功!","tag":["行政地标","乡镇"]},{"name":"周坨子镇","code":"210181118","level":4,"mergeName":"辽宁省,沈阳市,新民市,周坨子镇","lng":122.59178032518956,"lat":42.15110174185753,"info":"直接检索POI第一个结果成功!","tag":["行政地标","乡镇"]},{"name":"金五台子镇","code":"210181119","level":4,"mergeName":"辽宁省,沈阳市,新民市,金五台子镇","lng":122.69496167233774,"lat":41.79377469537213,"info":"直接检索POI第一个结果成功!","tag":["行政地标","乡镇"]},{"name":"新农村镇","code":"210181120","level":4,"mergeName":"辽宁省,沈阳市,新民市,新农村镇","lng":122.95737683384573,"lat":42.24333732699903,"info":"直接检索POI第一个结果成功!","tag":["行政地标","乡镇"]},{"name":"红旗乡","code":"210181205","level":4,"mergeName":"辽宁省,沈阳市,新民市,红旗乡","lng":122.50617917619384,"lat":41.89729267382754,"info":"直接检索POI第一个结果成功!","tag":["行政地标","乡镇"]},{"name":"卢家屯乡","code":"210181206","level":4,"mergeName":"辽宁省,沈阳市,新民市,卢家屯乡","lng":122.6262290838695,"lat":41.97529414940354,"info":"直接检索POI第一个结果成功!","tag":["行政地标","乡镇"]},{"name":"姚堡乡","code":"210181207","level":4,"mergeName":"辽宁省,沈阳市,新民市,姚堡乡","lng":122.49416883152543,"lat":42.062635858413806,"info":"直接检索POI第一个结果成功!","tag":["行政地标","乡镇"]},{"name":"于家窝堡乡","code":"210181209","level":4,"mergeName":"辽宁省,沈阳市,新民市,于家窝堡乡","lng":122.70659149479212,"lat":42.22794658496926,"info":"直接检索POI第一个结果成功!","tag":["行政地标","乡镇"]},{"name":"大连市","code":"2102","level":2,"mergeName":"辽宁省,大连市","lng":121.6216278913708,"lat":38.918952894809266,"info":"直接检索POI第一个结果成功!","tag":""},{"name":"中山区","code":"210202","level":3,"mergeName":"辽宁省,大连市,中山区","lng":121.65155044790818,"lat":38.924510904973296,"info":"直接检索POI第一个结果成功!","tag":""},{"name":"海军广场街道","code":"210202001","level":4,"mergeName":"辽宁省,大连市,中山区,海军广场街道","lng":121.67570741019085,"lat":38.926514417886516,"info":"直接检索POI第一个结果成功!","tag":["行政地标","乡镇"]},{"name":"人民路街道","code":"210202005","level":4,"mergeName":"辽宁省,大连市,中山区,人民路街道","lng":121.6645571032177,"lat":38.92891482505058,"info":"直接检索POI第一个结果成功!","tag":["行政地标","乡镇"]},{"name":"青泥洼桥街道","code":"210202008","level":4,"mergeName":"辽宁省,大连市,中山区,青泥洼桥街道","lng":121.66340619419832,"lat":38.923745160757335,"info":"直接检索POI第一个结果成功!","tag":""},{"name":"葵英街道","code":"210202010","level":4,"mergeName":"辽宁省,大连市,中山区,葵英街道","lng":121.65501602073512,"lat":38.906556670536126,"info":"直接检索POI第一个结果成功!","tag":["行政地标","乡镇"]},{"name":"桃源街道","code":"210202011","level":4,"mergeName":"辽宁省,大连市,中山区,桃源街道","lng":121.65983749589883,"lat":38.893996161379654,"info":"直接检索POI第一个结果成功!","tag":""},{"name":"老虎滩街道","code":"210202012","level":4,"mergeName":"辽宁省,大连市,中山区,老虎滩街道","lng":121.69213777729057,"lat":38.89582173673602,"info":"直接检索POI第一个结果成功!","tag":["行政地标","乡镇"]},{"name":"西岗区","code":"210203","level":3,"mergeName":"辽宁省,大连市,西岗区","lng":121.61862755096749,"lat":38.920472268203966,"info":"直接检索POI第一个结果成功!","tag":""},{"name":"香炉礁街道","code":"210203001","level":4,"mergeName":"辽宁省,大连市,西岗区,香炉礁街道","lng":121.60314004533106,"lat":38.93476000163435,"info":"直接检索POI第一个结果成功!","tag":["行政地标","乡镇"]},{"name":"日新街道","code":"210203004","level":4,"mergeName":"辽宁省,大连市,西岗区,日新街道","lng":121.62827777756952,"lat":38.92108449974041,"info":"直接检索POI第一个结果成功!","tag":["行政地标","乡镇"]},{"name":"八一路街道","code":"210203010","level":4,"mergeName":"辽宁省,大连市,西岗区,八一路街道","lng":121.63846285527221,"lat":38.89410582079505,"info":"直接检索POI第一个结果成功!","tag":["行政地标","乡镇"]},{"name":"人民广场街道","code":"210203011","level":4,"mergeName":"辽宁省,大连市,西岗区,人民广场街道","lng":121.62279245463395,"lat":38.921758341269346,"info":"直接检索POI第一个结果成功!","tag":["行政地标","乡镇"]},{"name":"白云街道","code":"210203013","level":4,"mergeName":"辽宁省,大连市,西岗区,白云街道","lng":121.60896627520768,"lat":38.90425489598729,"info":"直接检索POI第一个结果成功!","tag":["行政地标","乡镇"]},{"name":"沙河口区","code":"210204","level":3,"mergeName":"辽宁省,大连市,沙河口区","lng":121.59450804802458,"lat":38.91354534373148,"info":"直接检索POI第一个结果成功!","tag":""},{"name":"春柳街道","code":"210204006","level":4,"mergeName":"辽宁省,大连市,沙河口区,春柳街道","lng":121.58077726864347,"lat":38.94464603217613,"info":"直接检索POI第一个结果成功!","tag":["政府机构","各级政府"]},{"name":"马栏街道","code":"210204008","level":4,"mergeName":"辽宁省,大连市,沙河口区,马栏街道","lng":121.56538121050795,"lat":38.92334593468471,"info":"直接检索POI第一个结果成功!","tag":["政府机构"]},{"name":"南沙河口街道","code":"210204009","level":4,"mergeName":"辽宁省,大连市,沙河口区,南沙河口街道","lng":121.58104361622718,"lat":38.90892884029763,"info":"直接检索POI第一个结果成功!","tag":""},{"name":"黑石礁街道","code":"210204010","level":4,"mergeName":"辽宁省,大连市,沙河口区,黑石礁街道","lng":121.5622472920753,"lat":38.88768666650539,"info":"直接检索POI第一个结果成功!","tag":["行政地标","乡镇"]},{"name":"李家街道","code":"210204011","level":4,"mergeName":"辽宁省,大连市,沙河口区,李家街道","lng":121.56413076923808,"lat":38.94944131825325,"info":"直接检索POI第一个结果成功!","tag":["行政地标","乡镇"]},{"name":"星海湾街道","code":"210204017","level":4,"mergeName":"辽宁省,大连市,沙河口区,星海湾街道","lng":121.58950718125054,"lat":38.895262920816364,"info":"直接检索POI第一个结果成功!","tag":["行政地标","乡镇"]},{"name":"西安路街道","code":"210204018","level":4,"mergeName":"辽宁省,大连市,沙河口区,西安路街道","lng":121.60479705967477,"lat":38.920483637063704,"info":"直接检索POI第一个结果成功!","tag":""},{"name":"甘井子区","code":"210211","level":3,"mergeName":"辽宁省,大连市,甘井子区","lng":121.53151886566492,"lat":38.95800054969568,"info":"直接检索POI第一个结果成功!","tag":""},{"name":"周水子街道","code":"210211001","level":4,"mergeName":"辽宁省,大连市,甘井子区,周水子街道","lng":121.5880150059679,"lat":38.963930767091675,"info":"直接检索POI第一个结果成功!","tag":["行政地标","乡镇"]},{"name":"椒金山街道","code":"210211002","level":4,"mergeName":"辽宁省,大连市,甘井子区,椒金山街道","lng":121.59843804480019,"lat":38.97460811878447,"info":"直接检索POI第一个结果成功!","tag":["政府机构"]},{"name":"甘井子街道","code":"210211004","level":4,"mergeName":"辽宁省,大连市,甘井子区,甘井子街道","lng":121.64849028035789,"lat":38.983295331139715,"info":"直接检索POI第一个结果成功!","tag":["行政地标","乡镇"]},{"name":"南关岭街道","code":"210211006","level":4,"mergeName":"辽宁省,大连市,甘井子区,南关岭街道","lng":121.60561820074143,"lat":39.02283835713338,"info":"直接检索POI第一个结果成功!","tag":["政府机构","各级政府"]},{"name":"泡崖街道","code":"210211007","level":4,"mergeName":"辽宁省,大连市,甘井子区,泡崖街道","lng":121.56050619633587,"lat":38.986384340233776,"info":"直接检索POI第一个结果成功!","tag":["政府机构"]},{"name":"中华路街道","code":"210211008","level":4,"mergeName":"辽宁省,大连市,甘井子区,中华路街道","lng":121.58991249669663,"lat":38.9977899968509,"info":"直接检索POI第一个结果成功!","tag":["行政地标","乡镇"]},{"name":"机场街道","code":"210211010","level":4,"mergeName":"辽宁省,大连市,甘井子区,机场街道","lng":121.56473056782708,"lat":38.96051932778093,"info":"直接检索POI第一个结果成功!","tag":["行政地标","乡镇"]},{"name":"辛寨子街道","code":"210211014","level":4,"mergeName":"辽宁省,大连市,甘井子区,辛寨子街道","lng":121.49688460689718,"lat":38.9831360286226,"info":"直接检索POI第一个结果成功!","tag":["行政地标","乡镇"]},{"name":"红旗街道","code":"210211015","level":4,"mergeName":"辽宁省,大连市,甘井子区,红旗街道","lng":121.55423045438204,"lat":38.93004749575865,"info":"直接检索POI第一个结果成功!","tag":["行政地标","乡镇"]},{"name":"凌水街道","code":"210211016","level":4,"mergeName":"辽宁省,大连市,甘井子区,凌水街道","lng":121.53063708897633,"lat":38.88363264656288,"info":"直接检索POI第一个结果成功!","tag":["行政地标","乡镇"]},{"name":"大连湾街道","code":"210211017","level":4,"mergeName":"辽宁省,大连市,甘井子区,大连湾街道","lng":121.71391270285243,"lat":39.0404954166497,"info":"直接检索POI第一个结果成功!","tag":""},{"name":"泉水街道","code":"210211018","level":4,"mergeName":"辽宁省,大连市,甘井子区,泉水街道","lng":121.6074888321354,"lat":39.01133437400086,"info":"直接检索POI第一个结果成功!","tag":["行政地标","乡镇"]},{"name":"革镇堡街道","code":"210211019","level":4,"mergeName":"辽宁省,大连市,甘井子区,革镇堡街道","lng":121.53489047573552,"lat":39.01709231309082,"info":"直接检索POI第一个结果成功!","tag":["行政地标","乡镇"]},{"name":"营城子街道","code":"210211020","level":4,"mergeName":"辽宁省,大连市,甘井子区,营城子街道","lng":121.39957907608974,"lat":38.9930633485677,"info":"直接检索POI第一个结果成功!","tag":["行政地标","乡镇"]},{"name":"七贤岭街道","code":"210211021","level":4,"mergeName":"辽宁省,大连市,甘井子区,七贤岭街道","lng":121.51892579021221,"lat":38.8640856264833,"info":"直接检索POI第一个结果成功!","tag":""},{"name":"大连华侨果树农场","code":"210211400","level":4,"mergeName":"辽宁省,大连市,甘井子区,大连华侨果树农场","lng":121.40944938754174,"lat":38.99532590380611,"info":"直接检索POI第一个结果成功!","tag":""},{"name":"旅顺口区","code":"210212","level":3,"mergeName":"辽宁省,大连市,旅顺口区","lng":121.26859382594948,"lat":38.85683053706133,"info":"直接检索POI第一个结果成功!","tag":""},{"name":"登峰街道","code":"210212001","level":4,"mergeName":"辽宁省,大连市,旅顺口区,登峰街道","lng":121.28076757239015,"lat":38.82409261958015,"info":"直接检索POI第一个结果成功!","tag":["行政地标","乡镇"]},{"name":"得胜街道","code":"210212003","level":4,"mergeName":"辽宁省,大连市,旅顺口区,得胜街道","lng":121.97279662540068,"lat":39.16050176673329,"info":"直接检索POI第一个结果成功!","tag":["行政地标","乡镇"]},{"name":"水师营街道","code":"210212005","level":4,"mergeName":"辽宁省,大连市,旅顺口区,水师营街道","lng":121.25671274744397,"lat":38.85922784113573,"info":"直接检索POI第一个结果成功!","tag":["行政地标","乡镇"]},{"name":"龙王塘街道","code":"210212006","level":4,"mergeName":"辽宁省,大连市,旅顺口区,龙王塘街道","lng":121.40506835156957,"lat":38.84779850842217,"info":"直接检索POI第一个结果成功!","tag":["行政地标","商圈","强商圈"]},{"name":"铁山街道","code":"210212007","level":4,"mergeName":"辽宁省,大连市,旅顺口区,铁山街道","lng":121.19642782399154,"lat":38.799101167328985,"info":"直接检索POI第一个结果成功!","tag":["行政地标","乡镇"]},{"name":"双岛湾街道","code":"210212009","level":4,"mergeName":"辽宁省,大连市,旅顺口区,双岛湾街道","lng":121.1874577044911,"lat":38.898261941239994,"info":"直接检索POI第一个结果成功!","tag":["行政地标","乡镇"]},{"name":"三涧堡街道","code":"210212010","level":4,"mergeName":"辽宁省,大连市,旅顺口区,三涧堡街道","lng":121.27852153912355,"lat":38.92533011293728,"info":"直接检索POI第一个结果成功!","tag":["行政地标","乡镇"]},{"name":"长城街道","code":"210212011","level":4,"mergeName":"辽宁省,大连市,旅顺口区,长城街道","lng":121.32768777595678,"lat":38.94182473083764,"info":"直接检索POI第一个结果成功!","tag":""},{"name":"龙头街道","code":"210212012","level":4,"mergeName":"辽宁省,大连市,旅顺口区,龙头街道","lng":121.32633852108077,"lat":38.88145251124323,"info":"直接检索POI第一个结果成功!","tag":["名称标注类"]},{"name":"旅顺经济开发区","code":"210212400","level":4,"mergeName":"辽宁省,大连市,旅顺口区,旅顺经济开发区","lng":121.15422803621877,"lat":38.81377006683157,"info":"直接检索POI第一个结果成功!","tag":""},{"name":"大连奶牛场","code":"210212401","level":4,"mergeName":"辽宁省,大连市,旅顺口区,大连奶牛场","lng":121.35639959632778,"lat":38.89685546429853,"info":"直接检索POI第一个结果成功!","tag":""},{"name":"龙头分园","code":"210212402","level":4,"mergeName":"辽宁省,大连市,旅顺口区,龙头分园","lng":121.290198163295,"lat":38.85213388879825,"info":"直接检索POI第一个结果成功!","tag":""},{"name":"金州区","code":"210213","level":3,"mergeName":"辽宁省,大连市,金州区","lng":121.7894313606347,"lat":39.05643362204213,"info":"直接检索POI第一个结果成功!","tag":""},{"name":"拥政街道","code":"210213001","level":4,"mergeName":"辽宁省,大连市,金州区,拥政街道","lng":121.72729718545943,"lat":39.12015360743927,"info":"直接检索POI第一个结果成功!","tag":["行政地标","乡镇"]},{"name":"友谊街道","code":"210213002","level":4,"mergeName":"辽宁省,大连市,金州区,友谊街道","lng":121.71397648254363,"lat":39.11735503668009,"info":"直接检索POI第一个结果成功!","tag":["行政地标","乡镇"]},{"name":"马桥子街道","code":"210213004","level":4,"mergeName":"辽宁省,大连市,金州区,马桥子街道","lng":121.80860425445636,"lat":39.05498653153219,"info":"直接检索POI第一个结果成功!","tag":["行政地标","乡镇"]},{"name":"海青岛街道","code":"210213005","level":4,"mergeName":"辽宁省,大连市,金州区,海青岛街道","lng":121.80622033129399,"lat":39.04414101645971,"info":"直接检索POI第一个结果成功!","tag":["行政地标","乡镇"]},{"name":"大孤山街道","code":"210213006","level":4,"mergeName":"辽宁省,大连市,金州区,大孤山街道","lng":121.82805795858043,"lat":39.02978156037732,"info":"直接检索POI第一个结果成功!","tag":["行政地标","村庄"]},{"name":"站前街道","code":"210213008","level":4,"mergeName":"辽宁省,大连市,金州区,站前街道","lng":121.72848986568503,"lat":39.09888030105718,"info":"直接检索POI第一个结果成功!","tag":["行政地标","乡镇"]},{"name":"先进街道","code":"210213009","level":4,"mergeName":"辽宁省,大连市,金州区,先进街道","lng":121.75157452068045,"lat":39.094181119124336,"info":"直接检索POI第一个结果成功!","tag":["行政地标","乡镇"]},{"name":"董家沟街道","code":"210213011","level":4,"mergeName":"辽宁省,大连市,金州区,董家沟街道","lng":121.90801433541256,"lat":39.0935227926269,"info":"直接检索POI第一个结果成功!","tag":["行政地标","乡镇"]},{"name":"金石滩街道","code":"210213012","level":4,"mergeName":"辽宁省,大连市,金州区,金石滩街道","lng":122.02239503701475,"lat":39.09653722476674,"info":"直接检索POI第一个结果成功!","tag":["政府机构"]},{"name":"湾里街道","code":"210213013","level":4,"mergeName":"辽宁省,大连市,金州区,湾里街道","lng":121.83475788039605,"lat":39.067532778566694,"info":"直接检索POI第一个结果成功!","tag":["行政地标","乡镇"]},{"name":"二十里堡街道","code":"210213014","level":4,"mergeName":"辽宁省,大连市,金州区,二十里堡街道","lng":121.77752944144135,"lat":39.201765749700016,"info":"直接检索POI第一个结果成功!","tag":["行政地标","乡镇"]},{"name":"亮甲店街道","code":"210213016","level":4,"mergeName":"辽宁省,大连市,金州区,亮甲店街道","lng":121.94279465865623,"lat":39.22035323675467,"info":"直接检索POI第一个结果成功!","tag":["行政地标","乡镇"]},{"name":"登沙河街道","code":"210213017","level":4,"mergeName":"辽宁省,大连市,金州区,登沙河街道","lng":122.06731390573569,"lat":39.23309456425641,"info":"直接检索POI第一个结果成功!","tag":["行政地标","乡镇"]},{"name":"大魏家街道","code":"210213019","level":4,"mergeName":"辽宁省,大连市,金州区,大魏家街道","lng":121.70557840399195,"lat":39.21173050577005,"info":"直接检索POI第一个结果成功!","tag":["行政地标","乡镇"]},{"name":"杏树街道","code":"210213020","level":4,"mergeName":"辽宁省,大连市,金州区,杏树街道","lng":122.16383207176362,"lat":39.27439935776386,"info":"直接检索POI第一个结果成功!","tag":""},{"name":"七顶山街道","code":"210213021","level":4,"mergeName":"辽宁省,大连市,金州区,七顶山街道","lng":121.71593847160798,"lat":39.259064896601735,"info":"直接检索POI第一个结果成功!","tag":["行政地标","乡镇"]},{"name":"华家街道","code":"210213022","level":4,"mergeName":"辽宁省,大连市,金州区,华家街道","lng":122.0399279842974,"lat":39.277131373632926,"info":"直接检索POI第一个结果成功!","tag":["行政地标","乡镇"]},{"name":"向应街道","code":"210213023","level":4,"mergeName":"辽宁省,大连市,金州区,向应街道","lng":121.94401752194698,"lat":39.27282767382273,"info":"直接检索POI第一个结果成功!","tag":["行政地标","乡镇"]},{"name":"大李家街道","code":"210213024","level":4,"mergeName":"辽宁省,大连市,金州区,大李家街道","lng":122.0865052148203,"lat":39.146693552806475,"info":"直接检索POI第一个结果成功!","tag":["行政地标","乡镇"]},{"name":"得胜街道","code":"210213025","level":4,"mergeName":"辽宁省,大连市,金州区,得胜街道","lng":121.97279662540068,"lat":39.16050176673329,"info":"直接检索POI第一个结果成功!","tag":["行政地标","乡镇"]},{"name":"炮台街道","code":"210213027","level":4,"mergeName":"辽宁省,大连市,金州区,炮台街道","lng":121.77097235020182,"lat":39.48424469004035,"info":"直接检索POI第一个结果成功!","tag":["行政地标","乡镇"]},{"name":"复州湾街道","code":"210213028","level":4,"mergeName":"辽宁省,大连市,金州区,复州湾街道","lng":121.67409099925621,"lat":39.42083343198428,"info":"直接检索POI第一个结果成功!","tag":["行政地标","乡镇"]},{"name":"三十里堡街道","code":"210213029","level":4,"mergeName":"辽宁省,大连市,金州区,三十里堡街道","lng":121.79696544894688,"lat":39.2774077252166,"info":"直接检索POI第一个结果成功!","tag":["行政地标","乡镇"]},{"name":"石河街道","code":"210213030","level":4,"mergeName":"辽宁省,大连市,金州区,石河街道","lng":121.84432420526348,"lat":39.35192099458816,"info":"直接检索POI第一个结果成功!","tag":["行政地标","乡镇"]},{"name":"光中街道","code":"210213031","level":4,"mergeName":"辽宁省,大连市,金州区,光中街道","lng":121.71562666976546,"lat":39.10212052189566,"info":"直接检索POI第一个结果成功!","tag":["行政地标","乡镇"]},{"name":"普兰店区","code":"210214","level":3,"mergeName":"辽宁省,大连市,普兰店区","lng":121.94646414683395,"lat":39.398088796685805,"info":"直接检索POI第一个结果成功!","tag":""},{"name":"丰荣街道","code":"210214001","level":4,"mergeName":"辽宁省,大连市,普兰店区,丰荣街道","lng":122.01974997644062,"lat":39.425822511588166,"info":"直接检索POI第一个结果成功!","tag":["行政地标","乡镇"]},{"name":"铁西街道","code":"210214002","level":4,"mergeName":"辽宁省,大连市,普兰店区,铁西街道","lng":121.98570087388205,"lat":39.47083425720788,"info":"直接检索POI第一个结果成功!","tag":["行政地标","乡镇"]},{"name":"太平街道","code":"210214003","level":4,"mergeName":"辽宁省,大连市,普兰店区,太平街道","lng":121.97916435383871,"lat":39.39800885134361,"info":"直接检索POI第一个结果成功!","tag":""},{"name":"皮口街道","code":"210214005","level":4,"mergeName":"辽宁省,大连市,普兰店区,皮口街道","lng":122.34548525605814,"lat":39.40430926476309,"info":"直接检索POI第一个结果成功!","tag":["行政地标","乡镇"]},{"name":"城子坦街道","code":"210214006","level":4,"mergeName":"辽宁省,大连市,普兰店区,城子坦街道","lng":122.48220995976276,"lat":39.516684820413964,"info":"直接检索POI第一个结果成功!","tag":["行政地标","乡镇"]},{"name":"大刘家街道","code":"210214007","level":4,"mergeName":"辽宁省,大连市,普兰店区,大刘家街道","lng":122.1767445846557,"lat":39.34998935347142,"info":"直接检索POI第一个结果成功!","tag":["行政地标","乡镇"]},{"name":"杨树房街道","code":"210214008","level":4,"mergeName":"辽宁省,大连市,普兰店区,杨树房街道","lng":122.24839540840364,"lat":39.40636316278727,"info":"直接检索POI第一个结果成功!","tag":["行政地标","乡镇"]},{"name":"大谭街道","code":"210214009","level":4,"mergeName":"辽宁省,大连市,普兰店区,大谭街道","lng":122.15260657661928,"lat":39.503959644824,"info":"直接检索POI第一个结果成功!","tag":["行政地标","乡镇"]},{"name":"唐家房街道","code":"210214010","level":4,"mergeName":"辽宁省,大连市,普兰店区,唐家房街道","lng":122.16595000666449,"lat":39.40178242169315,"info":"直接检索POI第一个结果成功!","tag":["名称标注类"]},{"name":"莲山街道","code":"210214011","level":4,"mergeName":"辽宁省,大连市,普兰店区,莲山街道","lng":122.25447756552005,"lat":39.61087247187739,"info":"直接检索POI第一个结果成功!","tag":["行政地标","乡镇"]},{"name":"安波街道","code":"210214012","level":4,"mergeName":"辽宁省,大连市,普兰店区,安波街道","lng":122.31982659645443,"lat":39.841825528886574,"info":"直接检索POI第一个结果成功!","tag":["行政地标","乡镇"]},{"name":"沙包街道","code":"210214013","level":4,"mergeName":"辽宁省,大连市,普兰店区,沙包街道","lng":122.21437972281008,"lat":39.68467058629358,"info":"直接检索POI第一个结果成功!","tag":["行政地标","乡镇"]},{"name":"星台街道","code":"210214014","level":4,"mergeName":"辽宁省,大连市,普兰店区,星台街道","lng":122.39807888773412,"lat":39.61002016765362,"info":"直接检索POI第一个结果成功!","tag":""},{"name":"墨盘街道","code":"210214015","level":4,"mergeName":"辽宁省,大连市,普兰店区,墨盘街道","lng":122.53021594519929,"lat":39.66382110874234,"info":"直接检索POI第一个结果成功!","tag":["行政地标","乡镇"]},{"name":"同益街道","code":"210214016","level":4,"mergeName":"辽宁省,大连市,普兰店区,同益街道","lng":122.23968732462048,"lat":39.85074779507175,"info":"直接检索POI第一个结果成功!","tag":["行政地标","乡镇"]},{"name":"乐甲街道","code":"210214017","level":4,"mergeName":"辽宁省,大连市,普兰店区,乐甲街道","lng":122.28714902674851,"lat":39.750692501762856,"info":"直接检索POI第一个结果成功!","tag":""},{"name":"双塔街道","code":"210214018","level":4,"mergeName":"辽宁省,大连市,普兰店区,双塔街道","lng":122.47405127962948,"lat":39.773873678677546,"info":"直接检索POI第一个结果成功!","tag":["行政地标","乡镇"]},{"name":"四平街道","code":"210214019","level":4,"mergeName":"辽宁省,大连市,普兰店区,四平街道","lng":122.1810184527805,"lat":39.79173268369713,"info":"直接检索POI第一个结果成功!","tag":["行政地标","乡镇"]},{"name":"长海县","code":"210224","level":3,"mergeName":"辽宁省,大连市,长海县","lng":122.59462750450344,"lat":39.27826944914711,"info":"直接检索POI第一个结果成功!","tag":""},{"name":"大长山岛镇","code":"210224100","level":4,"mergeName":"辽宁省,大连市,长海县,大长山岛镇","lng":122.60035689704608,"lat":39.28099942780813,"info":"直接检索POI第一个结果成功!","tag":["行政地标","乡镇"]},{"name":"獐子岛镇","code":"210224101","level":4,"mergeName":"辽宁省,大连市,长海县,獐子岛镇","lng":122.74246298973877,"lat":39.03760958514429,"info":"直接检索POI第一个结果成功!","tag":["行政地标","乡镇"]},{"name":"广鹿岛镇","code":"210224102","level":4,"mergeName":"辽宁省,大连市,长海县,广鹿岛镇","lng":122.38370968262706,"lat":39.18304710542763,"info":"直接检索POI第一个结果成功!","tag":["行政地标","乡镇"]},{"name":"小长山岛镇","code":"210224103","level":4,"mergeName":"辽宁省,大连市,长海县,小长山岛镇","lng":122.69362858696094,"lat":39.24272260508648,"info":"直接检索POI第一个结果成功!","tag":["行政地标","乡镇"]},{"name":"海洋岛镇","code":"210224104","level":4,"mergeName":"辽宁省,大连市,长海县,海洋岛镇","lng":123.18561425544614,"lat":39.06843022364843,"info":"直接检索POI第一个结果成功!","tag":""},{"name":"瓦房店市","code":"210281","level":3,"mergeName":"辽宁省,大连市,瓦房店市","lng":121.98563925012408,"lat":39.632740400075335,"info":"直接检索POI第一个结果成功!","tag":""},{"name":"新华街道","code":"210281001","level":4,"mergeName":"辽宁省,大连市,瓦房店市,新华街道","lng":122.97103961149975,"lat":39.71014124263753,"info":"直接检索POI第一个结果成功!","tag":""},{"name":"文兰街道","code":"210281002","level":4,"mergeName":"辽宁省,大连市,瓦房店市,文兰街道","lng":122.00153907798959,"lat":39.62267516545061,"info":"直接检索POI第一个结果成功!","tag":["行政地标","乡镇"]},{"name":"岭东街道","code":"210281003","level":4,"mergeName":"辽宁省,大连市,瓦房店市,岭东街道","lng":122.03084737321923,"lat":39.634396992153164,"info":"直接检索POI第一个结果成功!","tag":["行政地标","乡镇"]},{"name":"共济街道","code":"210281004","level":4,"mergeName":"辽宁省,大连市,瓦房店市,共济街道","lng":122.00066673350884,"lat":39.63161495880342,"info":"直接检索POI第一个结果成功!","tag":["行政地标","乡镇"]},{"name":"铁东街道","code":"210281005","level":4,"mergeName":"辽宁省,大连市,瓦房店市,铁东街道","lng":122.0190332184742,"lat":39.63549453444618,"info":"直接检索POI第一个结果成功!","tag":["行政地标","乡镇"]},{"name":"祝华街道","code":"210281006","level":4,"mergeName":"辽宁省,大连市,瓦房店市,祝华街道","lng":122.01282107655051,"lat":39.667699001936114,"info":"直接检索POI第一个结果成功!","tag":["行政地标","乡镇"]},{"name":"岗店街道","code":"210281007","level":4,"mergeName":"辽宁省,大连市,瓦房店市,岗店街道","lng":121.99893264455238,"lat":39.62826332399739,"info":"直接检索POI第一个结果成功!","tag":["行政地标","乡镇"]},{"name":"太阳街道","code":"210281008","level":4,"mergeName":"辽宁省,大连市,瓦房店市,太阳街道","lng":121.88125156850654,"lat":39.74408192176002,"info":"直接检索POI第一个结果成功!","tag":["行政地标","乡镇"]},{"name":"长兴岛街道","code":"210281009","level":4,"mergeName":"辽宁省,大连市,瓦房店市,长兴岛街道","lng":121.46968184995237,"lat":39.609477830949906,"info":"直接检索POI第一个结果成功!","tag":["旅游景点"]},{"name":"九龙街道","code":"210281010","level":4,"mergeName":"辽宁省,大连市,瓦房店市,九龙街道","lng":121.87435069574833,"lat":39.58016825844103,"info":"直接检索POI第一个结果成功!","tag":["行政地标","乡镇"]},{"name":"交流岛街道","code":"210281011","level":4,"mergeName":"辽宁省,大连市,瓦房店市,交流岛街道","lng":121.4216722712938,"lat":39.44477335625813,"info":"直接检索POI第一个结果成功!","tag":["行政地标","乡镇"]},{"name":"复州城镇","code":"210281101","level":4,"mergeName":"辽宁省,大连市,瓦房店市,复州城镇","lng":121.72918425584425,"lat":39.73781991106357,"info":"直接检索POI第一个结果成功!","tag":["行政地标","乡镇"]},{"name":"松树镇","code":"210281103","level":4,"mergeName":"辽宁省,大连市,瓦房店市,松树镇","lng":122.12401468003385,"lat":39.847396707094056,"info":"直接检索POI第一个结果成功!","tag":["行政地标","乡镇"]},{"name":"得利寺镇","code":"210281105","level":4,"mergeName":"辽宁省,大连市,瓦房店市,得利寺镇","lng":122.0713841280014,"lat":39.79060493364335,"info":"直接检索POI第一个结果成功!","tag":["行政地标","乡镇"]},{"name":"万家岭镇","code":"210281106","level":4,"mergeName":"辽宁省,大连市,瓦房店市,万家岭镇","lng":122.16494417398496,"lat":39.946830207808084,"info":"直接检索POI第一个结果成功!","tag":["行政地标","乡镇"]},{"name":"许屯镇","code":"210281107","level":4,"mergeName":"辽宁省,大连市,瓦房店市,许屯镇","lng":122.11281397812158,"lat":40.035989736528194,"info":"直接检索POI第一个结果成功!","tag":["行政地标","乡镇"]},{"name":"永宁镇","code":"210281108","level":4,"mergeName":"辽宁省,大连市,瓦房店市,永宁镇","lng":121.89816252905408,"lat":39.92688682200475,"info":"直接检索POI第一个结果成功!","tag":["行政地标","乡镇"]},{"name":"谢屯镇","code":"210281109","level":4,"mergeName":"辽宁省,大连市,瓦房店市,谢屯镇","lng":121.54713806288912,"lat":39.458698049815105,"info":"直接检索POI第一个结果成功!","tag":["行政地标","乡镇"]},{"name":"老虎屯镇","code":"210281112","level":4,"mergeName":"辽宁省,大连市,瓦房店市,老虎屯镇","lng":121.82340132247782,"lat":39.65989258633798,"info":"直接检索POI第一个结果成功!","tag":["行政地标","乡镇"]},{"name":"红沿河镇","code":"210281113","level":4,"mergeName":"辽宁省,大连市,瓦房店市,红沿河镇","lng":121.5743166554157,"lat":39.767339173718156,"info":"直接检索POI第一个结果成功!","tag":["行政地标","乡镇"]},{"name":"李官镇","code":"210281115","level":4,"mergeName":"辽宁省,大连市,瓦房店市,李官镇","lng":122.01091595022494,"lat":40.05243808473463,"info":"直接检索POI第一个结果成功!","tag":["行政地标","乡镇"]},{"name":"仙浴湾镇","code":"210281116","level":4,"mergeName":"辽宁省,大连市,瓦房店市,仙浴湾镇","lng":121.53580018972548,"lat":39.70977232622128,"info":"直接检索POI第一个结果成功!","tag":["行政地标","乡镇"]},{"name":"元台镇","code":"210281117","level":4,"mergeName":"辽宁省,大连市,瓦房店市,元台镇","lng":122.08905972619903,"lat":39.62840323053308,"info":"直接检索POI第一个结果成功!","tag":["行政地标","乡镇"]},{"name":"瓦窝镇","code":"210281118","level":4,"mergeName":"辽宁省,大连市,瓦房店市,瓦窝镇","lng":122.03749438484031,"lat":39.69623108653671,"info":"直接检索POI第一个结果成功!","tag":["行政地标","乡镇"]},{"name":"赵屯乡","code":"210281201","level":4,"mergeName":"辽宁省,大连市,瓦房店市,赵屯乡","lng":122.01486588938286,"lat":39.900380120979044,"info":"直接检索POI第一个结果成功!","tag":["行政地标","乡镇"]},{"name":"土城乡","code":"210281203","level":4,"mergeName":"辽宁省,大连市,瓦房店市,土城乡","lng":121.94626103995815,"lat":39.979400010765765,"info":"直接检索POI第一个结果成功!","tag":["行政地标","乡镇"]},{"name":"阎店乡","code":"210281204","level":4,"mergeName":"辽宁省,大连市,瓦房店市,阎店乡","lng":121.83932666221982,"lat":39.84524627647121,"info":"直接检索POI第一个结果成功!","tag":""},{"name":"西杨乡","code":"210281205","level":4,"mergeName":"辽宁省,大连市,瓦房店市,西杨乡","lng":121.74472476150576,"lat":39.82944193922823,"info":"直接检索POI第一个结果成功!","tag":["行政地标","乡镇"]},{"name":"驼山乡","code":"210281206","level":4,"mergeName":"辽宁省,大连市,瓦房店市,驼山乡","lng":121.66261739213002,"lat":39.80285110877673,"info":"直接检索POI第一个结果成功!","tag":["行政地标","乡镇"]},{"name":"三台满族乡","code":"210281208","level":4,"mergeName":"辽宁省,大连市,瓦房店市,三台满族乡","lng":121.6152529764887,"lat":39.64748203168487,"info":"直接检索POI第一个结果成功!","tag":["行政地标","乡镇"]},{"name":"泡崖乡","code":"210281210","level":4,"mergeName":"辽宁省,大连市,瓦房店市,泡崖乡","lng":121.66801162688688,"lat":39.536560921115424,"info":"直接检索POI第一个结果成功!","tag":["行政地标","乡镇"]},{"name":"杨家满族乡","code":"210281212","level":4,"mergeName":"辽宁省,大连市,瓦房店市,杨家满族乡","lng":121.76493232361382,"lat":39.649665429931055,"info":"直接检索POI第一个结果成功!","tag":["行政地标","乡镇"]},{"name":"庄河市","code":"210283","level":3,"mergeName":"辽宁省,大连市,庄河市","lng":122.97449395550781,"lat":39.686955315394115,"info":"直接检索POI第一个结果成功!","tag":""},{"name":"城关街道","code":"210283001","level":4,"mergeName":"辽宁省,大连市,庄河市,城关街道","lng":122.98794518221422,"lat":39.70468396321069,"info":"直接检索POI第一个结果成功!","tag":["行政地标","乡镇"]},{"name":"新华街道","code":"210283002","level":4,"mergeName":"辽宁省,大连市,庄河市,新华街道","lng":122.97103961149975,"lat":39.71014124263753,"info":"直接检索POI第一个结果成功!","tag":""},{"name":"兴达街道","code":"210283003","level":4,"mergeName":"辽宁省,大连市,庄河市,兴达街道","lng":122.98185538950098,"lat":39.71389933087809,"info":"直接检索POI第一个结果成功!","tag":["行政地标","乡镇"]},{"name":"昌盛街道","code":"210283004","level":4,"mergeName":"辽宁省,大连市,庄河市,昌盛街道","lng":122.94248975561217,"lat":39.653227608847864,"info":"直接检索POI第一个结果成功!","tag":""},{"name":"明阳街道","code":"210283005","level":4,"mergeName":"辽宁省,大连市,庄河市,明阳街道","lng":122.6037787223947,"lat":39.563067071896214,"info":"直接检索POI第一个结果成功!","tag":["行政地标","乡镇"]},{"name":"青堆镇","code":"210283101","level":4,"mergeName":"辽宁省,大连市,庄河市,青堆镇","lng":123.26647181236586,"lat":39.83724154921861,"info":"直接检索POI第一个结果成功!","tag":["行政地标","乡镇"]},{"name":"徐岭镇","code":"210283102","level":4,"mergeName":"辽宁省,大连市,庄河市,徐岭镇","lng":122.9603187843909,"lat":39.754978319611055,"info":"直接检索POI第一个结果成功!","tag":["行政地标","乡镇"]},{"name":"黑岛镇","code":"210283104","level":4,"mergeName":"辽宁省,大连市,庄河市,黑岛镇","lng":123.18628897271468,"lat":39.71476734256053,"info":"直接检索POI第一个结果成功!","tag":["行政地标","乡镇"]},{"name":"栗子房镇","code":"210283105","level":4,"mergeName":"辽宁省,大连市,庄河市,栗子房镇","lng":123.44253735672721,"lat":39.867266990501875,"info":"直接检索POI第一个结果成功!","tag":["行政地标","乡镇"]},{"name":"大营镇","code":"210283107","level":4,"mergeName":"辽宁省,大连市,庄河市,大营镇","lng":123.09126980909126,"lat":39.88439487112594,"info":"直接检索POI第一个结果成功!","tag":["行政地标","乡镇"]},{"name":"塔岭镇","code":"210283108","level":4,"mergeName":"辽宁省,大连市,庄河市,塔岭镇","lng":123.12110558931636,"lat":40.05947233670473,"info":"直接检索POI第一个结果成功!","tag":["行政地标","乡镇"]},{"name":"仙人洞镇","code":"210283109","level":4,"mergeName":"辽宁省,大连市,庄河市,仙人洞镇","lng":122.98137551469755,"lat":39.972005624896354,"info":"直接检索POI第一个结果成功!","tag":["行政地标","乡镇"]},{"name":"蓉花山镇","code":"210283110","level":4,"mergeName":"辽宁省,大连市,庄河市,蓉花山镇","lng":122.87097825904881,"lat":39.93595879035025,"info":"直接检索POI第一个结果成功!","tag":["行政地标","乡镇"]},{"name":"长岭镇","code":"210283111","level":4,"mergeName":"辽宁省,大连市,庄河市,长岭镇","lng":122.68903285597189,"lat":39.84591665306285,"info":"直接检索POI第一个结果成功!","tag":["行政地标","乡镇"]},{"name":"荷花山镇","code":"210283112","level":4,"mergeName":"辽宁省,大连市,庄河市,荷花山镇","lng":122.55045593613625,"lat":39.824577838491585,"info":"直接检索POI第一个结果成功!","tag":["行政地标","乡镇"]},{"name":"城山镇","code":"210283113","level":4,"mergeName":"辽宁省,大连市,庄河市,城山镇","lng":122.64018947013896,"lat":39.70391317849569,"info":"直接检索POI第一个结果成功!","tag":["行政地标","乡镇"]},{"name":"光明山镇","code":"210283114","level":4,"mergeName":"辽宁省,大连市,庄河市,光明山镇","lng":122.80717081020012,"lat":39.76204182972956,"info":"直接检索POI第一个结果成功!","tag":["行政地标","乡镇"]},{"name":"大郑镇","code":"210283115","level":4,"mergeName":"辽宁省,大连市,庄河市,大郑镇","lng":122.81874628517114,"lat":39.64383808801168,"info":"直接检索POI第一个结果成功!","tag":["行政地标","乡镇"]},{"name":"吴炉镇","code":"210283118","level":4,"mergeName":"辽宁省,大连市,庄河市,吴炉镇","lng":123.06984441420332,"lat":39.76489150229667,"info":"直接检索POI第一个结果成功!","tag":["行政地标","乡镇"]},{"name":"王家镇","code":"210283120","level":4,"mergeName":"辽宁省,大连市,庄河市,王家镇","lng":123.08929488442757,"lat":39.454967490387496,"info":"直接检索POI第一个结果成功!","tag":""},{"name":"鞍子山乡","code":"210283204","level":4,"mergeName":"辽宁省,大连市,庄河市,鞍子山乡","lng":123.31120356404907,"lat":39.85352320974456,"info":"直接检索POI第一个结果成功!","tag":["行政地标","乡镇"]},{"name":"太平岭满族乡","code":"210283208","level":4,"mergeName":"辽宁省,大连市,庄河市,太平岭满族乡","lng":122.92113856075936,"lat":39.856535435553916,"info":"直接检索POI第一个结果成功!","tag":["行政地标","乡镇"]},{"name":"步云山乡","code":"210283209","level":4,"mergeName":"辽宁省,大连市,庄河市,步云山乡","lng":122.71819391892845,"lat":40.03030625605564,"info":"直接检索POI第一个结果成功!","tag":["行政地标","乡镇"]},{"name":"桂云花满族乡","code":"210283211","level":4,"mergeName":"辽宁省,大连市,庄河市,桂云花满族乡","lng":122.58043742151506,"lat":39.92492606635708,"info":"直接检索POI第一个结果成功!","tag":["行政地标","乡镇"]},{"name":"兰店乡","code":"210283214","level":4,"mergeName":"辽宁省,大连市,庄河市,兰店乡","lng":123.03508861470006,"lat":39.74846322658791,"info":"直接检索POI第一个结果成功!","tag":["行政地标","乡镇"]},{"name":"石城乡","code":"210283216","level":4,"mergeName":"辽宁省,大连市,庄河市,石城乡","lng":123.00009701000045,"lat":39.53688207793363,"info":"直接检索POI第一个结果成功!","tag":["行政地标","乡镇"]},{"name":"鞍山市","code":"2103","level":2,"mergeName":"辽宁省,鞍山市","lng":123.00137125636635,"lat":41.11505237404235,"info":"直接检索POI第一个结果成功!","tag":""},{"name":"铁东区","code":"210302","level":3,"mergeName":"辽宁省,鞍山市,铁东区","lng":122.99740074601225,"lat":41.096332414176715,"info":"直接检索POI第一个结果成功!","tag":""},{"name":"解放街道","code":"210302002","level":4,"mergeName":"辽宁省,鞍山市,铁东区,解放街道","lng":122.99506703812789,"lat":41.096688721178324,"info":"直接检索POI第一个结果成功!","tag":["行政地标","乡镇"]},{"name":"山南街道","code":"210302003","level":4,"mergeName":"辽宁省,鞍山市,铁东区,山南街道","lng":122.99681801522793,"lat":41.10097893133859,"info":"直接检索POI第一个结果成功!","tag":["政府机构","各级政府"]},{"name":"园林街道","code":"210302004","level":4,"mergeName":"辽宁省,鞍山市,铁东区,园林街道","lng":123.00965677723762,"lat":41.118909580256236,"info":"直接检索POI第一个结果成功!","tag":["行政地标","乡镇"]},{"name":"站前街道","code":"210302006","level":4,"mergeName":"辽宁省,鞍山市,铁东区,站前街道","lng":123.00372328968312,"lat":41.123200569252575,"info":"直接检索POI第一个结果成功!","tag":["行政地标","乡镇"]},{"name":"和平街道","code":"210302008","level":4,"mergeName":"辽宁省,鞍山市,铁东区,和平街道","lng":123.0112339322215,"lat":41.12691145403277,"info":"直接检索POI第一个结果成功!","tag":["行政地标","乡镇"]},{"name":"湖南街道","code":"210302011","level":4,"mergeName":"辽宁省,鞍山市,铁东区,湖南街道","lng":123.00796329169022,"lat":41.094380336448545,"info":"直接检索POI第一个结果成功!","tag":""},{"name":"新兴街道","code":"210302013","level":4,"mergeName":"辽宁省,鞍山市,铁东区,新兴街道","lng":123.03134357902896,"lat":41.086543505728194,"info":"直接检索POI第一个结果成功!","tag":["行政地标","乡镇"]},{"name":"旧堡街道","code":"210302014","level":4,"mergeName":"辽宁省,鞍山市,铁东区,旧堡街道","lng":122.95967434001805,"lat":41.07638032852562,"info":"直接检索POI第一个结果成功!","tag":""},{"name":"大孤山街道","code":"210302015","level":4,"mergeName":"辽宁省,鞍山市,铁东区,大孤山街道","lng":122.99739966804565,"lat":41.09633187050633,"info":"检索POI失败,BMAP_STATUE_CODE:1 ,GetPoint结果: 直接查询获得"},{"name":"长甸街道","code":"210302017","level":4,"mergeName":"辽宁省,鞍山市,铁东区,长甸街道","lng":122.9981526277241,"lat":41.08977990537501,"info":"直接检索POI第一个结果成功!","tag":["行政地标","乡镇"]},{"name":"玉佛山风景区","code":"210302400","level":4,"mergeName":"辽宁省,鞍山市,铁东区,玉佛山风景区","lng":123.02732554831339,"lat":41.10898348335225,"info":"直接检索POI第一个结果成功!","tag":["政府机构"]},{"name":"铁西区","code":"210303","level":3,"mergeName":"辽宁省,鞍山市,铁西区","lng":122.97549107462389,"lat":41.12547682193632,"info":"直接检索POI第一个结果成功!","tag":""},{"name":"繁荣街道","code":"210303002","level":4,"mergeName":"辽宁省,鞍山市,铁西区,繁荣街道","lng":122.98078119577215,"lat":41.118318812603924,"info":"直接检索POI第一个结果成功!","tag":["行政地标","乡镇"]},{"name":"八家子街道","code":"210303003","level":4,"mergeName":"辽宁省,鞍山市,铁西区,八家子街道","lng":122.97150466426226,"lat":41.12803841960771,"info":"直接检索POI第一个结果成功!","tag":["行政地标","乡镇"]},{"name":"共和街道","code":"210303005","level":4,"mergeName":"辽宁省,鞍山市,铁西区,共和街道","lng":122.96485334077474,"lat":41.128971916253256,"info":"直接检索POI第一个结果成功!","tag":["行政地标","乡镇"]},{"name":"永乐街道","code":"210303006","level":4,"mergeName":"辽宁省,鞍山市,铁西区,永乐街道","lng":122.95886146336207,"lat":41.127318946277654,"info":"直接检索POI第一个结果成功!","tag":["行政地标","乡镇"]},{"name":"南华街道","code":"210303008","level":4,"mergeName":"辽宁省,鞍山市,铁西区,南华街道","lng":122.96677301964955,"lat":41.09904697181905,"info":"直接检索POI第一个结果成功!","tag":["政府机构"]},{"name":"大陆街道","code":"210303009","level":4,"mergeName":"辽宁省,鞍山市,铁西区,大陆街道","lng":122.97332373291997,"lat":41.11281645405016,"info":"直接检索POI第一个结果成功!","tag":["行政地标","乡镇"]},{"name":"永发街道","code":"210303012","level":4,"mergeName":"辽宁省,鞍山市,铁西区,永发街道","lng":122.95911640246581,"lat":41.096800240860084,"info":"直接检索POI第一个结果成功!","tag":["行政地标","乡镇"]},{"name":"宁远街道","code":"210303013","level":4,"mergeName":"辽宁省,鞍山市,铁西区,宁远街道","lng":122.9401565867111,"lat":41.11596873257149,"info":"直接检索POI第一个结果成功!","tag":["行政地标","乡镇"]},{"name":"达道湾街道","code":"210303014","level":4,"mergeName":"辽宁省,鞍山市,铁西区,达道湾街道","lng":122.91583505485902,"lat":41.16529242360953,"info":"直接检索POI第一个结果成功!","tag":["行政地标","乡镇"]},{"name":"立山区","code":"210304","level":3,"mergeName":"辽宁省,鞍山市,立山区","lng":123.03547991658021,"lat":41.15611551003388,"info":"直接检索POI第一个结果成功!","tag":""},{"name":"友好街道","code":"210304001","level":4,"mergeName":"辽宁省,鞍山市,立山区,友好街道","lng":123.01977744643526,"lat":41.14108578110505,"info":"直接检索POI第一个结果成功!","tag":["行政地标","乡镇"]},{"name":"双山街道","code":"210304004","level":4,"mergeName":"辽宁省,鞍山市,立山区,双山街道","lng":123.02599857141405,"lat":41.14430575459048,"info":"直接检索POI第一个结果成功!","tag":["行政地标","乡镇"]},{"name":"立山街道","code":"210304006","level":4,"mergeName":"辽宁省,鞍山市,立山区,立山街道","lng":123.03675721718484,"lat":41.16130340546343,"info":"直接检索POI第一个结果成功!","tag":["行政地标","乡镇"]},{"name":"曙光街道","code":"210304008","level":4,"mergeName":"辽宁省,鞍山市,立山区,曙光街道","lng":123.05371533877167,"lat":41.15392778224248,"info":"直接检索POI第一个结果成功!","tag":["行政地标","乡镇"]},{"name":"灵山街道","code":"210304009","level":4,"mergeName":"辽宁省,鞍山市,立山区,灵山街道","lng":123.04651793536462,"lat":41.18606194006259,"info":"直接检索POI第一个结果成功!","tag":["行政地标","乡镇"]},{"name":"深沟寺街道","code":"210304014","level":4,"mergeName":"辽宁省,鞍山市,立山区,深沟寺街道","lng":123.0327066678098,"lat":41.14118581558011,"info":"直接检索POI第一个结果成功!","tag":["行政地标","村庄"]},{"name":"沙河街道","code":"210304015","level":4,"mergeName":"辽宁省,鞍山市,立山区,沙河街道","lng":123.04172466699393,"lat":41.15697785692758,"info":"直接检索POI第一个结果成功!","tag":["政府机构"]},{"name":"千山街道","code":"210304017","level":4,"mergeName":"辽宁省,鞍山市,立山区,千山街道","lng":123.12167259975425,"lat":41.093252040941366,"info":"直接检索POI第一个结果成功!","tag":["行政地标","乡镇"]},{"name":"齐大山街道","code":"210304019","level":4,"mergeName":"辽宁省,鞍山市,立山区,齐大山街道","lng":123.0988820499828,"lat":41.16345544726418,"info":"直接检索POI第一个结果成功!","tag":["行政地标","乡镇"]},{"name":"千山区","code":"210311","level":3,"mergeName":"辽宁省,鞍山市,千山区","lng":122.96757700308098,"lat":41.08093792918669,"info":"直接检索POI第一个结果成功!","tag":""},{"name":"汤岗子街道","code":"210311006","level":4,"mergeName":"辽宁省,鞍山市,千山区,汤岗子街道","lng":122.91888821562631,"lat":41.02389815785948,"info":"直接检索POI第一个结果成功!","tag":["行政地标","乡镇"]},{"name":"东鞍山街道","code":"210311007","level":4,"mergeName":"辽宁省,鞍山市,千山区,东鞍山街道","lng":122.93535137087713,"lat":41.04074562256393,"info":"直接检索POI第一个结果成功!","tag":["行政地标","乡镇"]},{"name":"唐家房镇","code":"210311102","level":4,"mergeName":"辽宁省,鞍山市,千山区,唐家房镇","lng":123.00504550556326,"lat":41.03384414575015,"info":"直接检索POI第一个结果成功!","tag":["行政地标","乡镇"]},{"name":"大屯镇","code":"210311103","level":4,"mergeName":"辽宁省,鞍山市,千山区,大屯镇","lng":122.92390264681357,"lat":41.00097666305595,"info":"直接检索POI第一个结果成功!","tag":""},{"name":"甘泉镇","code":"210311104","level":4,"mergeName":"辽宁省,鞍山市,千山区,甘泉镇","lng":122.87061112158688,"lat":40.970183941140995,"info":"直接检索POI第一个结果成功!","tag":["行政地标","乡镇"]},{"name":"台安县","code":"210321","level":3,"mergeName":"辽宁省,鞍山市,台安县","lng":122.44255336471926,"lat":41.418590641585844,"info":"直接检索POI第一个结果成功!","tag":""},{"name":"八角台街道","code":"210321001","level":4,"mergeName":"辽宁省,鞍山市,台安县,八角台街道","lng":122.43509176966172,"lat":41.40677691583406,"info":"直接检索POI第一个结果成功!","tag":""},{"name":"台东街道","code":"210321002","level":4,"mergeName":"辽宁省,鞍山市,台安县,台东街道","lng":120.35879099357986,"lat":36.094207138822554,"info":"直接检索POI第一个结果成功!","tag":["行政地标","乡镇"]},{"name":"西佛镇","code":"210321101","level":4,"mergeName":"辽宁省,鞍山市,台安县,西佛镇","lng":122.55532052996443,"lat":41.44105905947736,"info":"直接检索POI第一个结果成功!","tag":["行政地标","乡镇"]},{"name":"新开河镇","code":"210321102","level":4,"mergeName":"辽宁省,鞍山市,台安县,新开河镇","lng":122.50007357330362,"lat":41.325444042692325,"info":"直接检索POI第一个结果成功!","tag":["行政地标","乡镇"]},{"name":"黄沙坨镇","code":"210321103","level":4,"mergeName":"辽宁省,鞍山市,台安县,黄沙坨镇","lng":122.52252851613655,"lat":41.21628320823673,"info":"直接检索POI第一个结果成功!","tag":["行政地标","乡镇"]},{"name":"高力房镇","code":"210321104","level":4,"mergeName":"辽宁省,鞍山市,台安县,高力房镇","lng":122.48067062344086,"lat":41.164757608769406,"info":"直接检索POI第一个结果成功!","tag":["行政地标","乡镇"]},{"name":"桑林镇","code":"210321105","level":4,"mergeName":"辽宁省,鞍山市,台安县,桑林镇","lng":122.30798513322189,"lat":41.467936504306174,"info":"直接检索POI第一个结果成功!","tag":["行政地标","乡镇"]},{"name":"富家镇","code":"210321106","level":4,"mergeName":"辽宁省,鞍山市,台安县,富家镇","lng":122.35293831721332,"lat":41.25922665256444,"info":"直接检索POI第一个结果成功!","tag":["行政地标","乡镇"]},{"name":"达牛镇","code":"210321107","level":4,"mergeName":"辽宁省,鞍山市,台安县,达牛镇","lng":122.62729213861,"lat":41.39427440913513,"info":"直接检索POI第一个结果成功!","tag":["行政地标","乡镇"]},{"name":"台安县韭菜台镇","code":"210321109","level":4,"mergeName":"辽宁省,鞍山市,台安县,台安县韭菜台镇","lng":122.43043872678116,"lat":41.08477989018565,"info":"直接检索POI第一个结果成功!","tag":["行政地标","乡镇"]},{"name":"新台镇","code":"210321110","level":4,"mergeName":"辽宁省,鞍山市,台安县,新台镇","lng":122.36536978750479,"lat":41.33382032220368,"info":"直接检索POI第一个结果成功!","tag":["行政地标","乡镇"]},{"name":"桓洞镇","code":"210321111","level":4,"mergeName":"辽宁省,鞍山市,台安县,桓洞镇","lng":122.47732371677178,"lat":41.51285497876513,"info":"直接检索POI第一个结果成功!","tag":["行政地标","乡镇"]},{"name":"新华农场","code":"210321400","level":4,"mergeName":"辽宁省,鞍山市,台安县,新华农场","lng":122.29912963750454,"lat":41.26181294325923,"info":"直接检索POI第一个结果成功!","tag":""},{"name":"洪家农牧场","code":"210321401","level":4,"mergeName":"辽宁省,鞍山市,台安县,洪家农牧场","lng":122.43551352409867,"lat":41.548159010504726,"info":"直接检索POI第一个结果成功!","tag":""},{"name":"岫岩满族自治县","code":"210323","level":3,"mergeName":"辽宁省,鞍山市,岫岩满族自治县","lng":123.28754444268003,"lat":40.29589294665564,"info":"直接检索POI第一个结果成功!","tag":""},{"name":"阜昌街道","code":"210323001","level":4,"mergeName":"辽宁省,鞍山市,岫岩满族自治县,阜昌街道","lng":123.28384611889545,"lat":40.2951455062021,"info":"直接检索POI第一个结果成功!","tag":""},{"name":"兴隆街道","code":"210323003","level":4,"mergeName":"辽宁省,鞍山市,岫岩满族自治县,兴隆街道","lng":123.2923820873429,"lat":40.33292826971073,"info":"直接检索POI第一个结果成功!","tag":""},{"name":"雅河街道","code":"210323004","level":4,"mergeName":"辽宁省,鞍山市,岫岩满族自治县,雅河街道","lng":123.27153807578104,"lat":40.21442227572228,"info":"直接检索POI第一个结果成功!","tag":""},{"name":"三家子镇","code":"210323101","level":4,"mergeName":"辽宁省,鞍山市,岫岩满族自治县,三家子镇","lng":123.34210563291451,"lat":40.67670486885989,"info":"直接检索POI第一个结果成功!","tag":["行政地标","乡镇"]},{"name":"石庙子镇","code":"210323102","level":4,"mergeName":"辽宁省,鞍山市,岫岩满族自治县,石庙子镇","lng":123.53036585423493,"lat":40.66856002228757,"info":"直接检索POI第一个结果成功!","tag":["行政地标","乡镇"]},{"name":"黄花甸镇","code":"210323103","level":4,"mergeName":"辽宁省,鞍山市,岫岩满族自治县,黄花甸镇","lng":123.48238502135267,"lat":40.560440426712695,"info":"直接检索POI第一个结果成功!","tag":["行政地标","乡镇"]},{"name":"大营子镇","code":"210323104","level":4,"mergeName":"辽宁省,鞍山市,岫岩满族自治县,大营子镇","lng":123.61776262611453,"lat":40.31879472954699,"info":"直接检索POI第一个结果成功!","tag":["行政地标","乡镇"]},{"name":"苏子沟镇","code":"210323105","level":4,"mergeName":"辽宁省,鞍山市,岫岩满族自治县,苏子沟镇","lng":123.42330221033372,"lat":40.40755959050124,"info":"直接检索POI第一个结果成功!","tag":["行政地标","乡镇"]},{"name":"偏岭镇","code":"210323106","level":4,"mergeName":"辽宁省,鞍山市,岫岩满族自治县,偏岭镇","lng":123.16602526651225,"lat":40.482780376056766,"info":"直接检索POI第一个结果成功!","tag":["行政地标","乡镇"]},{"name":"哈达碑镇","code":"210323107","level":4,"mergeName":"辽宁省,鞍山市,岫岩满族自治县,哈达碑镇","lng":123.16797539794386,"lat":40.36338821168523,"info":"直接检索POI第一个结果成功!","tag":["行政地标","乡镇"]},{"name":"新甸镇","code":"210323108","level":4,"mergeName":"辽宁省,鞍山市,岫岩满族自治县,新甸镇","lng":123.13481292292366,"lat":40.09891803735391,"info":"直接检索POI第一个结果成功!","tag":""},{"name":"洋河镇","code":"210323109","level":4,"mergeName":"辽宁省,鞍山市,岫岩满族自治县,洋河镇","lng":123.42145933657999,"lat":40.06537775977337,"info":"直接检索POI第一个结果成功!","tag":["行政地标","乡镇"]},{"name":"杨家堡镇","code":"210323111","level":4,"mergeName":"辽宁省,鞍山市,岫岩满族自治县,杨家堡镇","lng":123.3216760096844,"lat":40.17210384823391,"info":"直接检索POI第一个结果成功!","tag":["行政地标","乡镇"]},{"name":"清凉山镇","code":"210323112","level":4,"mergeName":"辽宁省,鞍山市,岫岩满族自治县,清凉山镇","lng":123.62379124422256,"lat":40.60712331338412,"info":"直接检索POI第一个结果成功!","tag":["行政地标","乡镇"]},{"name":"石灰窑镇","code":"210323113","level":4,"mergeName":"辽宁省,鞍山市,岫岩满族自治县,石灰窑镇","lng":123.10646437730087,"lat":40.321133531333814,"info":"直接检索POI第一个结果成功!","tag":["行政地标","乡镇"]},{"name":"前营子镇","code":"210323114","level":4,"mergeName":"辽宁省,鞍山市,岫岩满族自治县,前营子镇","lng":123.19881826847619,"lat":40.216836891264514,"info":"直接检索POI第一个结果成功!","tag":["名称标注类"]},{"name":"龙潭镇","code":"210323115","level":4,"mergeName":"辽宁省,鞍山市,岫岩满族自治县,龙潭镇","lng":123.13293303898294,"lat":40.15002673672415,"info":"直接检索POI第一个结果成功!","tag":["行政地标","乡镇"]},{"name":"牧牛镇","code":"210323116","level":4,"mergeName":"辽宁省,鞍山市,岫岩满族自治县,牧牛镇","lng":123.24223481106225,"lat":40.66675566621513,"info":"直接检索POI第一个结果成功!","tag":["行政地标","乡镇"]},{"name":"药山镇","code":"210323117","level":4,"mergeName":"辽宁省,鞍山市,岫岩满族自治县,药山镇","lng":123.40895690015323,"lat":40.61108089338144,"info":"直接检索POI第一个结果成功!","tag":["行政地标","乡镇"]},{"name":"大房身镇","code":"210323118","level":4,"mergeName":"辽宁省,鞍山市,岫岩满族自治县,大房身镇","lng":123.34205667526422,"lat":40.50441735421972,"info":"直接检索POI第一个结果成功!","tag":["行政地标","乡镇"]},{"name":"朝阳镇","code":"210323119","level":4,"mergeName":"辽宁省,鞍山市,岫岩满族自治县,朝阳镇","lng":123.56197812343656,"lat":40.46480438623291,"info":"检索POI失败,BMAP_STATUE_CODE:1 ,GetPoint结果: 直接查询获得"},{"name":"红旗营子乡","code":"210323206","level":4,"mergeName":"辽宁省,鞍山市,岫岩满族自治县,红旗营子乡","lng":123.45217563586597,"lat":40.34985191939347,"info":"直接检索POI第一个结果成功!","tag":["行政地标","乡镇"]},{"name":"岭沟乡","code":"210323211","level":4,"mergeName":"辽宁省,鞍山市,岫岩满族自治县,岭沟乡","lng":123.44146702571207,"lat":40.18047088087913,"info":"直接检索POI第一个结果成功!","tag":["行政地标","乡镇"]},{"name":"哨子河乡","code":"210323212","level":4,"mergeName":"辽宁省,鞍山市,岫岩满族自治县,哨子河乡","lng":123.53885241587933,"lat":40.18108358125591,"info":"直接检索POI第一个结果成功!","tag":["行政地标","乡镇"]},{"name":"海城市","code":"210381","level":3,"mergeName":"辽宁省,鞍山市,海城市","lng":122.69157263514026,"lat":40.887634424328404,"info":"直接检索POI第一个结果成功!","tag":""},{"name":"海州街道","code":"210381001","level":4,"mergeName":"辽宁省,鞍山市,海城市,海州街道","lng":122.766142682304,"lat":40.85797583668435,"info":"直接检索POI第一个结果成功!","tag":""},{"name":"兴海街道","code":"210381002","level":4,"mergeName":"辽宁省,鞍山市,海城市,兴海街道","lng":122.73763181287556,"lat":40.87003572317893,"info":"直接检索POI第一个结果成功!","tag":["行政地标","乡镇"]},{"name":"响堂街道","code":"210381003","level":4,"mergeName":"辽宁省,鞍山市,海城市,响堂街道","lng":122.77931255972467,"lat":40.84194366756847,"info":"直接检索POI第一个结果成功!","tag":""},{"name":"东四街道","code":"210381004","level":4,"mergeName":"辽宁省,鞍山市,海城市,东四街道","lng":122.6381081861029,"lat":40.909234458586916,"info":"直接检索POI第一个结果成功!","tag":""},{"name":"温泉街道","code":"210381006","level":4,"mergeName":"辽宁省,鞍山市,海城市,温泉街道","lng":122.74490341631773,"lat":41.03223964621014,"info":"直接检索POI第一个结果成功!","tag":""},{"name":"孤山镇","code":"210381101","level":4,"mergeName":"辽宁省,鞍山市,海城市,孤山镇","lng":122.97765167903648,"lat":40.59315819700484,"info":"直接检索POI第一个结果成功!","tag":["行政地标","乡镇"]},{"name":"岔沟镇","code":"210381102","level":4,"mergeName":"辽宁省,鞍山市,海城市,岔沟镇","lng":122.90401874418076,"lat":40.649246931641414,"info":"直接检索POI第一个结果成功!","tag":["行政地标","乡镇"]},{"name":"接文镇","code":"210381103","level":4,"mergeName":"辽宁省,鞍山市,海城市,接文镇","lng":123.0232111294166,"lat":40.71560187746619,"info":"直接检索POI第一个结果成功!","tag":["行政地标","乡镇"]},{"name":"析木镇","code":"210381104","level":4,"mergeName":"辽宁省,鞍山市,海城市,析木镇","lng":122.92025040610166,"lat":40.70709437125629,"info":"直接检索POI第一个结果成功!","tag":["行政地标","乡镇"]},{"name":"马风镇","code":"210381105","level":4,"mergeName":"辽宁省,鞍山市,海城市,马风镇","lng":122.91456601866506,"lat":40.81478988030932,"info":"直接检索POI第一个结果成功!","tag":["行政地标","乡镇"]},{"name":"牌楼镇","code":"210381107","level":4,"mergeName":"辽宁省,鞍山市,海城市,牌楼镇","lng":122.84601300146825,"lat":40.73662935186587,"info":"直接检索POI第一个结果成功!","tag":["名称标注类"]},{"name":"八里镇","code":"210381108","level":4,"mergeName":"辽宁省,鞍山市,海城市,八里镇","lng":122.76549796843948,"lat":40.79603469876813,"info":"直接检索POI第一个结果成功!","tag":["行政地标","乡镇"]},{"name":"毛祁镇","code":"210381109","level":4,"mergeName":"辽宁省,鞍山市,海城市,毛祁镇","lng":122.70704693568568,"lat":40.8001101434081,"info":"直接检索POI第一个结果成功!","tag":["行政地标","乡镇"]},{"name":"英落镇","code":"210381110","level":4,"mergeName":"辽宁省,鞍山市,海城市,英落镇","lng":122.71404455594731,"lat":40.65076336995791,"info":"直接检索POI第一个结果成功!","tag":["行政地标","乡镇"]},{"name":"感王镇","code":"210381111","level":4,"mergeName":"辽宁省,鞍山市,海城市,感王镇","lng":122.56496285147799,"lat":40.81732701289275,"info":"直接检索POI第一个结果成功!","tag":["行政地标","乡镇"]},{"name":"西柳镇","code":"210381112","level":4,"mergeName":"辽宁省,鞍山市,海城市,西柳镇","lng":122.6343506639852,"lat":40.85634008294318,"info":"直接检索POI第一个结果成功!","tag":["行政地标","乡镇"]},{"name":"中小镇","code":"210381113","level":4,"mergeName":"辽宁省,鞍山市,海城市,中小镇","lng":122.57639675350063,"lat":40.89471711221592,"info":"直接检索POI第一个结果成功!","tag":["行政地标","乡镇"]},{"name":"王石镇","code":"210381114","level":4,"mergeName":"辽宁省,鞍山市,海城市,王石镇","lng":122.82334920260428,"lat":40.86714640789769,"info":"直接检索POI第一个结果成功!","tag":["名称标注类"]},{"name":"南台镇","code":"210381115","level":4,"mergeName":"辽宁省,鞍山市,海城市,南台镇","lng":122.80429048341293,"lat":40.92797542423649,"info":"直接检索POI第一个结果成功!","tag":["行政地标","乡镇"]},{"name":"腾鳌镇","code":"210381118","level":4,"mergeName":"辽宁省,鞍山市,海城市,腾鳌镇","lng":122.82952065128838,"lat":41.072751884741294,"info":"直接检索POI第一个结果成功!","tag":["行政地标","乡镇"]},{"name":"耿庄镇","code":"210381121","level":4,"mergeName":"辽宁省,鞍山市,海城市,耿庄镇","lng":122.73247509009552,"lat":40.986642257269054,"info":"直接检索POI第一个结果成功!","tag":["行政地标","乡镇"]},{"name":"牛庄镇","code":"210381123","level":4,"mergeName":"辽宁省,鞍山市,海城市,牛庄镇","lng":122.542557135787,"lat":40.95499051723165,"info":"直接检索POI第一个结果成功!","tag":["行政地标","乡镇"]},{"name":"西四镇","code":"210381124","level":4,"mergeName":"辽宁省,鞍山市,海城市,西四镇","lng":122.45509119438313,"lat":40.975160801505226,"info":"直接检索POI第一个结果成功!","tag":["行政地标","乡镇"]},{"name":"望台镇","code":"210381125","level":4,"mergeName":"辽宁省,鞍山市,海城市,望台镇","lng":122.62634065341383,"lat":40.97380582840973,"info":"直接检索POI第一个结果成功!","tag":["行政地标","乡镇"]},{"name":"温香镇","code":"210381126","level":4,"mergeName":"辽宁省,鞍山市,海城市,温香镇","lng":122.60767431406926,"lat":41.07550107452513,"info":"直接检索POI第一个结果成功!","tag":["行政地标","乡镇"]},{"name":"高坨镇","code":"210381127","level":4,"mergeName":"辽宁省,鞍山市,海城市,高坨镇","lng":122.66697280824116,"lat":41.13899833281504,"info":"直接检索POI第一个结果成功!","tag":["行政地标","乡镇"]},{"name":"抚顺市","code":"2104","level":2,"mergeName":"辽宁省,抚顺市","lng":123.96437272917292,"lat":41.88596811621453,"info":"直接检索POI第一个结果成功!","tag":""},{"name":"新抚区","code":"210402","level":3,"mergeName":"辽宁省,抚顺市,新抚区","lng":123.91958321644542,"lat":41.86780706726467,"info":"直接检索POI第一个结果成功!","tag":""},{"name":"站前街道","code":"210402001","level":4,"mergeName":"辽宁省,抚顺市,新抚区,站前街道","lng":123.91294752347376,"lat":41.87335456040053,"info":"直接检索POI第一个结果成功!","tag":["行政地标","乡镇"]},{"name":"福民街道","code":"210402005","level":4,"mergeName":"辽宁省,抚顺市,新抚区,福民街道","lng":123.88807029983319,"lat":41.8668257526045,"info":"直接检索POI第一个结果成功!","tag":""},{"name":"新抚街道","code":"210402007","level":4,"mergeName":"辽宁省,抚顺市,新抚区,新抚街道","lng":123.88351822649193,"lat":41.865611275799566,"info":"直接检索POI第一个结果成功!","tag":["行政地标","乡镇"]},{"name":"榆林街道","code":"210402009","level":4,"mergeName":"辽宁省,抚顺市,新抚区,榆林街道","lng":123.95221919460623,"lat":41.87771102251793,"info":"直接检索POI第一个结果成功!","tag":["行政地标","乡镇"]},{"name":"永安台街道","code":"210402011","level":4,"mergeName":"辽宁省,抚顺市,新抚区,永安台街道","lng":123.92314526728413,"lat":41.86641425936265,"info":"直接检索POI第一个结果成功!","tag":["行政地标","乡镇"]},{"name":"刘山街道","code":"210402019","level":4,"mergeName":"辽宁省,抚顺市,新抚区,刘山街道","lng":123.90008217162097,"lat":41.831657762830574,"info":"直接检索POI第一个结果成功!","tag":""},{"name":"千金乡","code":"210402201","level":4,"mergeName":"辽宁省,抚顺市,新抚区,千金乡","lng":123.94866891156968,"lat":41.810816602609385,"info":"直接检索POI第一个结果成功!","tag":["行政地标","乡镇"]},{"name":"东洲区","code":"210403","level":3,"mergeName":"辽宁省,抚顺市,东洲区","lng":124.04555259810962,"lat":41.85919133957915,"info":"直接检索POI第一个结果成功!","tag":""},{"name":"东洲街道","code":"210403002","level":4,"mergeName":"辽宁省,抚顺市,东洲区,东洲街道","lng":124.05990707100631,"lat":41.87497307814213,"info":"直接检索POI第一个结果成功!","tag":["行政地标","乡镇"]},{"name":"搭连街道","code":"210403004","level":4,"mergeName":"辽宁省,抚顺市,东洲区,搭连街道","lng":124.03468552686377,"lat":41.854094347667946,"info":"直接检索POI第一个结果成功!","tag":["行政地标","乡镇"]},{"name":"龙凤街道","code":"210403005","level":4,"mergeName":"辽宁省,抚顺市,东洲区,龙凤街道","lng":124.01774096969015,"lat":41.851081884280525,"info":"直接检索POI第一个结果成功!","tag":["行政地标","乡镇"]},{"name":"新屯街道","code":"210403006","level":4,"mergeName":"辽宁省,抚顺市,东洲区,新屯街道","lng":123.98748801638622,"lat":41.84409252888093,"info":"直接检索POI第一个结果成功!","tag":["行政地标","乡镇"]},{"name":"万新街道","code":"210403007","level":4,"mergeName":"辽宁省,抚顺市,东洲区,万新街道","lng":123.97022141668728,"lat":41.848942338612005,"info":"直接检索POI第一个结果成功!","tag":["名称标注类"]},{"name":"老虎台街道","code":"210403008","level":4,"mergeName":"辽宁省,抚顺市,东洲区,老虎台街道","lng":123.95247161845452,"lat":41.843252249826214,"info":"直接检索POI第一个结果成功!","tag":["名称标注类"]},{"name":"章党街道","code":"210403012","level":4,"mergeName":"辽宁省,抚顺市,东洲区,章党街道","lng":124.08463373864342,"lat":41.913446868722644,"info":"直接检索POI第一个结果成功!","tag":["行政地标","乡镇"]},{"name":"章党镇","code":"210403103","level":4,"mergeName":"辽宁省,抚顺市,东洲区,章党镇","lng":124.08440368260231,"lat":41.913336421854524,"info":"直接检索POI第一个结果成功!","tag":""},{"name":"哈达镇","code":"210403104","level":4,"mergeName":"辽宁省,抚顺市,东洲区,哈达镇","lng":124.1563125895233,"lat":41.9835488491653,"info":"直接检索POI第一个结果成功!","tag":["行政地标","乡镇"]},{"name":"碾盘乡","code":"210403202","level":4,"mergeName":"辽宁省,抚顺市,东洲区,碾盘乡","lng":124.051090382087,"lat":41.82071580805886,"info":"直接检索POI第一个结果成功!","tag":["行政地标","乡镇"]},{"name":"兰山乡","code":"210403215","level":4,"mergeName":"辽宁省,抚顺市,东洲区,兰山乡","lng":124.09680712576188,"lat":41.80986317281225,"info":"直接检索POI第一个结果成功!","tag":["行政地标","乡镇"]},{"name":"望花区","code":"210404","level":3,"mergeName":"辽宁省,抚顺市,望花区","lng":123.79060451132278,"lat":41.85903016127567,"info":"直接检索POI第一个结果成功!","tag":""},{"name":"工农街道","code":"210404002","level":4,"mergeName":"辽宁省,抚顺市,望花区,工农街道","lng":123.78083112703531,"lat":41.85948904826101,"info":"直接检索POI第一个结果成功!","tag":["行政地标","乡镇"]},{"name":"建设街道","code":"210404003","level":4,"mergeName":"辽宁省,抚顺市,望花区,建设街道","lng":123.79627084281861,"lat":41.85314888800594,"info":"直接检索POI第一个结果成功!","tag":["行政地标","乡镇"]},{"name":"和平街道","code":"210404004","level":4,"mergeName":"辽宁省,抚顺市,望花区,和平街道","lng":123.81418619875687,"lat":41.85409864609556,"info":"直接检索POI第一个结果成功!","tag":""},{"name":"光明街道","code":"210404005","level":4,"mergeName":"辽宁省,抚顺市,望花区,光明街道","lng":123.82393353218454,"lat":41.85202582992795,"info":"直接检索POI第一个结果成功!","tag":""},{"name":"朴屯街道","code":"210404006","level":4,"mergeName":"辽宁省,抚顺市,望花区,朴屯街道","lng":123.82900455661891,"lat":41.85296123169632,"info":"直接检索POI第一个结果成功!","tag":["行政地标","乡镇"]},{"name":"演武街道","code":"210404007","level":4,"mergeName":"辽宁省,抚顺市,望花区,演武街道","lng":123.86119066338031,"lat":41.84037214914354,"info":"直接检索POI第一个结果成功!","tag":["行政地标","乡镇"]},{"name":"李石街道","code":"210404011","level":4,"mergeName":"辽宁省,抚顺市,望花区,李石街道","lng":123.73190608523154,"lat":41.82825090438386,"info":"直接检索POI第一个结果成功!","tag":["行政地标","乡镇"]},{"name":"塔峪镇","code":"210404101","level":4,"mergeName":"辽宁省,抚顺市,望花区,塔峪镇","lng":123.88058391154358,"lat":41.803607791834914,"info":"直接检索POI第一个结果成功!","tag":["行政地标","乡镇"]},{"name":"拉古满族乡","code":"210404201","level":4,"mergeName":"辽宁省,抚顺市,望花区,拉古满族乡","lng":123.82802100191604,"lat":41.72868621007776,"info":"直接检索POI第一个结果成功!","tag":""},{"name":"顺城区","code":"210411","level":3,"mergeName":"辽宁省,抚顺市,顺城区","lng":123.95141018066394,"lat":41.88916338571195,"info":"直接检索POI第一个结果成功!","tag":""},{"name":"长春街道","code":"210411002","level":4,"mergeName":"辽宁省,抚顺市,顺城区,长春街道","lng":123.96139637352671,"lat":41.89421165045168,"info":"直接检索POI第一个结果成功!","tag":["行政地标","乡镇"]},{"name":"葛布街道","code":"210411003","level":4,"mergeName":"辽宁省,抚顺市,顺城区,葛布街道","lng":123.87318986906041,"lat":41.88754402177321,"info":"直接检索POI第一个结果成功!","tag":["行政地标","乡镇"]},{"name":"将军堡街道","code":"210411004","level":4,"mergeName":"辽宁省,抚顺市,顺城区,将军堡街道","lng":123.8892494156456,"lat":41.877488191296045,"info":"直接检索POI第一个结果成功!","tag":""},{"name":"新华街道","code":"210411005","level":4,"mergeName":"辽宁省,抚顺市,顺城区,新华街道","lng":123.93148181190838,"lat":41.88501239056636,"info":"直接检索POI第一个结果成功!","tag":["行政地标","乡镇"]},{"name":"抚顺城街道","code":"210411007","level":4,"mergeName":"辽宁省,抚顺市,顺城区,抚顺城街道","lng":123.92431522038032,"lat":41.885737325598754,"info":"直接检索POI第一个结果成功!","tag":["行政地标","乡镇"]},{"name":"前甸镇","code":"210411102","level":4,"mergeName":"辽宁省,抚顺市,顺城区,前甸镇","lng":124.00327977809889,"lat":41.90617729606871,"info":"直接检索POI第一个结果成功!","tag":["行政地标","乡镇"]},{"name":"河北乡","code":"210411201","level":4,"mergeName":"辽宁省,抚顺市,顺城区,河北乡","lng":123.93849021183613,"lat":41.88936979726969,"info":"直接检索POI第一个结果成功!","tag":["行政地标","乡镇"]},{"name":"会元乡","code":"210411205","level":4,"mergeName":"辽宁省,抚顺市,顺城区,会元乡","lng":123.88195697151558,"lat":41.98018915847161,"info":"直接检索POI第一个结果成功!","tag":["行政地标","乡镇"]},{"name":"抚顺县","code":"210421","level":3,"mergeName":"辽宁省,抚顺市,抚顺县","lng":123.92158643773267,"lat":41.887038817943676,"info":"直接检索POI第一个结果成功!","tag":""},{"name":"石文镇","code":"210421101","level":4,"mergeName":"辽宁省,抚顺市,抚顺县,石文镇","lng":123.91002434751374,"lat":41.73311779820628,"info":"直接检索POI第一个结果成功!","tag":["行政地标","乡镇"]},{"name":"后安镇","code":"210421102","level":4,"mergeName":"辽宁省,抚顺市,抚顺县,后安镇","lng":124.22463986254543,"lat":41.7142727887387,"info":"直接检索POI第一个结果成功!","tag":["行政地标","乡镇"]},{"name":"上马镇","code":"210421105","level":4,"mergeName":"辽宁省,抚顺市,抚顺县,上马镇","lng":124.15874834491359,"lat":41.787785857794766,"info":"直接检索POI第一个结果成功!","tag":""},{"name":"救兵镇","code":"210421106","level":4,"mergeName":"辽宁省,抚顺市,抚顺县,救兵镇","lng":124.11649331135195,"lat":41.646256096813744,"info":"直接检索POI第一个结果成功!","tag":["行政地标","乡镇"]},{"name":"马圈子乡","code":"210421204","level":4,"mergeName":"辽宁省,抚顺市,抚顺县,马圈子乡","lng":124.38292856967819,"lat":41.531985721567416,"info":"直接检索POI第一个结果成功!","tag":["行政地标","乡镇"]},{"name":"峡河乡","code":"210421209","level":4,"mergeName":"辽宁省,抚顺市,抚顺县,峡河乡","lng":123.99201107445951,"lat":41.65676957981276,"info":"直接检索POI第一个结果成功!","tag":["行政地标","乡镇"]},{"name":"海浪乡","code":"210421211","level":4,"mergeName":"辽宁省,抚顺市,抚顺县,海浪乡","lng":123.78592694470177,"lat":41.58322968086961,"info":"直接检索POI第一个结果成功!","tag":["行政地标","乡镇"]},{"name":"汤图满族乡","code":"210421216","level":4,"mergeName":"辽宁省,抚顺市,抚顺县,汤图满族乡","lng":124.35174649898529,"lat":41.84052652273586,"info":"直接检索POI第一个结果成功!","tag":["行政地标","乡镇"]},{"name":"新宾满族自治县","code":"210422","level":3,"mergeName":"辽宁省,抚顺市,新宾满族自治县","lng":125.04635476677606,"lat":41.739968976921155,"info":"直接检索POI第一个结果成功!","tag":""},{"name":"新宾镇","code":"210422100","level":4,"mergeName":"辽宁省,抚顺市,新宾满族自治县,新宾镇","lng":125.04369928585803,"lat":41.745435799589735,"info":"直接检索POI第一个结果成功!","tag":["行政地标","乡镇"]},{"name":"旺清门镇","code":"210422101","level":4,"mergeName":"辽宁省,抚顺市,新宾满族自治县,旺清门镇","lng":125.30616160840528,"lat":41.687727952184055,"info":"直接检索POI第一个结果成功!","tag":["行政地标","乡镇"]},{"name":"永陵镇","code":"210422102","level":4,"mergeName":"辽宁省,抚顺市,新宾满族自治县,永陵镇","lng":124.83890530247372,"lat":41.717159475902335,"info":"直接检索POI第一个结果成功!","tag":["行政地标","乡镇"]},{"name":"平顶山镇","code":"210422103","level":4,"mergeName":"辽宁省,抚顺市,新宾满族自治县,平顶山镇","lng":124.77588737433774,"lat":41.42064198281369,"info":"直接检索POI第一个结果成功!","tag":["行政地标","乡镇"]},{"name":"大四平镇","code":"210422104","level":4,"mergeName":"辽宁省,抚顺市,新宾满族自治县,大四平镇","lng":124.7262372203263,"lat":41.32397431184661,"info":"直接检索POI第一个结果成功!","tag":["行政地标","乡镇"]},{"name":"苇子峪镇","code":"210422105","level":4,"mergeName":"辽宁省,抚顺市,新宾满族自治县,苇子峪镇","lng":124.51916594264365,"lat":41.44338000143123,"info":"直接检索POI第一个结果成功!","tag":["行政地标","乡镇"]},{"name":"木奇镇","code":"210422106","level":4,"mergeName":"辽宁省,抚顺市,新宾满族自治县,木奇镇","lng":124.6336290188611,"lat":41.77880490656768,"info":"直接检索POI第一个结果成功!","tag":["行政地标","乡镇"]},{"name":"上夹河镇","code":"210422108","level":4,"mergeName":"辽宁省,抚顺市,新宾满族自治县,上夹河镇","lng":124.49852566677143,"lat":41.859023042557816,"info":"直接检索POI第一个结果成功!","tag":["行政地标","乡镇"]},{"name":"南杂木镇","code":"210422109","level":4,"mergeName":"辽宁省,抚顺市,新宾满族自治县,南杂木镇","lng":124.42226330185744,"lat":41.976005516131636,"info":"直接检索POI第一个结果成功!","tag":["行政地标","乡镇"]},{"name":"红升乡","code":"210422202","level":4,"mergeName":"辽宁省,抚顺市,新宾满族自治县,红升乡","lng":125.14617142080608,"lat":41.714000583829645,"info":"直接检索POI第一个结果成功!","tag":["行政地标","乡镇"]},{"name":"响水河子乡","code":"210422203","level":4,"mergeName":"辽宁省,抚顺市,新宾满族自治县,响水河子乡","lng":125.35986671348874,"lat":41.614534915327305,"info":"直接检索POI第一个结果成功!","tag":["行政地标","乡镇"]},{"name":"红庙子乡","code":"210422204","level":4,"mergeName":"辽宁省,抚顺市,新宾满族自治县,红庙子乡","lng":125.15415627882317,"lat":41.545405806475664,"info":"直接检索POI第一个结果成功!","tag":["行政地标","乡镇"]},{"name":"北四平乡","code":"210422205","level":4,"mergeName":"辽宁省,抚顺市,新宾满族自治县,北四平乡","lng":125.19443342331296,"lat":41.80517613093842,"info":"直接检索POI第一个结果成功!","tag":["行政地标","乡镇"]},{"name":"榆树乡","code":"210422207","level":4,"mergeName":"辽宁省,抚顺市,新宾满族自治县,榆树乡","lng":124.83096086820456,"lat":41.652808630664985,"info":"直接检索POI第一个结果成功!","tag":["行政地标","乡镇"]},{"name":"下夹河乡","code":"210422208","level":4,"mergeName":"辽宁省,抚顺市,新宾满族自治县,下夹河乡","lng":124.44506031942858,"lat":41.38763712638669,"info":"直接检索POI第一个结果成功!","tag":""},{"name":"清原满族自治县","code":"210423","level":3,"mergeName":"辽宁省,抚顺市,清原满族自治县","lng":124.93035657627262,"lat":42.10675958783983,"info":"直接检索POI第一个结果成功!","tag":""},{"name":"清原镇","code":"210423100","level":4,"mergeName":"辽宁省,抚顺市,清原满族自治县,清原镇","lng":124.92437547852607,"lat":42.09592621863627,"info":"直接检索POI第一个结果成功!","tag":["行政地标","乡镇"]},{"name":"红透山镇","code":"210423101","level":4,"mergeName":"辽宁省,抚顺市,清原满族自治县,红透山镇","lng":124.5176316368326,"lat":42.00161555128243,"info":"直接检索POI第一个结果成功!","tag":["名称标注类"]},{"name":"草市镇","code":"210423103","level":4,"mergeName":"辽宁省,抚顺市,清原满族自治县,草市镇","lng":125.2380970897448,"lat":42.30333099632043,"info":"直接检索POI第一个结果成功!","tag":["行政地标","乡镇"]},{"name":"英额门镇","code":"210423104","level":4,"mergeName":"辽宁省,抚顺市,清原满族自治县,英额门镇","lng":125.09906077647135,"lat":42.18174485695595,"info":"直接检索POI第一个结果成功!","tag":["行政地标","乡镇"]},{"name":"南口前镇","code":"210423105","level":4,"mergeName":"辽宁省,抚顺市,清原满族自治县,南口前镇","lng":124.61374906877252,"lat":41.99563412145237,"info":"直接检索POI第一个结果成功!","tag":["行政地标","乡镇"]},{"name":"南山城镇","code":"210423106","level":4,"mergeName":"辽宁省,抚顺市,清原满族自治县,南山城镇","lng":125.28496474243909,"lat":42.11686165704972,"info":"直接检索POI第一个结果成功!","tag":["行政地标","乡镇"]},{"name":"湾甸子镇","code":"210423107","level":4,"mergeName":"辽宁省,抚顺市,清原满族自治县,湾甸子镇","lng":125.12954019259435,"lat":41.96311051715154,"info":"直接检索POI第一个结果成功!","tag":["行政地标","乡镇"]},{"name":"大孤家镇","code":"210423108","level":4,"mergeName":"辽宁省,抚顺市,清原满族自治县,大孤家镇","lng":124.85624475474951,"lat":42.38463475089048,"info":"直接检索POI第一个结果成功!","tag":["行政地标","乡镇"]},{"name":"夏家堡镇","code":"210423109","level":4,"mergeName":"辽宁省,抚顺市,清原满族自治县,夏家堡镇","lng":124.70199662580065,"lat":42.26166101291475,"info":"直接检索POI第一个结果成功!","tag":["行政地标","乡镇"]},{"name":"北三家镇","code":"210423110","level":4,"mergeName":"辽宁省,抚顺市,清原满族自治县,北三家镇","lng":124.71097069784533,"lat":42.045722000096596,"info":"直接检索POI第一个结果成功!","tag":["行政地标","乡镇"]},{"name":"土口子乡","code":"210423203","level":4,"mergeName":"辽宁省,抚顺市,清原满族自治县,土口子乡","lng":125.0795116723021,"lat":42.330194853638965,"info":"直接检索POI第一个结果成功!","tag":["行政地标","乡镇"]},{"name":"敖家堡乡","code":"210423206","level":4,"mergeName":"辽宁省,抚顺市,清原满族自治县,敖家堡乡","lng":124.78924077557411,"lat":41.91767873095151,"info":"直接检索POI第一个结果成功!","tag":["行政地标","乡镇"]},{"name":"大苏河乡","code":"210423207","level":4,"mergeName":"辽宁省,抚顺市,清原满族自治县,大苏河乡","lng":124.96698974446116,"lat":41.92891041431165,"info":"直接检索POI第一个结果成功!","tag":["行政地标","乡镇"]},{"name":"枸乃甸乡","code":"210423208","level":4,"mergeName":"辽宁省,抚顺市,清原满族自治县,枸乃甸乡","lng":124.9183504536401,"lat":42.201897361149676,"info":"直接检索POI第一个结果成功!","tag":["行政地标","乡镇"]},{"name":"本溪市","code":"2105","level":2,"mergeName":"辽宁省,本溪市","lng":123.69250954963319,"lat":41.49291477195962,"info":"直接检索POI第一个结果成功!","tag":""},{"name":"平山区","code":"210502","level":3,"mergeName":"辽宁省,本溪市,平山区","lng":123.77461467324517,"lat":41.301603843052064,"info":"直接检索POI第一个结果成功!","tag":""},{"name":"南地街道","code":"210502001","level":4,"mergeName":"辽宁省,本溪市,平山区,南地街道","lng":123.76540299939312,"lat":41.28341314591415,"info":"直接检索POI第一个结果成功!","tag":["行政地标","乡镇"]},{"name":"平山街道","code":"210502003","level":4,"mergeName":"辽宁省,本溪市,平山区,平山街道","lng":123.7907901910717,"lat":41.29534037061008,"info":"直接检索POI第一个结果成功!","tag":["行政地标","乡镇"]},{"name":"东明街道","code":"210502004","level":4,"mergeName":"辽宁省,本溪市,平山区,东明街道","lng":123.77622057400536,"lat":41.302437161068795,"info":"直接检索POI第一个结果成功!","tag":""},{"name":"崔东街道","code":"210502005","level":4,"mergeName":"辽宁省,本溪市,平山区,崔东街道","lng":123.77521438200364,"lat":41.28980908498163,"info":"直接检索POI第一个结果成功!","tag":""},{"name":"站前街道","code":"210502007","level":4,"mergeName":"辽宁省,本溪市,平山区,站前街道","lng":123.77028924238408,"lat":41.29403838815183,"info":"直接检索POI第一个结果成功!","tag":["行政地标","乡镇"]},{"name":"千金街道","code":"210502008","level":4,"mergeName":"辽宁省,本溪市,平山区,千金街道","lng":123.76685340346951,"lat":41.27497591773597,"info":"直接检索POI第一个结果成功!","tag":["行政地标","乡镇"]},{"name":"桥北街道","code":"210502012","level":4,"mergeName":"辽宁省,本溪市,平山区,桥北街道","lng":123.65062848065534,"lat":41.2304594918685,"info":"直接检索POI第一个结果成功!","tag":["名称标注类"]},{"name":"溪湖区","code":"210503","level":3,"mergeName":"辽宁省,本溪市,溪湖区","lng":123.77461467324517,"lat":41.33480360845957,"info":"直接检索POI第一个结果成功!","tag":""},{"name":"河东街道","code":"210503001","level":4,"mergeName":"辽宁省,本溪市,溪湖区,河东街道","lng":123.77178833461912,"lat":41.335497966654714,"info":"直接检索POI第一个结果成功!","tag":["行政地标","乡镇"]},{"name":"河西街道","code":"210503003","level":4,"mergeName":"辽宁省,本溪市,溪湖区,河西街道","lng":123.75190550995293,"lat":41.34121951922189,"info":"直接检索POI第一个结果成功!","tag":["行政地标","乡镇"]},{"name":"彩屯街道","code":"210503005","level":4,"mergeName":"辽宁省,本溪市,溪湖区,彩屯街道","lng":123.74521924238105,"lat":41.309521793727484,"info":"直接检索POI第一个结果成功!","tag":["行政地标","村庄"]},{"name":"东风街道","code":"210503009","level":4,"mergeName":"辽宁省,本溪市,溪湖区,东风街道","lng":123.72536417535512,"lat":41.322986526680744,"info":"直接检索POI第一个结果成功!","tag":["行政地标","乡镇"]},{"name":"石桥子街道","code":"210503010","level":4,"mergeName":"辽宁省,本溪市,溪湖区,石桥子街道","lng":123.73200723443196,"lat":41.459777318605845,"info":"直接检索POI第一个结果成功!","tag":["行政地标","乡镇"]},{"name":"日月岛街道","code":"210503011","level":4,"mergeName":"辽宁省,本溪市,溪湖区,日月岛街道","lng":123.69544054085114,"lat":41.50599402803935,"info":"直接检索POI第一个结果成功!","tag":""},{"name":"火连寨街道","code":"210503013","level":4,"mergeName":"辽宁省,本溪市,溪湖区,火连寨街道","lng":123.73684559773925,"lat":41.37171064105148,"info":"直接检索POI第一个结果成功!","tag":["行政地标","乡镇"]},{"name":"明山区","code":"210504","level":3,"mergeName":"辽宁省,本溪市,明山区","lng":123.82347350993288,"lat":41.31493794653869,"info":"直接检索POI第一个结果成功!","tag":""},{"name":"北地街道","code":"210504002","level":4,"mergeName":"辽宁省,本溪市,明山区,北地街道","lng":123.79174526948991,"lat":41.304436985692725,"info":"直接检索POI第一个结果成功!","tag":""},{"name":"高峪街道","code":"210504004","level":4,"mergeName":"辽宁省,本溪市,明山区,高峪街道","lng":123.80330807835324,"lat":41.31142799418526,"info":"直接检索POI第一个结果成功!","tag":["名称标注类"]},{"name":"明山街道","code":"210504005","level":4,"mergeName":"辽宁省,本溪市,明山区,明山街道","lng":123.77707773712298,"lat":41.31425034384843,"info":"直接检索POI第一个结果成功!","tag":["行政地标","乡镇"]},{"name":"新明街道","code":"210504008","level":4,"mergeName":"辽宁省,本溪市,明山区,新明街道","lng":123.83487686956819,"lat":41.31473197805987,"info":"直接检索POI第一个结果成功!","tag":["行政地标","乡镇"]},{"name":"牛心台街道","code":"210504009","level":4,"mergeName":"辽宁省,本溪市,明山区,牛心台街道","lng":123.90308493744917,"lat":41.35315233583346,"info":"直接检索POI第一个结果成功!","tag":["名称标注类"]},{"name":"卧龙街道","code":"210504010","level":4,"mergeName":"辽宁省,本溪市,明山区,卧龙街道","lng":123.86241900633466,"lat":41.333182755790205,"info":"直接检索POI第一个结果成功!","tag":["名称标注类"]},{"name":"高台子街道","code":"210504011","level":4,"mergeName":"辽宁省,本溪市,明山区,高台子街道","lng":123.81342551365101,"lat":41.38933536051879,"info":"直接检索POI第一个结果成功!","tag":["行政地标","乡镇"]},{"name":"南芬区","code":"210505","level":3,"mergeName":"辽宁省,本溪市,南芬区","lng":123.75146534025305,"lat":41.10709619885317,"info":"直接检索POI第一个结果成功!","tag":""},{"name":"南芬街道","code":"210505001","level":4,"mergeName":"辽宁省,本溪市,南芬区,南芬街道","lng":123.75928005920655,"lat":41.114003722854356,"info":"直接检索POI第一个结果成功!","tag":["行政地标","乡镇"]},{"name":"思山岭街道","code":"210505004","level":4,"mergeName":"辽宁省,本溪市,南芬区,思山岭街道","lng":123.81279265741924,"lat":41.199413650582066,"info":"直接检索POI第一个结果成功!","tag":["行政地标","乡镇"]},{"name":"下马塘街道","code":"210505005","level":4,"mergeName":"辽宁省,本溪市,南芬区,下马塘街道","lng":123.74801782336685,"lat":41.03706356979647,"info":"直接检索POI第一个结果成功!","tag":""},{"name":"本溪满族自治县","code":"210521","level":3,"mergeName":"辽宁省,本溪市,本溪满族自治县","lng":124.1275858572808,"lat":41.30790376194406,"info":"直接检索POI第一个结果成功!","tag":""},{"name":"观音阁街道","code":"210521001","level":4,"mergeName":"辽宁省,本溪市,本溪满族自治县,观音阁街道","lng":124.12910345460936,"lat":41.30900896189389,"info":"直接检索POI第一个结果成功!","tag":["行政地标","乡镇"]},{"name":"小市镇","code":"210521100","level":4,"mergeName":"辽宁省,本溪市,本溪满族自治县,小市镇","lng":124.12870882899884,"lat":41.304004252214064,"info":"直接检索POI第一个结果成功!","tag":["行政地标","乡镇"]},{"name":"草河掌镇","code":"210521101","level":4,"mergeName":"辽宁省,本溪市,本溪满族自治县,草河掌镇","lng":124.05521737726093,"lat":41.075940703006786,"info":"直接检索POI第一个结果成功!","tag":""},{"name":"草河城镇","code":"210521102","level":4,"mergeName":"辽宁省,本溪市,本溪满族自治县,草河城镇","lng":124.05052876148214,"lat":40.89523894057799,"info":"直接检索POI第一个结果成功!","tag":["行政地标","乡镇"]},{"name":"草河口镇","code":"210521103","level":4,"mergeName":"辽宁省,本溪市,本溪满族自治县,草河口镇","lng":123.91595603845724,"lat":40.87874811347967,"info":"直接检索POI第一个结果成功!","tag":["行政地标","乡镇"]},{"name":"连山关镇","code":"210521104","level":4,"mergeName":"辽宁省,本溪市,本溪满族自治县,连山关镇","lng":123.7607298344691,"lat":40.98272004394718,"info":"直接检索POI第一个结果成功!","tag":["行政地标","乡镇"]},{"name":"清河城镇","code":"210521106","level":4,"mergeName":"辽宁省,本溪市,本溪满族自治县,清河城镇","lng":124.23764049920804,"lat":41.46262900213567,"info":"直接检索POI第一个结果成功!","tag":["行政地标","乡镇"]},{"name":"田师傅镇","code":"210521109","level":4,"mergeName":"辽宁省,本溪市,本溪满族自治县,田师傅镇","lng":124.36347782996229,"lat":41.26657188770282,"info":"直接检索POI第一个结果成功!","tag":["行政地标","乡镇"]},{"name":"南甸镇","code":"210521110","level":4,"mergeName":"辽宁省,本溪市,本溪满族自治县,南甸镇","lng":124.38242749486473,"lat":41.292548091862514,"info":"直接检索POI第一个结果成功!","tag":""},