[{"name":"黑龙江省","code":"23","level":1,"mergeName":"黑龙江省,黑龙江省","lng":126.66965282041836,"lat":45.74792983743469,"info":"直接查询获得"},{"name":"哈尔滨市","code":"2301","level":2,"mergeName":"黑龙江省,哈尔滨市","lng":126.54161509031663,"lat":45.808825827952184,"info":"直接查询获得"},{"name":"道里区","code":"230102","level":3,"mergeName":"黑龙江省,哈尔滨市,道里区","lng":126.62343158836877,"lat":45.76184447881502,"info":"直接查询获得"},{"name":"兆麟街道","code":"230102001","level":4,"mergeName":"黑龙江省,哈尔滨市,道里区,兆麟街道","lng":126.63608671068145,"lat":45.77690502640277,"info":"直接查询获得"},{"name":"新阳路街道","code":"230102002","level":4,"mergeName":"黑龙江省,哈尔滨市,道里区,新阳路街道","lng":126.62700837141787,"lat":45.7674337514948,"info":"直接查询获得"},{"name":"抚顺街道","code":"230102003","level":4,"mergeName":"黑龙江省,哈尔滨市,道里区,抚顺街道","lng":126.62493801526833,"lat":45.76085905698244,"info":"直接查询获得"},{"name":"共乐街道","code":"230102004","level":4,"mergeName":"黑龙江省,哈尔滨市,道里区,共乐街道","lng":126.61644501726488,"lat":45.756912906146304,"info":"直接查询获得"},{"name":"新华街道","code":"230102005","level":4,"mergeName":"黑龙江省,哈尔滨市,道里区,新华街道","lng":126.60406236538624,"lat":45.74100881489989,"info":"直接查询获得"},{"name":"城乡路街道","code":"230102006","level":4,"mergeName":"黑龙江省,哈尔滨市,道里区,城乡路街道","lng":126.58842812603619,"lat":45.73547029309548,"info":"直接查询获得"},{"name":"工农街道","code":"230102007","level":4,"mergeName":"黑龙江省,哈尔滨市,道里区,工农街道","lng":126.55345089422453,"lat":45.724774191199664,"info":"直接查询获得"},{"name":"尚志街道","code":"230102008","level":4,"mergeName":"黑龙江省,哈尔滨市,道里区,尚志街道","lng":126.62964597605628,"lat":45.773440886858495,"info":"直接查询获得"},{"name":"斯大林街道","code":"230102009","level":4,"mergeName":"黑龙江省,哈尔滨市,道里区,斯大林街道","lng":126.63452898514745,"lat":45.78507584712416,"info":"直接查询获得"},{"name":"通江街道","code":"230102010","level":4,"mergeName":"黑龙江省,哈尔滨市,道里区,通江街道","lng":126.6237099732463,"lat":45.78114286284333,"info":"直接查询获得"},{"name":"经纬街道","code":"230102011","level":4,"mergeName":"黑龙江省,哈尔滨市,道里区,经纬街道","lng":126.62544298423619,"lat":45.77144886992716,"info":"直接查询获得"},{"name":"工程街道","code":"230102012","level":4,"mergeName":"黑龙江省,哈尔滨市,道里区,工程街道","lng":126.6154088218591,"lat":45.78185513748996,"info":"直接查询获得"},{"name":"安静街道","code":"230102013","level":4,"mergeName":"黑龙江省,哈尔滨市,道里区,安静街道","lng":126.61740126348025,"lat":45.77142824969107,"info":"直接查询获得"},{"name":"安和街道","code":"230102014","level":4,"mergeName":"黑龙江省,哈尔滨市,道里区,安和街道","lng":126.61502319457487,"lat":45.76471750334534,"info":"直接查询获得"},{"name":"正阳河街道","code":"230102015","level":4,"mergeName":"黑龙江省,哈尔滨市,道里区,正阳河街道","lng":126.6009799692661,"lat":45.766622896763856,"info":"直接查询获得"},{"name":"建国街道","code":"230102016","level":4,"mergeName":"黑龙江省,哈尔滨市,道里区,建国街道","lng":126.60379346212336,"lat":45.751706196432224,"info":"直接查询获得"},{"name":"康安街道","code":"230102017","level":4,"mergeName":"黑龙江省,哈尔滨市,道里区,康安街道","lng":126.5894116843323,"lat":45.75702234625663,"info":"直接查询获得"},{"name":"爱建街道","code":"230102018","level":4,"mergeName":"黑龙江省,哈尔滨市,道里区,爱建街道","lng":126.60601003096924,"lat":45.76885889565366,"info":"直接查询获得"},{"name":"群力街道","code":"230102019","level":4,"mergeName":"黑龙江省,哈尔滨市,道里区,群力街道","lng":126.53671797782894,"lat":45.71446796421533,"info":"直接查询获得"},{"name":"太平镇","code":"230102101","level":4,"mergeName":"黑龙江省,哈尔滨市,道里区,太平镇","lng":126.20517497342625,"lat":45.640149042604705,"info":"直接查询获得"},{"name":"新发镇","code":"230102102","level":4,"mergeName":"黑龙江省,哈尔滨市,道里区,新发镇","lng":126.52821991787395,"lat":45.69300862727809,"info":"直接查询获得"},{"name":"新农镇","code":"230102103","level":4,"mergeName":"黑龙江省,哈尔滨市,道里区,新农镇","lng":126.35998292636991,"lat":45.64648386973437,"info":"直接查询获得"},{"name":"榆树镇","code":"230102104","level":4,"mergeName":"黑龙江省,哈尔滨市,道里区,榆树镇","lng":126.46823583693646,"lat":45.6020520417704,"info":"直接查询获得"},{"name":"闫家岗农场","code":"230102500","level":4,"mergeName":"黑龙江省,哈尔滨市,道里区,闫家岗农场","lng":126.3219846032976,"lat":45.63749918303342,"info":"直接查询获得"},{"name":"道里区农垦","code":"230102579","level":4,"mergeName":"黑龙江省,哈尔滨市,道里区,道里区农垦","lng":126.62343158836877,"lat":45.76184447881502,"info":"直接查询获得"},{"name":"南岗区","code":"230103","level":3,"mergeName":"黑龙江省,哈尔滨市,南岗区","lng":126.67563849952303,"lat":45.76586616375799,"info":"直接查询获得"},{"name":"花园街道","code":"230103001","level":4,"mergeName":"黑龙江省,哈尔滨市,南岗区,花园街道","lng":126.64709036928018,"lat":45.75605402439927,"info":"直接查询获得"},{"name":"奋斗路街道","code":"230103002","level":4,"mergeName":"黑龙江省,哈尔滨市,南岗区,奋斗路街道","lng":126.66863665722548,"lat":45.7479302776874,"info":"直接查询获得"},{"name":"革新街道","code":"230103003","level":4,"mergeName":"黑龙江省,哈尔滨市,南岗区,革新街道","lng":126.66863665722548,"lat":45.7479302776874,"info":"直接查询获得"},{"name":"文化街道","code":"230103004","level":4,"mergeName":"黑龙江省,哈尔滨市,南岗区,文化街道","lng":126.65750925704275,"lat":45.74836782424031,"info":"直接查询获得"},{"name":"大成街道","code":"230103005","level":4,"mergeName":"黑龙江省,哈尔滨市,南岗区,大成街道","lng":126.67914997576156,"lat":45.76714391488651,"info":"直接查询获得"},{"name":"芦家街道","code":"230103006","level":4,"mergeName":"黑龙江省,哈尔滨市,南岗区,芦家街道","lng":126.67908260284831,"lat":45.757791438312005,"info":"直接查询获得"},{"name":"荣市街道","code":"230103007","level":4,"mergeName":"黑龙江省,哈尔滨市,南岗区,荣市街道","lng":126.65666898206872,"lat":45.7603028907343,"info":"直接查询获得"},{"name":"燎原街道","code":"230103009","level":4,"mergeName":"黑龙江省,哈尔滨市,南岗区,燎原街道","lng":126.66783941108537,"lat":45.776804653511945,"info":"直接查询获得"},{"name":"松花江街道","code":"230103010","level":4,"mergeName":"黑龙江省,哈尔滨市,南岗区,松花江街道","lng":126.63477557000994,"lat":45.76180876440725,"info":"直接查询获得"},{"name":"曲线街道","code":"230103011","level":4,"mergeName":"黑龙江省,哈尔滨市,南岗区,曲线街道","lng":126.63247842315982,"lat":45.74764323219154,"info":"直接查询获得"},{"name":"通达街道","code":"230103012","level":4,"mergeName":"黑龙江省,哈尔滨市,南岗区,通达街道","lng":126.62971936761645,"lat":45.745302095538165,"info":"直接查询获得"},{"name":"七政街道","code":"230103013","level":4,"mergeName":"黑龙江省,哈尔滨市,南岗区,七政街道","lng":126.62161431632207,"lat":45.743810365779396,"info":"直接查询获得"},{"name":"和兴路街道","code":"230103015","level":4,"mergeName":"黑龙江省,哈尔滨市,南岗区,和兴路街道","lng":126.61706601586393,"lat":45.74142384179008,"info":"直接查询获得"},{"name":"哈西街道","code":"230103016","level":4,"mergeName":"黑龙江省,哈尔滨市,南岗区,哈西街道","lng":126.59899624120841,"lat":45.723053756664754,"info":"直接查询获得"},{"name":"保健路街道","code":"230103017","level":4,"mergeName":"黑龙江省,哈尔滨市,南岗区,保健路街道","lng":126.64008922676261,"lat":45.705891291948,"info":"直接查询获得"},{"name":"先锋路街道","code":"230103018","level":4,"mergeName":"黑龙江省,哈尔滨市,南岗区,先锋路街道","lng":126.69118520349267,"lat":45.77008056231629,"info":"直接查询获得"},{"name":"新春街道","code":"230103019","level":4,"mergeName":"黑龙江省,哈尔滨市,南岗区,新春街道","lng":126.71757697022323,"lat":45.755170892454586,"info":"直接查询获得"},{"name":"跃进街道","code":"230103020","level":4,"mergeName":"黑龙江省,哈尔滨市,南岗区,跃进街道","lng":126.62806067523803,"lat":45.74285977083239,"info":"直接查询获得"},{"name":"王岗镇","code":"230103101","level":4,"mergeName":"黑龙江省,哈尔滨市,南岗区,王岗镇","lng":126.59747900320204,"lat":45.69244183598772,"info":"直接查询获得"},{"name":"红旗满族乡","code":"230103201","level":4,"mergeName":"黑龙江省,哈尔滨市,南岗区,红旗满族乡","lng":126.53414379355955,"lat":45.58642168625275,"info":"直接查询获得"},{"name":"红旗农场","code":"230103500","level":4,"mergeName":"黑龙江省,哈尔滨市,南岗区,红旗农场","lng":126.56737193471272,"lat":45.6782373659808,"info":"直接查询获得"},{"name":"南岗区农垦","code":"230103579","level":4,"mergeName":"黑龙江省,哈尔滨市,南岗区,南岗区农垦","lng":126.67563849952303,"lat":45.76586616375799,"info":"直接查询获得"},{"name":"道外区","code":"230104","level":3,"mergeName":"黑龙江省,哈尔滨市,道外区","lng":126.65560404088663,"lat":45.7977762204344,"info":"直接查询获得"},{"name":"靖宇街道","code":"230104001","level":4,"mergeName":"黑龙江省,哈尔滨市,道外区,靖宇街道","lng":126.65093572950725,"lat":45.78858808252485,"info":"直接查询获得"},{"name":"太古街道","code":"230104002","level":4,"mergeName":"黑龙江省,哈尔滨市,道外区,太古街道","lng":126.65821781976801,"lat":45.790202290158334,"info":"直接查询获得"},{"name":"东莱街道","code":"230104003","level":4,"mergeName":"黑龙江省,哈尔滨市,道外区,东莱街道","lng":126.65925134091826,"lat":45.78290077929907,"info":"直接查询获得"},{"name":"滨江街道","code":"230104004","level":4,"mergeName":"黑龙江省,哈尔滨市,道外区,滨江街道","lng":126.65925134091826,"lat":45.78290077929907,"info":"直接查询获得"},{"name":"仁里街道","code":"230104005","level":4,"mergeName":"黑龙江省,哈尔滨市,道外区,仁里街道","lng":126.6637939820517,"lat":45.79571488748872,"info":"直接查询获得"},{"name":"南市街道","code":"230104006","level":4,"mergeName":"黑龙江省,哈尔滨市,道外区,南市街道","lng":126.66584722368468,"lat":45.78869925600128,"info":"直接查询获得"},{"name":"崇俭街道","code":"230104007","level":4,"mergeName":"黑龙江省,哈尔滨市,道外区,崇俭街道","lng":126.66790094501279,"lat":45.79650508256838,"info":"直接查询获得"},{"name":"振江街道","code":"230104008","level":4,"mergeName":"黑龙江省,哈尔滨市,道外区,振江街道","lng":126.67469294314323,"lat":45.800397327796425,"info":"直接查询获得"},{"name":"东原街道","code":"230104009","level":4,"mergeName":"黑龙江省,哈尔滨市,道外区,东原街道","lng":126.6565960396613,"lat":45.79808286260093,"info":"直接查询获得"},{"name":"大兴街道","code":"230104010","level":4,"mergeName":"黑龙江省,哈尔滨市,道外区,大兴街道","lng":126.6565960396613,"lat":45.79808286260093,"info":"直接查询获得"},{"name":"胜利街道","code":"230104011","level":4,"mergeName":"黑龙江省,哈尔滨市,道外区,胜利街道","lng":126.63943446894419,"lat":45.78955437892786,"info":"直接查询获得"},{"name":"南马街道","code":"230104012","level":4,"mergeName":"黑龙江省,哈尔滨市,道外区,南马街道","lng":126.64736570081729,"lat":45.77801315282273,"info":"直接查询获得"},{"name":"民强街道","code":"230104021","level":4,"mergeName":"黑龙江省,哈尔滨市,道外区,民强街道","lng":126.69857646122882,"lat":45.79264693852347,"info":"直接查询获得"},{"name":"大有坊街道","code":"230104022","level":4,"mergeName":"黑龙江省,哈尔滨市,道外区,大有坊街道","lng":126.6998540313251,"lat":45.779813891757,"info":"直接查询获得"},{"name":"南直路街道","code":"230104023","level":4,"mergeName":"黑龙江省,哈尔滨市,道外区,南直路街道","lng":126.72319617032392,"lat":45.780432979270365,"info":"直接查询获得"},{"name":"化工街道","code":"230104024","level":4,"mergeName":"黑龙江省,哈尔滨市,道外区,化工街道","lng":126.758730860891,"lat":45.77556440226636,"info":"直接查询获得"},{"name":"火车头街道","code":"230104025","level":4,"mergeName":"黑龙江省,哈尔滨市,道外区,火车头街道","lng":126.71235170673275,"lat":45.792909493889645,"info":"直接查询获得"},{"name":"新一街道","code":"230104026","level":4,"mergeName":"黑龙江省,哈尔滨市,道外区,新一街道","lng":126.72426799881435,"lat":45.801302879792075,"info":"直接查询获得"},{"name":"三棵树大街街道","code":"230104027","level":4,"mergeName":"黑龙江省,哈尔滨市,道外区,三棵树大街街道","lng":126.71329402921273,"lat":45.803752860269654,"info":"直接查询获得"},{"name":"水泥路街道","code":"230104028","level":4,"mergeName":"黑龙江省,哈尔滨市,道外区,水泥路街道","lng":126.73202100417937,"lat":45.8359388558176,"info":"直接查询获得"},{"name":"太平大街街道","code":"230104029","level":4,"mergeName":"黑龙江省,哈尔滨市,道外区,太平大街街道","lng":126.68979920792133,"lat":45.79398213714164,"info":"直接查询获得"},{"name":"黎华街道","code":"230104030","level":4,"mergeName":"黑龙江省,哈尔滨市,道外区,黎华街道","lng":126.67906993674062,"lat":45.793735108658154,"info":"直接查询获得"},{"name":"新乐街道","code":"230104031","level":4,"mergeName":"黑龙江省,哈尔滨市,道外区,新乐街道","lng":126.68715199141394,"lat":45.789110866345695,"info":"直接查询获得"},{"name":"永源镇","code":"230104102","level":4,"mergeName":"黑龙江省,哈尔滨市,道外区,永源镇","lng":127.03192703597871,"lat":45.78029084915007,"info":"直接查询获得"},{"name":"巨源镇","code":"230104109","level":4,"mergeName":"黑龙江省,哈尔滨市,道外区,巨源镇","lng":126.98639642120519,"lat":45.94924137553619,"info":"直接查询获得"},{"name":"团结镇","code":"230104111","level":4,"mergeName":"黑龙江省,哈尔滨市,道外区,团结镇","lng":126.76956397618865,"lat":45.794194853484754,"info":"直接查询获得"},{"name":"民主镇","code":"230104112","level":4,"mergeName":"黑龙江省,哈尔滨市,道外区,民主镇","lng":126.80815749223763,"lat":45.866940065207054,"info":"直接查询获得"},{"name":"青年农场","code":"230104500","level":4,"mergeName":"黑龙江省,哈尔滨市,道外区,青年农场","lng":126.7589773658043,"lat":45.79369175796772,"info":"直接查询获得"},{"name":"道外农垦","code":"230104579","level":4,"mergeName":"黑龙江省,哈尔滨市,道外区,道外农垦","lng":126.65560404088663,"lat":45.7977762204344,"info":"直接查询获得"},{"name":"平房区","code":"230108","level":3,"mergeName":"黑龙江省,哈尔滨市,平房区","lng":126.64354707416219,"lat":45.60386229555506,"info":"直接查询获得"},{"name":"兴建街道","code":"230108001","level":4,"mergeName":"黑龙江省,哈尔滨市,平房区,兴建街道","lng":126.64755675063654,"lat":45.609193778107155,"info":"直接查询获得"},{"name":"保国街道","code":"230108002","level":4,"mergeName":"黑龙江省,哈尔滨市,平房区,保国街道","lng":126.67516563150258,"lat":45.59654146612139,"info":"直接查询获得"},{"name":"联盟街道","code":"230108003","level":4,"mergeName":"黑龙江省,哈尔滨市,平房区,联盟街道","lng":126.6877460408477,"lat":45.59835316013871,"info":"直接查询获得"},{"name":"友协街道","code":"230108004","level":4,"mergeName":"黑龙江省,哈尔滨市,平房区,友协街道","lng":126.63486369378047,"lat":45.60938355952134,"info":"直接查询获得"},{"name":"新疆街道","code":"230108005","level":4,"mergeName":"黑龙江省,哈尔滨市,平房区,新疆街道","lng":126.6241390039579,"lat":45.61251057236018,"info":"直接查询获得"},{"name":"新伟街道","code":"230108006","level":4,"mergeName":"黑龙江省,哈尔滨市,平房区,新伟街道","lng":126.61914604227229,"lat":45.60644710840545,"info":"直接查询获得"},{"name":"平新街道","code":"230108007","level":4,"mergeName":"黑龙江省,哈尔滨市,平房区,平新街道","lng":126.65167880513022,"lat":45.5971463166302,"info":"直接查询获得"},{"name":"建安街道","code":"230108008","level":4,"mergeName":"黑龙江省,哈尔滨市,平房区,建安街道","lng":126.64354707416219,"lat":45.60386229555506,"info":"直接查询获得"},{"name":"平盛街道","code":"230108009","level":4,"mergeName":"黑龙江省,哈尔滨市,平房区,平盛街道","lng":126.64354707416219,"lat":45.60386229555506,"info":"直接查询获得"},{"name":"平房镇","code":"230108101","level":4,"mergeName":"黑龙江省,哈尔滨市,平房区,平房镇","lng":126.6877460408477,"lat":45.59835316013871,"info":"直接查询获得"},{"name":"平房农垦","code":"230108579","level":4,"mergeName":"黑龙江省,哈尔滨市,平房区,平房农垦","lng":126.66695799371895,"lat":45.587177144471504,"info":"直接查询获得"},{"name":"松北区","code":"230109","level":3,"mergeName":"黑龙江省,哈尔滨市,松北区","lng":126.51648256824997,"lat":45.80859256142944,"info":"直接查询获得"},{"name":"太阳岛街道","code":"230109002","level":4,"mergeName":"黑龙江省,哈尔滨市,松北区,太阳岛街道","lng":126.60472787951484,"lat":45.791793405032465,"info":"直接查询获得"},{"name":"松浦街道","code":"230109003","level":4,"mergeName":"黑龙江省,哈尔滨市,松北区,松浦街道","lng":126.51648256824997,"lat":45.80859256142944,"info":"直接查询获得"},{"name":"万宝街道","code":"230109004","level":4,"mergeName":"黑龙江省,哈尔滨市,松北区,万宝街道","lng":126.41194774418923,"lat":45.869698429095656,"info":"直接查询获得"},{"name":"松北街道","code":"230109005","level":4,"mergeName":"黑龙江省,哈尔滨市,松北区,松北街道","lng":126.56222401532668,"lat":45.81367111605741,"info":"直接查询获得"},{"name":"松安街道","code":"230109006","level":4,"mergeName":"黑龙江省,哈尔滨市,松北区,松安街道","lng":126.51648256824997,"lat":45.80859256142944,"info":"直接查询获得"},{"name":"松祥街道","code":"230109007","level":4,"mergeName":"黑龙江省,哈尔滨市,松北区,松祥街道","lng":126.51648256824997,"lat":45.80859256142944,"info":"直接查询获得"},{"name":"船口街道","code":"230109008","level":4,"mergeName":"黑龙江省,哈尔滨市,松北区,船口街道","lng":126.51648256824997,"lat":45.80859256142944,"info":"直接查询获得"},{"name":"对青山镇","code":"230109101","level":4,"mergeName":"黑龙江省,哈尔滨市,松北区,对青山镇","lng":126.35147372742658,"lat":45.94035244573445,"info":"直接查询获得"},{"name":"乐业镇","code":"230109102","level":4,"mergeName":"黑龙江省,哈尔滨市,松北区,乐业镇","lng":126.52019140220902,"lat":45.97117736278339,"info":"直接查询获得"},{"name":"香坊区","code":"230110","level":3,"mergeName":"黑龙江省,哈尔滨市,香坊区","lng":126.6696243441337,"lat":45.71361964538922,"info":"直接查询获得"},{"name":"香坊大街街道","code":"230110001","level":4,"mergeName":"黑龙江省,哈尔滨市,香坊区,香坊大街街道","lng":126.70384556382479,"lat":45.72835856307353,"info":"直接查询获得"},{"name":"安埠街道","code":"230110002","level":4,"mergeName":"黑龙江省,哈尔滨市,香坊区,安埠街道","lng":126.70369770722938,"lat":45.7330252943367,"info":"直接查询获得"},{"name":"通天街道","code":"230110003","level":4,"mergeName":"黑龙江省,哈尔滨市,香坊区,通天街道","lng":126.70832684889528,"lat":45.73413236298345,"info":"直接查询获得"},{"name":"新香坊街道","code":"230110004","level":4,"mergeName":"黑龙江省,哈尔滨市,香坊区,新香坊街道","lng":126.76747750982808,"lat":45.72289284067538,"info":"直接查询获得"},{"name":"铁东街道","code":"230110005","level":4,"mergeName":"黑龙江省,哈尔滨市,香坊区,铁东街道","lng":126.73440304090019,"lat":45.737479895588855,"info":"直接查询获得"},{"name":"新成街道","code":"230110006","level":4,"mergeName":"黑龙江省,哈尔滨市,香坊区,新成街道","lng":126.71319961730363,"lat":45.746277544466075,"info":"直接查询获得"},{"name":"红旗街道","code":"230110007","level":4,"mergeName":"黑龙江省,哈尔滨市,香坊区,红旗街道","lng":126.70041403498003,"lat":45.75009791377132,"info":"直接查询获得"},{"name":"六顺街道","code":"230110008","level":4,"mergeName":"黑龙江省,哈尔滨市,香坊区,六顺街道","lng":126.68623652826871,"lat":45.729707049454525,"info":"直接查询获得"},{"name":"建筑街道","code":"230110009","level":4,"mergeName":"黑龙江省,哈尔滨市,香坊区,建筑街道","lng":126.6593420751646,"lat":45.699356159038786,"info":"直接查询获得"},{"name":"哈平路街道","code":"230110010","level":4,"mergeName":"黑龙江省,哈尔滨市,香坊区,哈平路街道","lng":126.65718366261743,"lat":45.72573540463212,"info":"直接查询获得"},{"name":"安乐街道","code":"230110011","level":4,"mergeName":"黑龙江省,哈尔滨市,香坊区,安乐街道","lng":126.80241546592626,"lat":45.735721690324375,"info":"直接查询获得"},{"name":"健康路街道","code":"230110012","level":4,"mergeName":"黑龙江省,哈尔滨市,香坊区,健康路街道","lng":126.66770035339242,"lat":45.7210648928618,"info":"直接查询获得"},{"name":"大庆路街道","code":"230110013","level":4,"mergeName":"黑龙江省,哈尔滨市,香坊区,大庆路街道","lng":126.68163028710518,"lat":45.72549404852216,"info":"直接查询获得"},{"name":"进乡街道","code":"230110014","level":4,"mergeName":"黑龙江省,哈尔滨市,香坊区,进乡街道","lng":126.68972797229438,"lat":45.712885977601566,"info":"直接查询获得"},{"name":"通乡街道","code":"230110015","level":4,"mergeName":"黑龙江省,哈尔滨市,香坊区,通乡街道","lng":126.70278520220418,"lat":45.704164229622904,"info":"直接查询获得"},{"name":"和平路街道","code":"230110016","level":4,"mergeName":"黑龙江省,哈尔滨市,香坊区,和平路街道","lng":126.66223596097518,"lat":45.735568931766444,"info":"直接查询获得"},{"name":"民生路街道","code":"230110017","level":4,"mergeName":"黑龙江省,哈尔滨市,香坊区,民生路街道","lng":126.65873283897791,"lat":45.74454771312096,"info":"直接查询获得"},{"name":"文政街道","code":"230110018","level":4,"mergeName":"黑龙江省,哈尔滨市,香坊区,文政街道","lng":126.65077571344847,"lat":45.7334326126215,"info":"直接查询获得"},{"name":"王兆街道","code":"230110019","level":4,"mergeName":"黑龙江省,哈尔滨市,香坊区,王兆街道","lng":126.6432735715751,"lat":45.730216681213456,"info":"直接查询获得"},{"name":"黎明街道","code":"230110020","level":4,"mergeName":"黑龙江省,哈尔滨市,香坊区,黎明街道","lng":126.75119009008408,"lat":45.65320972755962,"info":"直接查询获得"},{"name":"成高子镇","code":"230110101","level":4,"mergeName":"黑龙江省,哈尔滨市,香坊区,成高子镇","lng":126.85086978755838,"lat":45.704980781363616,"info":"直接查询获得"},{"name":"幸福镇","code":"230110102","level":4,"mergeName":"黑龙江省,哈尔滨市,香坊区,幸福镇","lng":126.74580976828292,"lat":45.69452224709231,"info":"直接查询获得"},{"name":"朝阳镇","code":"230110103","level":4,"mergeName":"黑龙江省,哈尔滨市,香坊区,朝阳镇","lng":126.65556470498666,"lat":45.646010376265366,"info":"直接查询获得"},{"name":"向阳镇","code":"230110104","level":4,"mergeName":"黑龙江省,哈尔滨市,香坊区,向阳镇","lng":126.93741612642579,"lat":45.75576675967347,"info":"直接查询获得"},{"name":"哈尔滨综合保税区地区","code":"230110400","level":4,"mergeName":"黑龙江省,哈尔滨市,香坊区,哈尔滨综合保税区地区","lng":126.7870549726041,"lat":45.70149299622422,"info":"直接查询获得"},{"name":"香坊实验农场地区","code":"230110500","level":4,"mergeName":"黑龙江省,哈尔滨市,香坊区,香坊实验农场地区","lng":126.7711479582944,"lat":45.7404389351334,"info":"直接查询获得"},{"name":"香坊区农垦地区","code":"230110579","level":4,"mergeName":"黑龙江省,哈尔滨市,香坊区,香坊区农垦地区","lng":126.6696243441337,"lat":45.71361964538922,"info":"直接查询获得"},{"name":"呼兰区","code":"230111","level":3,"mergeName":"黑龙江省,哈尔滨市,呼兰区","lng":126.59439898309995,"lat":45.8952097808631,"info":"直接查询获得"},{"name":"呼兰街道","code":"230111001","level":4,"mergeName":"黑龙江省,哈尔滨市,呼兰区,呼兰街道","lng":126.63341774979091,"lat":46.00309820168488,"info":"直接查询获得"},{"name":"兰河街道","code":"230111002","level":4,"mergeName":"黑龙江省,哈尔滨市,呼兰区,兰河街道","lng":126.6116791472122,"lat":45.9881856984625,"info":"直接查询获得"},{"name":"腰堡街道","code":"230111003","level":4,"mergeName":"黑龙江省,哈尔滨市,呼兰区,腰堡街道","lng":126.66330485470151,"lat":45.97526293962771,"info":"直接查询获得"},{"name":"利民街道","code":"230111004","level":4,"mergeName":"黑龙江省,哈尔滨市,呼兰区,利民街道","lng":126.58241235369694,"lat":45.90146690856105,"info":"直接查询获得"},{"name":"康金街道","code":"230111005","level":4,"mergeName":"黑龙江省,哈尔滨市,呼兰区,康金街道","lng":126.80784697227708,"lat":46.19673095385721,"info":"直接查询获得"},{"name":"双井街道","code":"230111006","level":4,"mergeName":"黑龙江省,哈尔滨市,呼兰区,双井街道","lng":126.73057392383333,"lat":46.042906539990106,"info":"直接查询获得"},{"name":"建设路街道","code":"230111007","level":4,"mergeName":"黑龙江省,哈尔滨市,呼兰区,建设路街道","lng":126.61319378013258,"lat":45.98092647318163,"info":"直接查询获得"},{"name":"学院路街道","code":"230111008","level":4,"mergeName":"黑龙江省,哈尔滨市,呼兰区,学院路街道","lng":126.54499077330443,"lat":45.86838017027418,"info":"直接查询获得"},{"name":"长岭街道","code":"230111009","level":4,"mergeName":"黑龙江省,哈尔滨市,呼兰区,长岭街道","lng":126.65098728954862,"lat":46.048492297746186,"info":"直接查询获得"},{"name":"沈家街道","code":"230111010","level":4,"mergeName":"黑龙江省,哈尔滨市,呼兰区,沈家街道","lng":126.78804436629278,"lat":46.10584547800431,"info":"直接查询获得"},{"name":"南京路街道","code":"230111011","level":4,"mergeName":"黑龙江省,哈尔滨市,呼兰区,南京路街道","lng":126.59439898309995,"lat":45.8952097808631,"info":"直接查询获得"},{"name":"裕民街道","code":"230111012","level":4,"mergeName":"黑龙江省,哈尔滨市,呼兰区,裕民街道","lng":126.59439898309995,"lat":45.8952097808631,"info":"直接查询获得"},{"name":"裕田街道","code":"230111013","level":4,"mergeName":"黑龙江省,哈尔滨市,呼兰区,裕田街道","lng":126.59439898309995,"lat":45.8952097808631,"info":"直接查询获得"},{"name":"裕强街道","code":"230111014","level":4,"mergeName":"黑龙江省,哈尔滨市,呼兰区,裕强街道","lng":126.59439898309995,"lat":45.8952097808631,"info":"直接查询获得"},{"name":"萧乡街道","code":"230111015","level":4,"mergeName":"黑龙江省,哈尔滨市,呼兰区,萧乡街道","lng":126.59439898309995,"lat":45.8952097808631,"info":"直接查询获得"},{"name":"公园路街道","code":"230111016","level":4,"mergeName":"黑龙江省,哈尔滨市,呼兰区,公园路街道","lng":126.59439898309995,"lat":45.8952097808631,"info":"直接查询获得"},{"name":"二八镇","code":"230111105","level":4,"mergeName":"黑龙江省,哈尔滨市,呼兰区,二八镇","lng":127.03825431461796,"lat":46.121509473348915,"info":"直接查询获得"},{"name":"石人镇","code":"230111106","level":4,"mergeName":"黑龙江省,哈尔滨市,呼兰区,石人镇","lng":126.90548074391846,"lat":46.30146150281444,"info":"直接查询获得"},{"name":"白奎镇","code":"230111107","level":4,"mergeName":"黑龙江省,哈尔滨市,呼兰区,白奎镇","lng":127.0171747934021,"lat":46.371938406776465,"info":"直接查询获得"},{"name":"方台镇","code":"230111109","level":4,"mergeName":"黑龙江省,哈尔滨市,呼兰区,方台镇","lng":126.94560688325225,"lat":46.097768492359045,"info":"直接查询获得"},{"name":"莲花镇","code":"230111110","level":4,"mergeName":"黑龙江省,哈尔滨市,呼兰区,莲花镇","lng":126.81678942396785,"lat":46.34879797478775,"info":"直接查询获得"},{"name":"大用镇","code":"230111111","level":4,"mergeName":"黑龙江省,哈尔滨市,呼兰区,大用镇","lng":126.66235750171069,"lat":46.262358715802414,"info":"直接查询获得"},{"name":"利业镇","code":"230111114","level":4,"mergeName":"黑龙江省,哈尔滨市,呼兰区,利业镇","lng":126.59439898309995,"lat":45.8952097808631,"info":"直接查询获得"},{"name":"杨林乡","code":"230111201","level":4,"mergeName":"黑龙江省,哈尔滨市,呼兰区,杨林乡","lng":127.15269280331601,"lat":46.08708500274493,"info":"直接查询获得"},{"name":"许堡乡","code":"230111203","level":4,"mergeName":"黑龙江省,哈尔滨市,呼兰区,许堡乡","lng":126.6893147517598,"lat":46.16828132266732,"info":"直接查询获得"},{"name":"孟家乡","code":"230111205","level":4,"mergeName":"黑龙江省,哈尔滨市,呼兰区,孟家乡","lng":126.56903847109486,"lat":46.06909626980044,"info":"直接查询获得"},{"name":"呼兰农垦","code":"230111579","level":4,"mergeName":"黑龙江省,哈尔滨市,呼兰区,呼兰农垦","lng":126.60698972295845,"lat":45.892704886830735,"info":"直接查询获得"},{"name":"阿城区","code":"230112","level":3,"mergeName":"黑龙江省,哈尔滨市,阿城区","lng":126.96435649551775,"lat":45.55427530435246,"info":"直接查询获得"},{"name":"金城街道","code":"230112001","level":4,"mergeName":"黑龙江省,哈尔滨市,阿城区,金城街道","lng":126.98197597836688,"lat":45.551479374006135,"info":"直接查询获得"},{"name":"金都街道","code":"230112002","level":4,"mergeName":"黑龙江省,哈尔滨市,阿城区,金都街道","lng":126.979063473378,"lat":45.54150925948531,"info":"直接查询获得"},{"name":"通城街道","code":"230112003","level":4,"mergeName":"黑龙江省,哈尔滨市,阿城区,通城街道","lng":126.9988475643874,"lat":45.55558840811826,"info":"直接查询获得"},{"name":"河东街道","code":"230112004","level":4,"mergeName":"黑龙江省,哈尔滨市,阿城区,河东街道","lng":127.02259822308808,"lat":45.563931064282286,"info":"直接查询获得"},{"name":"阿什河街道","code":"230112005","level":4,"mergeName":"黑龙江省,哈尔滨市,阿城区,阿什河街道","lng":126.99090456740704,"lat":45.54326859418668,"info":"直接查询获得"},{"name":"玉泉街道","code":"230112006","level":4,"mergeName":"黑龙江省,哈尔滨市,阿城区,玉泉街道","lng":127.1908463796313,"lat":45.41492472925388,"info":"直接查询获得"},{"name":"新利街道","code":"230112007","level":4,"mergeName":"黑龙江省,哈尔滨市,阿城区,新利街道","lng":126.82611176905883,"lat":45.630779947523614,"info":"直接查询获得"},{"name":"双丰街道","code":"230112008","level":4,"mergeName":"黑龙江省,哈尔滨市,阿城区,双丰街道","lng":126.95144496986335,"lat":45.43848394770679,"info":"直接查询获得"},{"name":"舍利街道","code":"230112009","level":4,"mergeName":"黑龙江省,哈尔滨市,阿城区,舍利街道","lng":126.93935054469742,"lat":45.56979018277501,"info":"直接查询获得"},{"name":"小岭街道","code":"230112010","level":4,"mergeName":"黑龙江省,哈尔滨市,阿城区,小岭街道","lng":127.314242359451,"lat":45.34148500138951,"info":"直接查询获得"},{"name":"亚沟街道","code":"230112011","level":4,"mergeName":"黑龙江省,哈尔滨市,阿城区,亚沟街道","lng":127.08227714964384,"lat":45.4878324723775,"info":"直接查询获得"},{"name":"交界街道","code":"230112012","level":4,"mergeName":"黑龙江省,哈尔滨市,阿城区,交界街道","lng":127.09674427005157,"lat":45.35657212312746,"info":"直接查询获得"},{"name":"料甸街道","code":"230112013","level":4,"mergeName":"黑龙江省,哈尔滨市,阿城区,料甸街道","lng":127.06634049125232,"lat":45.641174356319354,"info":"直接查询获得"},{"name":"蜚克图街道","code":"230112014","level":4,"mergeName":"黑龙江省,哈尔滨市,阿城区,蜚克图街道","lng":127.15413440399844,"lat":45.762932688301284,"info":"直接查询获得"},{"name":"杨树街道","code":"230112015","level":4,"mergeName":"黑龙江省,哈尔滨市,阿城区,杨树街道","lng":126.811554121015,"lat":45.48737755223656,"info":"直接查询获得"},{"name":"平山镇","code":"230112107","level":4,"mergeName":"黑龙江省,哈尔滨市,阿城区,平山镇","lng":127.40289271667035,"lat":45.32856191886542,"info":"直接查询获得"},{"name":"松峰山镇","code":"230112108","level":4,"mergeName":"黑龙江省,哈尔滨市,阿城区,松峰山镇","lng":127.44369932242796,"lat":45.41029332265495,"info":"直接查询获得"},{"name":"红星镇","code":"230112109","level":4,"mergeName":"黑龙江省,哈尔滨市,阿城区,红星镇","lng":127.12784639155427,"lat":45.57454992840185,"info":"直接查询获得"},{"name":"金龙山镇","code":"230112112","level":4,"mergeName":"黑龙江省,哈尔滨市,阿城区,金龙山镇","lng":127.1249055189757,"lat":45.515937004650674,"info":"直接查询获得"},{"name":"阿城原种场","code":"230112503","level":4,"mergeName":"黑龙江省,哈尔滨市,阿城区,阿城原种场","lng":127.05651994592553,"lat":45.527441806561185,"info":"直接查询获得"},{"name":"双城区","code":"230113","level":3,"mergeName":"黑龙江省,哈尔滨市,双城区","lng":126.31962313777296,"lat":45.38811152239434,"info":"直接查询获得"},{"name":"五家街道","code":"230113002","level":4,"mergeName":"黑龙江省,哈尔滨市,双城区,五家街道","lng":126.39247418751327,"lat":45.55496284797322,"info":"直接查询获得"},{"name":"新兴街道","code":"230113003","level":4,"mergeName":"黑龙江省,哈尔滨市,双城区,新兴街道","lng":126.50120754061233,"lat":45.50352604759222,"info":"直接查询获得"},{"name":"兰棱街道","code":"230113004","level":4,"mergeName":"黑龙江省,哈尔滨市,双城区,兰棱街道","lng":126.20120491222488,"lat":45.221702340849916,"info":"直接查询获得"},{"name":"周家街道","code":"230113005","level":4,"mergeName":"黑龙江省,哈尔滨市,双城区,周家街道","lng":126.6631780139635,"lat":45.465899867471926,"info":"直接查询获得"},{"name":"公正街道","code":"230113006","level":4,"mergeName":"黑龙江省,哈尔滨市,双城区,公正街道","lng":126.27316598374728,"lat":45.52018104775507,"info":"直接查询获得"},{"name":"承旭街道","code":"230113007","level":4,"mergeName":"黑龙江省,哈尔滨市,双城区,承旭街道","lng":126.31962313777296,"lat":45.38811152239434,"info":"直接查询获得"},{"name":"承恩街道","code":"230113008","level":4,"mergeName":"黑龙江省,哈尔滨市,双城区,承恩街道","lng":126.31962313777296,"lat":45.38811152239434,"info":"直接查询获得"},{"name":"永治街道","code":"230113009","level":4,"mergeName":"黑龙江省,哈尔滨市,双城区,永治街道","lng":126.31962313777296,"lat":45.38811152239434,"info":"直接查询获得"},{"name":"永和街道","code":"230113010","level":4,"mergeName":"黑龙江省,哈尔滨市,双城区,永和街道","lng":126.31962313777296,"lat":45.38811152239434,"info":"直接查询获得"},{"name":"幸福街道","code":"230113011","level":4,"mergeName":"黑龙江省,哈尔滨市,双城区,幸福街道","lng":126.3965955548032,"lat":45.42068993345292,"info":"直接查询获得"},{"name":"韩甸镇","code":"230113104","level":4,"mergeName":"黑龙江省,哈尔滨市,双城区,韩甸镇","lng":125.91179495149584,"lat":45.29779474905833,"info":"直接查询获得"},{"name":"单城镇","code":"230113105","level":4,"mergeName":"黑龙江省,哈尔滨市,双城区,单城镇","lng":126.47856212826537,"lat":45.30956819384106,"info":"直接查询获得"},{"name":"东官镇","code":"230113106","level":4,"mergeName":"黑龙江省,哈尔滨市,双城区,东官镇","lng":126.56602259000618,"lat":45.45660289639038,"info":"直接查询获得"},{"name":"农丰满族锡伯族镇","code":"230113107","level":4,"mergeName":"黑龙江省,哈尔滨市,双城区,农丰满族锡伯族镇","lng":126.1318970489076,"lat":45.510557572318454,"info":"直接查询获得"},{"name":"杏山镇","code":"230113108","level":4,"mergeName":"黑龙江省,哈尔滨市,双城区,杏山镇","lng":125.89833127068177,"lat":45.50088874064728,"info":"直接查询获得"},{"name":"西官镇","code":"230113109","level":4,"mergeName":"黑龙江省,哈尔滨市,双城区,西官镇","lng":126.00254420133587,"lat":45.42042477102777,"info":"直接查询获得"},{"name":"联兴镇","code":"230113110","level":4,"mergeName":"黑龙江省,哈尔滨市,双城区,联兴镇","lng":126.31962313777296,"lat":45.38811152239434,"info":"直接查询获得"},{"name":"永胜镇","code":"230113111","level":4,"mergeName":"黑龙江省,哈尔滨市,双城区,永胜镇","lng":126.10590529762064,"lat":45.62437834581676,"info":"直接查询获得"},{"name":"胜丰镇","code":"230113112","level":4,"mergeName":"黑龙江省,哈尔滨市,双城区,胜丰镇","lng":126.29727691146594,"lat":45.256711401704564,"info":"直接查询获得"},{"name":"金城乡","code":"230113201","level":4,"mergeName":"黑龙江省,哈尔滨市,双城区,金城乡","lng":125.9868035469185,"lat":45.23860939005039,"info":"直接查询获得"},{"name":"青岭满族乡","code":"230113203","level":4,"mergeName":"黑龙江省,哈尔滨市,双城区,青岭满族乡","lng":126.57834087380348,"lat":45.3701780793301,"info":"直接查询获得"},{"name":"临江乡","code":"230113209","level":4,"mergeName":"黑龙江省,哈尔滨市,双城区,临江乡","lng":126.01321427238685,"lat":45.57781528749337,"info":"直接查询获得"},{"name":"水泉乡","code":"230113210","level":4,"mergeName":"黑龙江省,哈尔滨市,双城区,水泉乡","lng":126.05844593108664,"lat":45.45063984191376,"info":"直接查询获得"},{"name":"乐群满族乡","code":"230113211","level":4,"mergeName":"黑龙江省,哈尔滨市,双城区,乐群满族乡","lng":126.23337359185959,"lat":45.41638897810872,"info":"直接查询获得"},{"name":"万隆乡","code":"230113214","level":4,"mergeName":"黑龙江省,哈尔滨市,双城区,万隆乡","lng":125.77524559702591,"lat":45.388782562889226,"info":"直接查询获得"},{"name":"希勤满族乡","code":"230113216","level":4,"mergeName":"黑龙江省,哈尔滨市,双城区,希勤满族乡","lng":126.06253780251517,"lat":45.29936392311236,"info":"直接查询获得"},{"name":"同心满族乡","code":"230113217","level":4,"mergeName":"黑龙江省,哈尔滨市,双城区,同心满族乡","lng":126.19461979385339,"lat":45.32230817790266,"info":"直接查询获得"},{"name":"依兰县","code":"230123","level":3,"mergeName":"黑龙江省,哈尔滨市,依兰县","lng":129.57451969721257,"lat":46.331260289051535,"info":"直接查询获得"},{"name":"依兰镇","code":"230123100","level":4,"mergeName":"黑龙江省,哈尔滨市,依兰县,依兰镇","lng":129.5601776523725,"lat":46.27962401150932,"info":"直接查询获得"},{"name":"达连河镇","code":"230123101","level":4,"mergeName":"黑龙江省,哈尔滨市,依兰县,达连河镇","lng":129.42130659587133,"lat":46.18503969151351,"info":"直接查询获得"},{"name":"江湾镇","code":"230123102","level":4,"mergeName":"黑龙江省,哈尔滨市,依兰县,江湾镇","lng":129.62259449285145,"lat":46.16375774596915,"info":"直接查询获得"},{"name":"三道岗镇","code":"230123103","level":4,"mergeName":"黑龙江省,哈尔滨市,依兰县,三道岗镇","lng":130.1145239274148,"lat":46.12106472542325,"info":"直接查询获得"},{"name":"道台桥镇","code":"230123104","level":4,"mergeName":"黑龙江省,哈尔滨市,依兰县,道台桥镇","lng":129.85044321765912,"lat":46.20503815011615,"info":"直接查询获得"},{"name":"宏克利镇","code":"230123105","level":4,"mergeName":"黑龙江省,哈尔滨市,依兰县,宏克利镇","lng":129.57451969721257,"lat":46.331260289051535,"info":"直接查询获得"},{"name":"团山子乡","code":"230123200","level":4,"mergeName":"黑龙江省,哈尔滨市,依兰县,团山子乡","lng":129.92531617344127,"lat":46.324721989340574,"info":"直接查询获得"},{"name":"愚公乡","code":"230123201","level":4,"mergeName":"黑龙江省,哈尔滨市,依兰县,愚公乡","lng":130.0635795846548,"lat":46.43599833988723,"info":"直接查询获得"},{"name":"迎兰朝鲜族乡","code":"230123202","level":4,"mergeName":"黑龙江省,哈尔滨市,依兰县,迎兰朝鲜族乡","lng":129.55647300900864,"lat":46.348380119677316,"info":"直接查询获得"},{"name":"依兰县林业局","code":"230123400","level":4,"mergeName":"黑龙江省,哈尔滨市,依兰县,依兰县林业局","lng":129.58129831059088,"lat":46.32313974238552,"info":"直接查询获得"},{"name":"依兰农场","code":"230123500","level":4,"mergeName":"黑龙江省,哈尔滨市,依兰县,依兰农场","lng":129.56798901615497,"lat":46.423810183050556,"info":"直接查询获得"},{"name":"松花江农场","code":"230123501","level":4,"mergeName":"黑龙江省,哈尔滨市,依兰县,松花江农场","lng":129.37869716641282,"lat":46.44667482108446,"info":"直接查询获得"},{"name":"方正县","code":"230124","level":3,"mergeName":"黑龙江省,哈尔滨市,方正县","lng":128.83563368133866,"lat":45.857758440062085,"info":"直接查询获得"},{"name":"方正镇","code":"230124100","level":4,"mergeName":"黑龙江省,哈尔滨市,方正县,方正镇","lng":128.84062808031308,"lat":45.84002278449035,"info":"直接查询获得"},{"name":"会发镇","code":"230124101","level":4,"mergeName":"黑龙江省,哈尔滨市,方正县,会发镇","lng":128.59031659741444,"lat":45.78272925164942,"info":"直接查询获得"},{"name":"大罗密镇","code":"230124102","level":4,"mergeName":"黑龙江省,哈尔滨市,方正县,大罗密镇","lng":129.21680725669302,"lat":45.96562489918288,"info":"直接查询获得"},{"name":"得莫利镇","code":"230124103","level":4,"mergeName":"黑龙江省,哈尔滨市,方正县,得莫利镇","lng":128.99729764207018,"lat":45.853157806034275,"info":"直接查询获得"},{"name":"天门乡","code":"230124200","level":4,"mergeName":"黑龙江省,哈尔滨市,方正县,天门乡","lng":128.6788611342447,"lat":45.88939596659564,"info":"直接查询获得"},{"name":"松南乡","code":"230124201","level":4,"mergeName":"黑龙江省,哈尔滨市,方正县,松南乡","lng":128.8163537095001,"lat":45.88521292342027,"info":"直接查询获得"},{"name":"德善乡","code":"230124202","level":4,"mergeName":"黑龙江省,哈尔滨市,方正县,德善乡","lng":128.86550835819256,"lat":45.813640334915945,"info":"直接查询获得"},{"name":"宝兴乡","code":"230124204","level":4,"mergeName":"黑龙江省,哈尔滨市,方正县,宝兴乡","lng":128.77368886896454,"lat":45.76650306253147,"info":"直接查询获得"},{"name":"方正林业局","code":"230124400","level":4,"mergeName":"黑龙江省,哈尔滨市,方正县,方正林业局","lng":129.25407166416366,"lat":45.96821148717982,"info":"直接查询获得"},{"name":"沙河农场","code":"230124500","level":4,"mergeName":"黑龙江省,哈尔滨市,方正县,沙河农场","lng":128.83563368133866,"lat":45.857758440062085,"info":"直接查询获得"},{"name":"宾县","code":"230125","level":3,"mergeName":"黑龙江省,哈尔滨市,宾县","lng":127.47349701449961,"lat":45.752465386741754,"info":"直接查询获得"},{"name":"宾州镇","code":"230125100","level":4,"mergeName":"黑龙江省,哈尔滨市,宾县,宾州镇","lng":127.47427539622402,"lat":45.751637961870244,"info":"直接查询获得"},{"name":"居仁镇","code":"230125101","level":4,"mergeName":"黑龙江省,哈尔滨市,宾县,居仁镇","lng":127.29481569432264,"lat":45.77085754389223,"info":"直接查询获得"},{"name":"宾西镇","code":"230125102","level":4,"mergeName":"黑龙江省,哈尔滨市,宾县,宾西镇","lng":127.23057518496347,"lat":45.72994976504967,"info":"直接查询获得"},{"name":"糖坊镇","code":"230125103","level":4,"mergeName":"黑龙江省,哈尔滨市,宾县,糖坊镇","lng":127.06576494691207,"lat":45.91728416062823,"info":"直接查询获得"},{"name":"宾安镇","code":"230125104","level":4,"mergeName":"黑龙江省,哈尔滨市,宾县,宾安镇","lng":127.75975958221333,"lat":45.849144101426745,"info":"直接查询获得"},{"name":"新甸镇","code":"230125105","level":4,"mergeName":"黑龙江省,哈尔滨市,宾县,新甸镇","lng":127.83794342261365,"lat":45.927502643869246,"info":"直接查询获得"},{"name":"胜利镇","code":"230125106","level":4,"mergeName":"黑龙江省,哈尔滨市,宾县,胜利镇","lng":128.06428982128642,"lat":45.807209464877076,"info":"直接查询获得"},{"name":"宁远镇","code":"230125107","level":4,"mergeName":"黑龙江省,哈尔滨市,宾县,宁远镇","lng":127.92276933395479,"lat":45.73486273037377,"info":"直接查询获得"},{"name":"摆渡镇","code":"230125109","level":4,"mergeName":"黑龙江省,哈尔滨市,宾县,摆渡镇","lng":128.1653213436888,"lat":45.907561279088966,"info":"直接查询获得"},{"name":"平坊镇","code":"230125110","level":4,"mergeName":"黑龙江省,哈尔滨市,宾县,平坊镇","lng":127.54016323080369,"lat":45.656968265850885,"info":"直接查询获得"},{"name":"满井镇","code":"230125111","level":4,"mergeName":"黑龙江省,哈尔滨市,宾县,满井镇","lng":127.2918690725888,"lat":45.92217962897677,"info":"直接查询获得"},{"name":"常安镇","code":"230125112","level":4,"mergeName":"黑龙江省,哈尔滨市,宾县,常安镇","lng":127.85403126582248,"lat":45.77157422570941,"info":"直接查询获得"},{"name":"永和乡","code":"230125201","level":4,"mergeName":"黑龙江省,哈尔滨市,宾县,永和乡","lng":127.10014184115143,"lat":45.851734526540476,"info":"直接查询获得"},{"name":"鸟河乡","code":"230125203","level":4,"mergeName":"黑龙江省,哈尔滨市,宾县,鸟河乡","lng":127.47454758279355,"lat":45.83708237369998,"info":"直接查询获得"},{"name":"民和乡","code":"230125204","level":4,"mergeName":"黑龙江省,哈尔滨市,宾县,民和乡","lng":127.60842662262652,"lat":45.95018738577659,"info":"直接查询获得"},{"name":"经建乡","code":"230125205","level":4,"mergeName":"黑龙江省,哈尔滨市,宾县,经建乡","lng":127.63240420497698,"lat":45.82408534036968,"info":"直接查询获得"},{"name":"三宝乡","code":"230125210","level":4,"mergeName":"黑龙江省,哈尔滨市,宾县,三宝乡","lng":127.68024553101382,"lat":45.76638379389073,"info":"直接查询获得"},{"name":"九龙山柞蚕育种场","code":"230125500","level":4,"mergeName":"黑龙江省,哈尔滨市,宾县,九龙山柞蚕育种场","lng":127.47349701449961,"lat":45.752465386741754,"info":"直接查询获得"},{"name":"农垦农业职业学院","code":"230125579","level":4,"mergeName":"黑龙江省,哈尔滨市,宾县,农垦农业职业学院","lng":127.40735103386555,"lat":45.75711044164789,"info":"直接查询获得"},{"name":"巴彦县","code":"230126","level":3,"mergeName":"黑龙江省,哈尔滨市,巴彦县","lng":127.41054798639587,"lat":46.09128265781541,"info":"直接查询获得"},{"name":"巴彦镇","code":"230126100","level":4,"mergeName":"黑龙江省,哈尔滨市,巴彦县,巴彦镇","lng":127.41260816025246,"lat":46.090553496382924,"info":"直接查询获得"},{"name":"兴隆镇","code":"230126101","level":4,"mergeName":"黑龙江省,哈尔滨市,巴彦县,兴隆镇","lng":127.12263792637685,"lat":46.44254888880432,"info":"直接查询获得"},{"name":"西集镇","code":"230126102","level":4,"mergeName":"黑龙江省,哈尔滨市,巴彦县,西集镇","lng":127.1821595596378,"lat":46.156367780841414,"info":"直接查询获得"},{"name":"洼兴镇","code":"230126103","level":4,"mergeName":"黑龙江省,哈尔滨市,巴彦县,洼兴镇","lng":127.49362417826465,"lat":46.367887357373625,"info":"直接查询获得"},{"name":"龙泉镇","code":"230126104","level":4,"mergeName":"黑龙江省,哈尔滨市,巴彦县,龙泉镇","lng":127.47711341282171,"lat":46.21561923644574,"info":"直接查询获得"},{"name":"巴彦港镇","code":"230126105","level":4,"mergeName":"黑龙江省,哈尔滨市,巴彦县,巴彦港镇","lng":127.54480252961,"lat":46.056354582918566,"info":"直接查询获得"},{"name":"龙庙镇","code":"230126106","level":4,"mergeName":"黑龙江省,哈尔滨市,巴彦县,龙庙镇","lng":127.24021515830647,"lat":46.35866301229165,"info":"直接查询获得"},{"name":"万发镇","code":"230126107","level":4,"mergeName":"黑龙江省,哈尔滨市,巴彦县,万发镇","lng":127.13748664696521,"lat":46.543125287796855,"info":"直接查询获得"},{"name":"天增镇","code":"230126108","level":4,"mergeName":"黑龙江省,哈尔滨市,巴彦县,天增镇","lng":127.33826565387395,"lat":46.576161382749234,"info":"直接查询获得"},{"name":"黑山镇","code":"230126110","level":4,"mergeName":"黑龙江省,哈尔滨市,巴彦县,黑山镇","lng":127.48247737468293,"lat":46.450844185726076,"info":"直接查询获得"},{"name":"松花江乡","code":"230126200","level":4,"mergeName":"黑龙江省,哈尔滨市,巴彦县,松花江乡","lng":127.34437044828924,"lat":46.05112427658119,"info":"直接查询获得"},{"name":"富江乡","code":"230126202","level":4,"mergeName":"黑龙江省,哈尔滨市,巴彦县,富江乡","lng":127.46984980429853,"lat":46.042980921241295,"info":"直接查询获得"},{"name":"华山乡","code":"230126204","level":4,"mergeName":"黑龙江省,哈尔滨市,巴彦县,华山乡","lng":127.37917862439377,"lat":46.25343404828582,"info":"直接查询获得"},{"name":"丰乐乡","code":"230126205","level":4,"mergeName":"黑龙江省,哈尔滨市,巴彦县,丰乐乡","lng":127.15075426002548,"lat":46.25523889432399,"info":"直接查询获得"},{"name":"德祥乡","code":"230126209","level":4,"mergeName":"黑龙江省,哈尔滨市,巴彦县,德祥乡","lng":127.20671554922818,"lat":46.50229133884151,"info":"直接查询获得"},{"name":"红光乡","code":"230126210","level":4,"mergeName":"黑龙江省,哈尔滨市,巴彦县,红光乡","lng":126.98285745681805,"lat":46.4331899116957,"info":"直接查询获得"},{"name":"山后乡","code":"230126212","level":4,"mergeName":"黑龙江省,哈尔滨市,巴彦县,山后乡","lng":127.41217356004672,"lat":46.596599476683686,"info":"直接查询获得"},{"name":"镇东乡","code":"230126214","level":4,"mergeName":"黑龙江省,哈尔滨市,巴彦县,镇东乡","lng":127.54215396654267,"lat":46.28966414966398,"info":"直接查询获得"},{"name":"兴隆林业局","code":"230126400","level":4,"mergeName":"黑龙江省,哈尔滨市,巴彦县,兴隆林业局","lng":127.13390330628589,"lat":46.44665186276741,"info":"直接查询获得"},{"name":"工业园区","code":"230126401","level":4,"mergeName":"黑龙江省,哈尔滨市,巴彦县,工业园区","lng":127.41054798639587,"lat":46.09128265781541,"info":"直接查询获得"},{"name":"木兰县","code":"230127","level":3,"mergeName":"黑龙江省,哈尔滨市,木兰县","lng":128.05035620452108,"lat":45.95687131944761,"info":"直接查询获得"},{"name":"木兰镇","code":"230127100","level":4,"mergeName":"黑龙江省,哈尔滨市,木兰县,木兰镇","lng":128.0495921058543,"lat":45.95654181133079,"info":"直接查询获得"},{"name":"东兴镇","code":"230127101","level":4,"mergeName":"黑龙江省,哈尔滨市,木兰县,东兴镇","lng":127.8219827291599,"lat":46.47967310392546,"info":"直接查询获得"},{"name":"大贵镇","code":"230127102","level":4,"mergeName":"黑龙江省,哈尔滨市,木兰县,大贵镇","lng":127.81302496675,"lat":46.249572007492944,"info":"直接查询获得"},{"name":"利东镇","code":"230127103","level":4,"mergeName":"黑龙江省,哈尔滨市,木兰县,利东镇","lng":127.89246184901468,"lat":46.106966919575484,"info":"直接查询获得"},{"name":"柳河镇","code":"230127104","level":4,"mergeName":"黑龙江省,哈尔滨市,木兰县,柳河镇","lng":127.73871991971126,"lat":46.017697816349376,"info":"直接查询获得"},{"name":"新民镇","code":"230127105","level":4,"mergeName":"黑龙江省,哈尔滨市,木兰县,新民镇","lng":127.83091121758984,"lat":46.32715834673361,"info":"直接查询获得"},{"name":"建国乡","code":"230127200","level":4,"mergeName":"黑龙江省,哈尔滨市,木兰县,建国乡","lng":128.02079090408483,"lat":46.17011897141518,"info":"直接查询获得"},{"name":"吉兴乡","code":"230127203","level":4,"mergeName":"黑龙江省,哈尔滨市,木兰县,吉兴乡","lng":127.9265809340642,"lat":46.01687479652057,"info":"直接查询获得"},{"name":"兴隆林业局","code":"230127400","level":4,"mergeName":"黑龙江省,哈尔滨市,木兰县,兴隆林业局","lng":128.12349187158253,"lat":46.32458718254977,"info":"直接查询获得"},{"name":"通河县","code":"230128","level":3,"mergeName":"黑龙江省,哈尔滨市,通河县","lng":128.7524162758437,"lat":45.99639259092071,"info":"直接查询获得"},{"name":"通河镇","code":"230128100","level":4,"mergeName":"黑龙江省,哈尔滨市,通河县,通河镇","lng":128.77253427689257,"lat":45.98103087474188,"info":"直接查询获得"},{"name":"乌鸦泡镇","code":"230128101","level":4,"mergeName":"黑龙江省,哈尔滨市,通河县,乌鸦泡镇","lng":128.88087126885483,"lat":45.981613252695155,"info":"直接查询获得"},{"name":"清河镇","code":"230128102","level":4,"mergeName":"黑龙江省,哈尔滨市,通河县,清河镇","lng":129.32057429903435,"lat":46.17772181022126,"info":"直接查询获得"},{"name":"浓河镇","code":"230128103","level":4,"mergeName":"黑龙江省,哈尔滨市,通河县,浓河镇","lng":128.27706378399193,"lat":46.079297327600024,"info":"直接查询获得"},{"name":"凤山镇","code":"230128104","level":4,"mergeName":"黑龙江省,哈尔滨市,通河县,凤山镇","lng":128.75726535324088,"lat":46.19514701872678,"info":"直接查询获得"},{"name":"祥顺镇","code":"230128105","level":4,"mergeName":"黑龙江省,哈尔滨市,通河县,祥顺镇","lng":129.1357452454387,"lat":46.071903830599474,"info":"直接查询获得"},{"name":"富林镇","code":"230128106","level":4,"mergeName":"黑龙江省,哈尔滨市,通河县,富林镇","lng":128.62570650987908,"lat":46.06064794807564,"info":"直接查询获得"},{"name":"三站镇","code":"230128107","level":4,"mergeName":"黑龙江省,哈尔滨市,通河县,三站镇","lng":128.86860778169364,"lat":46.02608916093796,"info":"直接查询获得"},{"name":"清河林业局","code":"230128400","level":4,"mergeName":"黑龙江省,哈尔滨市,通河县,清河林业局","lng":129.31667143108513,"lat":46.19328353542513,"info":"直接查询获得"},{"name":"兴隆林业局","code":"230128401","level":4,"mergeName":"黑龙江省,哈尔滨市,通河县,兴隆林业局","lng":128.4953183158003,"lat":46.35268600574452,"info":"直接查询获得"},{"name":"岔林河农场","code":"230128500","level":4,"mergeName":"黑龙江省,哈尔滨市,通河县,岔林河农场","lng":128.91876179526597,"lat":46.007109398150014,"info":"直接查询获得"},{"name":"延寿县","code":"230129","level":3,"mergeName":"黑龙江省,哈尔滨市,延寿县","lng":128.33860582402286,"lat":45.457641195714054,"info":"直接查询获得"},{"name":"延寿镇","code":"230129100","level":4,"mergeName":"黑龙江省,哈尔滨市,延寿县,延寿镇","lng":128.323420688021,"lat":45.461869934458264,"info":"直接查询获得"},{"name":"六团镇","code":"230129101","level":4,"mergeName":"黑龙江省,哈尔滨市,延寿县,六团镇","lng":128.4956028576638,"lat":45.58340410352343,"info":"直接查询获得"},{"name":"中和镇","code":"230129102","level":4,"mergeName":"黑龙江省,哈尔滨市,延寿县,中和镇","lng":128.78680170398542,"lat":45.50982166781807,"info":"直接查询获得"},{"name":"加信镇","code":"230129103","level":4,"mergeName":"黑龙江省,哈尔滨市,延寿县,加信镇","lng":128.72410330311897,"lat":45.672991908795055,"info":"直接查询获得"},{"name":"延河镇","code":"230129104","level":4,"mergeName":"黑龙江省,哈尔滨市,延寿县,延河镇","lng":128.15173096945878,"lat":45.39525366302329,"info":"直接查询获得"},{"name":"玉河镇","code":"230129105","level":4,"mergeName":"黑龙江省,哈尔滨市,延寿县,玉河镇","lng":128.3841054472563,"lat":45.40008631021299,"info":"直接查询获得"},{"name":"安山乡","code":"230129204","level":4,"mergeName":"黑龙江省,哈尔滨市,延寿县,安山乡","lng":128.52651229263464,"lat":45.51788153956176,"info":"直接查询获得"},{"name":"寿山乡","code":"230129205","level":4,"mergeName":"黑龙江省,哈尔滨市,延寿县,寿山乡","lng":128.4538072175397,"lat":45.45335169317517,"info":"直接查询获得"},{"name":"青川乡","code":"230129209","level":4,"mergeName":"黑龙江省,哈尔滨市,延寿县,青川乡","lng":128.11975668313642,"lat":45.452486431507786,"info":"直接查询获得"},{"name":"太平川","code":"230129400","level":4,"mergeName":"黑龙江省,哈尔滨市,延寿县,太平川","lng":128.33908658814877,"lat":45.641000010840436,"info":"直接查询获得"},{"name":"庆阳农场","code":"230129500","level":4,"mergeName":"黑龙江省,哈尔滨市,延寿县,庆阳农场","lng":128.82079897431626,"lat":45.51697755081031,"info":"直接查询获得"},{"name":"尚志市","code":"230183","level":3,"mergeName":"黑龙江省,哈尔滨市,尚志市","lng":128.0154882066594,"lat":45.215473941866705,"info":"直接查询获得"},{"name":"尚志镇","code":"230183100","level":4,"mergeName":"黑龙江省,哈尔滨市,尚志市,尚志镇","lng":128.00967904458744,"lat":45.21449573784477,"info":"直接查询获得"},{"name":"一面坡镇","code":"230183101","level":4,"mergeName":"黑龙江省,哈尔滨市,尚志市,一面坡镇","lng":128.08576228738323,"lat":45.06614669964718,"info":"直接查询获得"},{"name":"苇河镇","code":"230183102","level":4,"mergeName":"黑龙江省,哈尔滨市,尚志市,苇河镇","lng":128.39858102142088,"lat":44.94744475590997,"info":"直接查询获得"},{"name":"亚布力镇","code":"230183103","level":4,"mergeName":"黑龙江省,哈尔滨市,尚志市,亚布力镇","lng":128.63174996061,"lat":44.948918785351694,"info":"直接查询获得"},{"name":"帽儿山镇","code":"230183104","level":4,"mergeName":"黑龙江省,哈尔滨市,尚志市,帽儿山镇","lng":127.5191853717207,"lat":45.28178192009452,"info":"直接查询获得"},{"name":"亮河镇","code":"230183105","level":4,"mergeName":"黑龙江省,哈尔滨市,尚志市,亮河镇","lng":128.75895243656493,"lat":45.24635097827731,"info":"直接查询获得"},{"name":"庆阳镇","code":"230183106","level":4,"mergeName":"黑龙江省,哈尔滨市,尚志市,庆阳镇","lng":128.79716338855144,"lat":45.37516977893964,"info":"直接查询获得"},{"name":"石头河子镇","code":"230183107","level":4,"mergeName":"黑龙江省,哈尔滨市,尚志市,石头河子镇","lng":128.70523503437875,"lat":44.87582151760647,"info":"直接查询获得"},{"name":"元宝镇","code":"230183108","level":4,"mergeName":"黑龙江省,哈尔滨市,尚志市,元宝镇","lng":128.28725311157805,"lat":45.27454144185839,"info":"直接查询获得"},{"name":"黑龙宫镇","code":"230183109","level":4,"mergeName":"黑龙江省,哈尔滨市,尚志市,黑龙宫镇","lng":127.90788297436555,"lat":45.43578423180253,"info":"直接查询获得"},{"name":"长寿乡","code":"230183202","level":4,"mergeName":"黑龙江省,哈尔滨市,尚志市,长寿乡","lng":127.94504138178601,"lat":45.26958140584832,"info":"直接查询获得"},{"name":"乌吉密乡","code":"230183204","level":4,"mergeName":"黑龙江省,哈尔滨市,尚志市,乌吉密乡","lng":127.82331236145033,"lat":45.217328647900494,"info":"直接查询获得"},{"name":"鱼池乡","code":"230183206","level":4,"mergeName":"黑龙江省,哈尔滨市,尚志市,鱼池乡","lng":128.0154882066594,"lat":45.215473941866705,"info":"直接查询获得"},{"name":"珍珠山乡","code":"230183207","level":4,"mergeName":"黑龙江省,哈尔滨市,尚志市,珍珠山乡","lng":128.3497674593309,"lat":44.90250500566058,"info":"直接查询获得"},{"name":"老街基乡","code":"230183208","level":4,"mergeName":"黑龙江省,哈尔滨市,尚志市,老街基乡","lng":127.97350563884642,"lat":44.97637574086098,"info":"直接查询获得"},{"name":"马延乡","code":"230183209","level":4,"mergeName":"黑龙江省,哈尔滨市,尚志市,马延乡","lng":128.05608505808044,"lat":45.14628762269315,"info":"直接查询获得"},{"name":"河东乡","code":"230183211","level":4,"mergeName":"黑龙江省,哈尔滨市,尚志市,河东乡","lng":128.0469293486616,"lat":45.264140696760485,"info":"直接查询获得"},{"name":"苇河林业局","code":"230183400","level":4,"mergeName":"黑龙江省,哈尔滨市,尚志市,苇河林业局","lng":128.39858102142088,"lat":44.94744475590997,"info":"直接查询获得"},{"name":"亚布力林业局","code":"230183401","level":4,"mergeName":"黑龙江省,哈尔滨市,尚志市,亚布力林业局","lng":128.63174996061,"lat":44.948918785351694,"info":"直接查询获得"},{"name":"哈尔滨市政府亚布力滑雪旅游度假区管理委员会","code":"230183402","level":4,"mergeName":"黑龙江省,哈尔滨市,尚志市,哈尔滨市政府亚布力滑雪旅游度假区管理委员会","lng":128.4889312421562,"lat":44.79592340960977,"info":"直接查询获得"},{"name":"五常市","code":"230184","level":3,"mergeName":"黑龙江省,哈尔滨市,五常市","lng":127.17352882965176,"lat":44.937842855773596,"info":"直接查询获得"},{"name":"五常镇","code":"230184100","level":4,"mergeName":"黑龙江省,哈尔滨市,五常市,五常镇","lng":127.17408407228749,"lat":44.93811020143447,"info":"直接查询获得"},{"name":"拉林满族镇","code":"230184101","level":4,"mergeName":"黑龙江省,哈尔滨市,五常市,拉林满族镇","lng":126.87866344986782,"lat":45.24410813968946,"info":"直接查询获得"},{"name":"山河镇","code":"230184102","level":4,"mergeName":"黑龙江省,哈尔滨市,五常市,山河镇","lng":127.21854902723422,"lat":44.719928950649326,"info":"直接查询获得"},{"name":"小山子镇","code":"230184103","level":4,"mergeName":"黑龙江省,哈尔滨市,五常市,小山子镇","lng":127.61310995977082,"lat":44.91225737536365,"info":"直接查询获得"},{"name":"安家镇","code":"230184104","level":4,"mergeName":"黑龙江省,哈尔滨市,五常市,安家镇","lng":127.0774019558106,"lat":45.063835527615154,"info":"直接查询获得"},{"name":"牛家满族镇","code":"230184105","level":4,"mergeName":"黑龙江省,哈尔滨市,五常市,牛家满族镇","lng":126.755607811955,"lat":45.35988530387474,"info":"直接查询获得"},{"name":"杜家镇","code":"230184106","level":4,"mergeName":"黑龙江省,哈尔滨市,五常市,杜家镇","lng":127.20975129256115,"lat":44.82264584502915,"info":"直接查询获得"},{"name":"背荫河镇","code":"230184107","level":4,"mergeName":"黑龙江省,哈尔滨市,五常市,背荫河镇","lng":127.00803354670197,"lat":45.17843152116704,"info":"直接查询获得"},{"name":"冲河镇","code":"230184108","level":4,"mergeName":"黑龙江省,哈尔滨市,五常市,冲河镇","lng":127.7433709061784,"lat":44.67515000678163,"info":"直接查询获得"},{"name":"沙河子镇","code":"230184109","level":4,"mergeName":"黑龙江省,哈尔滨市,五常市,沙河子镇","lng":127.62495016537564,"lat":44.4579712908047,"info":"直接查询获得"},{"name":"向阳镇","code":"230184110","level":4,"mergeName":"黑龙江省,哈尔滨市,五常市,向阳镇","lng":127.44856934003452,"lat":44.68270506477204,"info":"直接查询获得"},{"name":"龙凤山镇","code":"230184111","level":4,"mergeName":"黑龙江省,哈尔滨市,五常市,龙凤山镇","lng":127.56275688169782,"lat":44.76612572805472,"info":"直接查询获得"},{"name":"兴盛乡","code":"230184200","level":4,"mergeName":"黑龙江省,哈尔滨市,五常市,兴盛乡","lng":127.07360051624686,"lat":44.880179616698136,"info":"直接查询获得"},{"name":"志广乡","code":"230184201","level":4,"mergeName":"黑龙江省,哈尔滨市,五常市,志广乡","lng":127.47540367763544,"lat":44.97802353575637,"info":"直接查询获得"},{"name":"卫国乡","code":"230184202","level":4,"mergeName":"黑龙江省,哈尔滨市,五常市,卫国乡","lng":127.36222705504723,"lat":45.032239890747675,"info":"直接查询获得"},{"name":"常堡乡","code":"230184203","level":4,"mergeName":"黑龙江省,哈尔滨市,五常市,常堡乡","lng":127.22624848389836,"lat":45.04633300070857,"info":"直接查询获得"},{"name":"民意乡","code":"230184206","level":4,"mergeName":"黑龙江省,哈尔滨市,五常市,民意乡","lng":127.3056466795485,"lat":44.906366568084586,"info":"直接查询获得"},{"name":"红旗满族乡","code":"230184209","level":4,"mergeName":"黑龙江省,哈尔滨市,五常市,红旗满族乡","lng":126.71738376896228,"lat":45.25113176185473,"info":"直接查询获得"},{"name":"八家子乡","code":"230184210","level":4,"mergeName":"黑龙江省,哈尔滨市,五常市,八家子乡","lng":127.056681101934,"lat":45.238092675796835,"info":"直接查询获得"},{"name":"民乐朝鲜族乡","code":"230184211","level":4,"mergeName":"黑龙江省,哈尔滨市,五常市,民乐朝鲜族乡","lng":127.07021515240854,"lat":45.06159856117572,"info":"直接查询获得"},{"name":"营城子满族乡","code":"230184212","level":4,"mergeName":"黑龙江省,哈尔滨市,五常市,营城子满族乡","lng":126.966134242122,"lat":45.17604626294746,"info":"直接查询获得"},{"name":"长山乡","code":"230184214","level":4,"mergeName":"黑龙江省,哈尔滨市,五常市,长山乡","lng":127.11008950640105,"lat":44.69057990792236,"info":"直接查询获得"},{"name":"兴隆乡","code":"230184215","level":4,"mergeName":"黑龙江省,哈尔滨市,五常市,兴隆乡","lng":126.98357668692124,"lat":45.3243359681292,"info":"直接查询获得"},{"name":"二河乡","code":"230184216","level":4,"mergeName":"黑龙江省,哈尔滨市,五常市,二河乡","lng":127.32452714906535,"lat":45.091247378094465,"info":"直接查询获得"},{"name":"山河屯林业局","code":"230184400","level":4,"mergeName":"黑龙江省,哈尔滨市,五常市,山河屯林业局","lng":127.9052922314375,"lat":44.30669731230068,"info":"直接查询获得"},{"name":"齐齐哈尔市","code":"2302","level":2,"mergeName":"黑龙江省,齐齐哈尔市","lng":123.92457086841536,"lat":47.3599771860153,"info":"直接查询获得"},{"name":"龙沙区","code":"230202","level":3,"mergeName":"黑龙江省,齐齐哈尔市,龙沙区","lng":123.96437622285154,"lat":47.32357697742935,"info":"直接查询获得"},{"name":"五龙街道","code":"230202001","level":4,"mergeName":"黑龙江省,齐齐哈尔市,龙沙区,五龙街道","lng":123.94811338972934,"lat":47.34142623159394,"info":"直接查询获得"},{"name":"湖滨街道","code":"230202002","level":4,"mergeName":"黑龙江省,齐齐哈尔市,龙沙区,湖滨街道","lng":123.93575719743953,"lat":47.33922116849795,"info":"直接查询获得"},{"name":"江安街道","code":"230202003","level":4,"mergeName":"黑龙江省,齐齐哈尔市,龙沙区,江安街道","lng":123.93269388581993,"lat":47.33192690381698,"info":"直接查询获得"},{"name":"正阳街道","code":"230202004","level":4,"mergeName":"黑龙江省,齐齐哈尔市,龙沙区,正阳街道","lng":123.97178104500088,"lat":47.348636570160885,"info":"直接查询获得"},{"name":"彩虹街道","code":"230202005","level":4,"mergeName":"黑龙江省,齐齐哈尔市,龙沙区,彩虹街道","lng":123.97542879418528,"lat":47.32415005464088,"info":"直接查询获得"},{"name":"南航街道","code":"230202006","level":4,"mergeName":"黑龙江省,齐齐哈尔市,龙沙区,南航街道","lng":123.9599447021097,"lat":47.31746954778775,"info":"直接查询获得"},{"name":"大民街道","code":"230202007","level":4,"mergeName":"黑龙江省,齐齐哈尔市,龙沙区,大民街道","lng":123.96437622285154,"lat":47.32357697742935,"info":"直接查询获得"},{"name":"齐齐哈尔局直","code":"230202579","level":4,"mergeName":"黑龙江省,齐齐哈尔市,龙沙区,齐齐哈尔局直","lng":123.96437622285154,"lat":47.32357697742935,"info":"直接查询获得"},{"name":"建华区","code":"230203","level":3,"mergeName":"黑龙江省,齐齐哈尔市,建华区","lng":123.96135010108006,"lat":47.360554871046276,"info":"直接查询获得"},{"name":"中华街道","code":"230203002","level":4,"mergeName":"黑龙江省,齐齐哈尔市,建华区,中华街道","lng":123.9720921937753,"lat":47.35646040201177,"info":"直接查询获得"},{"name":"西大桥街道","code":"230203004","level":4,"mergeName":"黑龙江省,齐齐哈尔市,建华区,西大桥街道","lng":123.97161997882294,"lat":47.361070533795484,"info":"直接查询获得"},{"name":"卜奎街道","code":"230203005","level":4,"mergeName":"黑龙江省,齐齐哈尔市,建华区,卜奎街道","lng":123.96210000651979,"lat":47.36076851034792,"info":"直接查询获得"},{"name":"建设街道","code":"230203006","level":4,"mergeName":"黑龙江省,齐齐哈尔市,建华区,建设街道","lng":124.0594898388084,"lat":47.41049749601158,"info":"直接查询获得"},{"name":"文化街道","code":"230203007","level":4,"mergeName":"黑龙江省,齐齐哈尔市,建华区,文化街道","lng":123.93939024226103,"lat":47.381148805490746,"info":"直接查询获得"},{"name":"区直辖村级区划","code":"230203198","level":4,"mergeName":"黑龙江省,齐齐哈尔市,建华区,区直辖村级区划","lng":123.96135010108006,"lat":47.360554871046276,"info":"直接查询获得"},{"name":"铁锋区","code":"230204","level":3,"mergeName":"黑龙江省,齐齐哈尔市,铁锋区","lng":123.98441571199879,"lat":47.34701886377169,"info":"直接查询获得"},{"name":"站前街道","code":"230204001","level":4,"mergeName":"黑龙江省,齐齐哈尔市,铁锋区,站前街道","lng":123.99312702968186,"lat":47.344256082493466,"info":"直接查询获得"},{"name":"南浦街道","code":"230204002","level":4,"mergeName":"黑龙江省,齐齐哈尔市,铁锋区,南浦街道","lng":124.09800494715924,"lat":47.283489649627434,"info":"直接查询获得"},{"name":"通东街道","code":"230204003","level":4,"mergeName":"黑龙江省,齐齐哈尔市,铁锋区,通东街道","lng":124.01408234129657,"lat":47.344867034259174,"info":"直接查询获得"},{"name":"光荣街道","code":"230204004","level":4,"mergeName":"黑龙江省,齐齐哈尔市,铁锋区,光荣街道","lng":124.03289833833924,"lat":47.35197598452351,"info":"直接查询获得"},{"name":"龙华街道","code":"230204005","level":4,"mergeName":"黑龙江省,齐齐哈尔市,铁锋区,龙华街道","lng":123.98373812015262,"lat":47.34562585990551,"info":"直接查询获得"},{"name":"北局宅街道","code":"230204006","level":4,"mergeName":"黑龙江省,齐齐哈尔市,铁锋区,北局宅街道","lng":124.00792963755349,"lat":47.3651412882125,"info":"直接查询获得"},{"name":"东湖街道","code":"230204008","level":4,"mergeName":"黑龙江省,齐齐哈尔市,铁锋区,东湖街道","lng":124.01408234129657,"lat":47.344867034259174,"info":"直接查询获得"},{"name":"扎龙镇","code":"230204100","level":4,"mergeName":"黑龙江省,齐齐哈尔市,铁锋区,扎龙镇","lng":124.05807775195352,"lat":47.34646130032612,"info":"直接查询获得"},{"name":"齐齐哈尔种畜场","code":"230204500","level":4,"mergeName":"黑龙江省,齐齐哈尔市,铁锋区,齐齐哈尔种畜场","lng":124.14607602920316,"lat":47.36335451453039,"info":"直接查询获得"},{"name":"昂昂溪区","code":"230205","level":3,"mergeName":"黑龙江省,齐齐哈尔市,昂昂溪区","lng":123.82940626912925,"lat":47.16133224362644,"info":"直接查询获得"},{"name":"新兴街道","code":"230205001","level":4,"mergeName":"黑龙江省,齐齐哈尔市,昂昂溪区,新兴街道","lng":123.82868906201008,"lat":47.1609530942822,"info":"直接查询获得"},{"name":"新建街道","code":"230205002","level":4,"mergeName":"黑龙江省,齐齐哈尔市,昂昂溪区,新建街道","lng":123.81190404389494,"lat":47.16084635847147,"info":"直接查询获得"},{"name":"林机街道","code":"230205005","level":4,"mergeName":"黑龙江省,齐齐哈尔市,昂昂溪区,林机街道","lng":123.97577696841789,"lat":47.26285318663608,"info":"直接查询获得"},{"name":"道北街道","code":"230205006","level":4,"mergeName":"黑龙江省,齐齐哈尔市,昂昂溪区,道北街道","lng":123.82701551165854,"lat":47.168325063308494,"info":"直接查询获得"},{"name":"水师营满族镇","code":"230205100","level":4,"mergeName":"黑龙江省,齐齐哈尔市,昂昂溪区,水师营满族镇","lng":124.01345101218415,"lat":47.262302413951375,"info":"直接查询获得"},{"name":"榆树屯镇","code":"230205101","level":4,"mergeName":"黑龙江省,齐齐哈尔市,昂昂溪区,榆树屯镇","lng":123.89161913586757,"lat":47.16267909634966,"info":"直接查询获得"},{"name":"富拉尔基区","code":"230206","level":3,"mergeName":"黑龙江省,齐齐哈尔市,富拉尔基区","lng":123.6365098032401,"lat":47.21550408279093,"info":"直接查询获得"},{"name":"红岸街道","code":"230206001","level":4,"mergeName":"黑龙江省,齐齐哈尔市,富拉尔基区,红岸街道","lng":123.63800045140337,"lat":47.21577529738229,"info":"直接查询获得"},{"name":"沿江街道","code":"230206003","level":4,"mergeName":"黑龙江省,齐齐哈尔市,富拉尔基区,沿江街道","lng":123.65386145091162,"lat":47.1963532083338,"info":"直接查询获得"},{"name":"电力街道","code":"230206004","level":4,"mergeName":"黑龙江省,齐齐哈尔市,富拉尔基区,电力街道","lng":123.612233456155,"lat":47.193100954985816,"info":"直接查询获得"},{"name":"幸福街道","code":"230206005","level":4,"mergeName":"黑龙江省,齐齐哈尔市,富拉尔基区,幸福街道","lng":123.59827657148033,"lat":47.21382695220045,"info":"直接查询获得"},{"name":"红宝石街道","code":"230206006","level":4,"mergeName":"黑龙江省,齐齐哈尔市,富拉尔基区,红宝石街道","lng":123.61069748578385,"lat":47.21612244824739,"info":"直接查询获得"},{"name":"北兴街道","code":"230206007","level":4,"mergeName":"黑龙江省,齐齐哈尔市,富拉尔基区,北兴街道","lng":123.63587559955006,"lat":47.21491751755011,"info":"直接查询获得"},{"name":"铁北街道","code":"230206008","level":4,"mergeName":"黑龙江省,齐齐哈尔市,富拉尔基区,铁北街道","lng":123.66838985731447,"lat":47.216254311212836,"info":"直接查询获得"},{"name":"和平街道","code":"230206009","level":4,"mergeName":"黑龙江省,齐齐哈尔市,富拉尔基区,和平街道","lng":123.60384615277786,"lat":47.239367354690756,"info":"直接查询获得"},{"name":"长青乡","code":"230206200","level":4,"mergeName":"黑龙江省,齐齐哈尔市,富拉尔基区,长青乡","lng":123.64146961745237,"lat":47.210011304393895,"info":"直接查询获得"},{"name":"杜尔门沁达斡尔族乡","code":"230206202","level":4,"mergeName":"黑龙江省,齐齐哈尔市,富拉尔基区,杜尔门沁达斡尔族乡","lng":123.58300681689603,"lat":47.17717871620582,"info":"直接查询获得"},{"name":"碾子山区","code":"230207","level":3,"mergeName":"黑龙江省,齐齐哈尔市,碾子山区","lng":122.89436680107868,"lat":47.52323629813318,"info":"直接查询获得"},{"name":"东安街道","code":"230207001","level":4,"mergeName":"黑龙江省,齐齐哈尔市,碾子山区,东安街道","lng":122.95797625980016,"lat":47.51389482287253,"info":"直接查询获得"},{"name":"富强街道","code":"230207002","level":4,"mergeName":"黑龙江省,齐齐哈尔市,碾子山区,富强街道","lng":122.89413602639317,"lat":47.52331826341457,"info":"直接查询获得"},{"name":"跃进街道","code":"230207003","level":4,"mergeName":"黑龙江省,齐齐哈尔市,碾子山区,跃进街道","lng":122.88706869762392,"lat":47.51688563557516,"info":"直接查询获得"},{"name":"繁荣街道","code":"230207004","level":4,"mergeName":"黑龙江省,齐齐哈尔市,碾子山区,繁荣街道","lng":122.89413602639317,"lat":47.52331826341457,"info":"直接查询获得"},{"name":"梅里斯达斡尔族区","code":"230208","level":3,"mergeName":"黑龙江省,齐齐哈尔市,梅里斯达斡尔族区","lng":123.7595409174125,"lat":47.315549574077295,"info":"直接查询获得"},{"name":"梅里斯街道","code":"230208001","level":4,"mergeName":"黑龙江省,齐齐哈尔市,梅里斯达斡尔族区,梅里斯街道","lng":123.765462008351,"lat":47.31862102182672,"info":"直接查询获得"},{"name":"雅尔塞镇","code":"230208101","level":4,"mergeName":"黑龙江省,齐齐哈尔市,梅里斯达斡尔族区,雅尔塞镇","lng":123.91231843041193,"lat":47.451879869246554,"info":"直接查询获得"},{"name":"卧牛吐达斡尔族镇","code":"230208102","level":4,"mergeName":"黑龙江省,齐齐哈尔市,梅里斯达斡尔族区,卧牛吐达斡尔族镇","lng":124.00991025118599,"lat":47.57654527400475,"info":"直接查询获得"},{"name":"达呼店镇","code":"230208103","level":4,"mergeName":"黑龙江省,齐齐哈尔市,梅里斯达斡尔族区,达呼店镇","lng":123.83499606499568,"lat":47.53148195610781,"info":"直接查询获得"},{"name":"共和镇","code":"230208104","level":4,"mergeName":"黑龙江省,齐齐哈尔市,梅里斯达斡尔族区,共和镇","lng":123.6934016471206,"lat":47.4569833516495,"info":"直接查询获得"},{"name":"梅里斯镇","code":"230208105","level":4,"mergeName":"黑龙江省,齐齐哈尔市,梅里斯达斡尔族区,梅里斯镇","lng":123.765462008351,"lat":47.31862102182672,"info":"直接查询获得"},{"name":"莽格吐达斡尔族乡","code":"230208200","level":4,"mergeName":"黑龙江省,齐齐哈尔市,梅里斯达斡尔族区,莽格吐达斡尔族乡","lng":124.14646041413089,"lat":47.7915374574185,"info":"直接查询获得"},{"name":"龙江县","code":"230221","level":3,"mergeName":"黑龙江省,齐齐哈尔市,龙江县","lng":123.2115389834243,"lat":47.343605740150764,"info":"直接查询获得"},{"name":"龙江镇","code":"230221100","level":4,"mergeName":"黑龙江省,齐齐哈尔市,龙江县,龙江镇","lng":123.16452646728828,"lat":47.368028403560444,"info":"直接查询获得"},{"name":"景星镇","code":"230221101","level":4,"mergeName":"黑龙江省,齐齐哈尔市,龙江县,景星镇","lng":123.04087602806,"lat":47.08758412995393,"info":"直接查询获得"},{"name":"龙兴镇","code":"230221102","level":4,"mergeName":"黑龙江省,齐齐哈尔市,龙江县,龙兴镇","lng":122.76679888475867,"lat":47.49616263537438,"info":"直接查询获得"},{"name":"山泉镇","code":"230221103","level":4,"mergeName":"黑龙江省,齐齐哈尔市,龙江县,山泉镇","lng":122.87973097889618,"lat":47.245442063425166,"info":"直接查询获得"},{"name":"七棵树镇","code":"230221104","level":4,"mergeName":"黑龙江省,齐齐哈尔市,龙江县,七棵树镇","lng":123.26572063958119,"lat":47.536390045999,"info":"直接查询获得"},{"name":"杏山镇","code":"230221105","level":4,"mergeName":"黑龙江省,齐齐哈尔市,龙江县,杏山镇","lng":122.97415321850882,"lat":46.94509016845484,"info":"直接查询获得"},{"name":"白山镇","code":"230221106","level":4,"mergeName":"黑龙江省,齐齐哈尔市,龙江县,白山镇","lng":123.25633774869885,"lat":47.27620729006092,"info":"直接查询获得"},{"name":"头站镇","code":"230221107","level":4,"mergeName":"黑龙江省,齐齐哈尔市,龙江县,头站镇","lng":123.26225821082349,"lat":46.97245347104746,"info":"直接查询获得"},{"name":"黑岗乡","code":"230221201","level":4,"mergeName":"黑龙江省,齐齐哈尔市,龙江县,黑岗乡","lng":123.41206314105985,"lat":47.25347601909036,"info":"直接查询获得"},{"name":"广厚乡","code":"230221202","level":4,"mergeName":"黑龙江省,齐齐哈尔市,龙江县,广厚乡","lng":123.39889523991121,"lat":47.08231127399538,"info":"直接查询获得"},{"name":"华民乡","code":"230221203","level":4,"mergeName":"黑龙江省,齐齐哈尔市,龙江县,华民乡","lng":123.45920010574632,"lat":47.13607708257428,"info":"直接查询获得"},{"name":"哈拉海乡","code":"230221204","level":4,"mergeName":"黑龙江省,齐齐哈尔市,龙江县,哈拉海乡","lng":123.41824599822395,"lat":47.44287232522607,"info":"直接查询获得"},{"name":"鲁河乡","code":"230221215","level":4,"mergeName":"黑龙江省,齐齐哈尔市,龙江县,鲁河乡","lng":123.00734758337482,"lat":47.45705250440764,"info":"直接查询获得"},{"name":"济沁河乡","code":"230221217","level":4,"mergeName":"黑龙江省,齐齐哈尔市,龙江县,济沁河乡","lng":122.71048420216835,"lat":47.38754410996286,"info":"直接查询获得"},{"name":"依安县","code":"230223","level":3,"mergeName":"黑龙江省,齐齐哈尔市,依安县","lng":125.31248216609961,"lat":47.89948365136766,"info":"直接查询获得"},{"name":"依安镇","code":"230223100","level":4,"mergeName":"黑龙江省,齐齐哈尔市,依安县,依安镇","lng":125.31231382364703,"lat":47.89963890450266,"info":"直接查询获得"},{"name":"依龙镇","code":"230223101","level":4,"mergeName":"黑龙江省,齐齐哈尔市,依安县,依龙镇","lng":125.37434056148368,"lat":47.48203752694462,"info":"直接查询获得"},{"name":"双阳镇","code":"230223102","level":4,"mergeName":"黑龙江省,齐齐哈尔市,依安县,双阳镇","lng":125.55677201611385,"lat":47.57028132623964,"info":"直接查询获得"},{"name":"三兴镇","code":"230223103","level":4,"mergeName":"黑龙江省,齐齐哈尔市,依安县,三兴镇","lng":125.05222733951094,"lat":47.625691978950776,"info":"直接查询获得"},{"name":"中心镇","code":"230223104","level":4,"mergeName":"黑龙江省,齐齐哈尔市,依安县,中心镇","lng":125.34213559030636,"lat":47.697779063170145,"info":"直接查询获得"},{"name":"新兴镇","code":"230223105","level":4,"mergeName":"黑龙江省,齐齐哈尔市,依安县,新兴镇","lng":125.0310024464127,"lat":47.73931367191609,"info":"直接查询获得"},{"name":"富饶乡","code":"230223200","level":4,"mergeName":"黑龙江省,齐齐哈尔市,依安县,富饶乡","lng":125.55580860501374,"lat":47.42188959614801,"info":"直接查询获得"},{"name":"解放乡","code":"230223201","level":4,"mergeName":"黑龙江省,齐齐哈尔市,依安县,解放乡","lng":125.51166209937,"lat":47.658389553922454,"info":"直接查询获得"},{"name":"阳春乡","code":"230223202","level":4,"mergeName":"黑龙江省,齐齐哈尔市,依安县,阳春乡","lng":125.50372161764506,"lat":47.771502410970655,"info":"直接查询获得"},{"name":"新发乡","code":"230223203","level":4,"mergeName":"黑龙江省,齐齐哈尔市,依安县,新发乡","lng":125.48085983224652,"lat":47.8439789384902,"info":"直接查询获得"},{"name":"太东乡","code":"230223204","level":4,"mergeName":"黑龙江省,齐齐哈尔市,依安县,太东乡","lng":125.47339239820313,"lat":47.90877234082178,"info":"直接查询获得"},{"name":"上游乡","code":"230223205","level":4,"mergeName":"黑龙江省,齐齐哈尔市,依安县,上游乡","lng":125.3304284237475,"lat":47.98386699426297,"info":"直接查询获得"},{"name":"红星乡","code":"230223206","level":4,"mergeName":"黑龙江省,齐齐哈尔市,依安县,红星乡","lng":125.22225284201417,"lat":47.960627807369875,"info":"直接查询获得"},{"name":"先锋乡","code":"230223207","level":4,"mergeName":"黑龙江省,齐齐哈尔市,依安县,先锋乡","lng":125.11070100956395,"lat":48.0205528961004,"info":"直接查询获得"},{"name":"新屯乡","code":"230223208","level":4,"mergeName":"黑龙江省,齐齐哈尔市,依安县,新屯乡","lng":125.09435463402934,"lat":47.87436822235396,"info":"直接查询获得"},{"name":"泰来县","code":"230224","level":3,"mergeName":"黑龙江省,齐齐哈尔市,泰来县","lng":123.42362630924546,"lat":46.39782928518008,"info":"直接查询获得"},{"name":"泰来镇","code":"230224100","level":4,"mergeName":"黑龙江省,齐齐哈尔市,泰来县,泰来镇","lng":123.4295047234858,"lat":46.32694142716833,"info":"直接查询获得"},{"name":"平洋镇","code":"230224101","level":4,"mergeName":"黑龙江省,齐齐哈尔市,泰来县,平洋镇","lng":123.55079286266361,"lat":46.61039875656532,"info":"直接查询获得"},{"name":"汤池镇","code":"230224102","level":4,"mergeName":"黑龙江省,齐齐哈尔市,泰来县,汤池镇","lng":123.77293662883847,"lat":46.9843883932405,"info":"直接查询获得"},{"name":"江桥蒙古族镇","code":"230224103","level":4,"mergeName":"黑龙江省,齐齐哈尔市,泰来县,江桥蒙古族镇","lng":123.42362630924546,"lat":46.39782928518008,"info":"直接查询获得"},{"name":"塔子城镇","code":"230224104","level":4,"mergeName":"黑龙江省,齐齐哈尔市,泰来县,塔子城镇","lng":123.07005595543245,"lat":46.614428077507384,"info":"直接查询获得"},{"name":"大兴镇","code":"230224105","level":4,"mergeName":"黑龙江省,齐齐哈尔市,泰来县,大兴镇","lng":123.76464288937002,"lat":46.849814351984584,"info":"直接查询获得"},{"name":"和平镇","code":"230224106","level":4,"mergeName":"黑龙江省,齐齐哈尔市,泰来县,和平镇","lng":123.19866383824477,"lat":46.40230598576316,"info":"直接查询获得"},{"name":"克利镇","code":"230224107","level":4,"mergeName":"黑龙江省,齐齐哈尔市,泰来县,克利镇","lng":123.44930562987605,"lat":46.512056016806994,"info":"直接查询获得"},{"name":"胜利蒙古族乡","code":"230224200","level":4,"mergeName":"黑龙江省,齐齐哈尔市,泰来县,胜利蒙古族乡","lng":123.62361840052743,"lat":46.464145439308325,"info":"直接查询获得"},{"name":"宁姜蒙古族乡","code":"230224209","level":4,"mergeName":"黑龙江省,齐齐哈尔市,泰来县,宁姜蒙古族乡","lng":123.42362630924546,"lat":46.39782928518008,"info":"直接查询获得"},{"name":"葡萄场","code":"230224400","level":4,"mergeName":"黑龙江省,齐齐哈尔市,泰来县,葡萄场","lng":123.42362630924546,"lat":46.39782928518008,"info":"直接查询获得"},{"name":"果树场","code":"230224401","level":4,"mergeName":"黑龙江省,齐齐哈尔市,泰来县,果树场","lng":123.42362630924546,"lat":46.39782928518008,"info":"直接查询获得"},{"name":"泰来县一苗圃","code":"230224402","level":4,"mergeName":"黑龙江省,齐齐哈尔市,泰来县,泰来县一苗圃","lng":123.42362630924546,"lat":46.39782928518008,"info":"直接查询获得"},{"name":"泰来县二苗圃","code":"230224403","level":4,"mergeName":"黑龙江省,齐齐哈尔市,泰来县,泰来县二苗圃","lng":123.42362630924546,"lat":46.39782928518008,"info":"直接查询获得"},{"name":"东方红机械林场","code":"230224404","level":4,"mergeName":"黑龙江省,齐齐哈尔市,泰来县,东方红机械林场","lng":123.42362630924546,"lat":46.39782928518008,"info":"直接查询获得"},{"name":"六三监狱","code":"230224480","level":4,"mergeName":"黑龙江省,齐齐哈尔市,泰来县,六三监狱","lng":123.41384114996933,"lat":46.6601557068367,"info":"直接查询获得"},{"name":"第一良种场","code":"230224580","level":4,"mergeName":"黑龙江省,齐齐哈尔市,泰来县,第一良种场","lng":123.55805853728947,"lat":46.627657688765204,"info":"直接查询获得"},{"name":"第二良种场","code":"230224581","level":4,"mergeName":"黑龙江省,齐齐哈尔市,泰来县,第二良种场","lng":123.68549799592155,"lat":46.75642072541587,"info":"直接查询获得"},{"name":"宏胜种畜场","code":"230224582","level":4,"mergeName":"黑龙江省,齐齐哈尔市,泰来县,宏胜种畜场","lng":123.63035344608853,"lat":46.400648620588626,"info":"直接查询获得"},{"name":"二龙涛农场","code":"230224583","level":4,"mergeName":"黑龙江省,齐齐哈尔市,泰来县,二龙涛农场","lng":123.24741417579665,"lat":46.439891513058285,"info":"直接查询获得"},{"name":"甘南县","code":"230225","level":3,"mergeName":"黑龙江省,齐齐哈尔市,甘南县","lng":123.51248588181808,"lat":47.92688406951045,"info":"直接查询获得"},{"name":"甘南镇","code":"230225100","level":4,"mergeName":"黑龙江省,齐齐哈尔市,甘南县,甘南镇","lng":123.5144545183432,"lat":47.92777324416336,"info":"直接查询获得"},{"name":"兴十四镇","code":"230225101","level":4,"mergeName":"黑龙江省,齐齐哈尔市,甘南县,兴十四镇","lng":123.70615956163446,"lat":47.87611041760659,"info":"直接查询获得"},{"name":"平阳镇","code":"230225102","level":4,"mergeName":"黑龙江省,齐齐哈尔市,甘南县,平阳镇","lng":124.36240820788119,"lat":48.27757969565443,"info":"直接查询获得"},{"name":"东阳镇","code":"230225103","level":4,"mergeName":"黑龙江省,齐齐哈尔市,甘南县,东阳镇","lng":124.26378796473892,"lat":48.06568918277644,"info":"直接查询获得"},{"name":"巨宝镇","code":"230225104","level":4,"mergeName":"黑龙江省,齐齐哈尔市,甘南县,巨宝镇","lng":124.19634960723884,"lat":47.90392086713509,"info":"直接查询获得"},{"name":"长山乡","code":"230225201","level":4,"mergeName":"黑龙江省,齐齐哈尔市,甘南县,长山乡","lng":123.55523929527693,"lat":47.77682111949376,"info":"直接查询获得"},{"name":"中兴乡","code":"230225202","level":4,"mergeName":"黑龙江省,齐齐哈尔市,甘南县,中兴乡","lng":123.24488480259932,"lat":47.708939448742605,"info":"直接查询获得"},{"name":"兴隆乡","code":"230225203","level":4,"mergeName":"黑龙江省,齐齐哈尔市,甘南县,兴隆乡","lng":123.66892300163464,"lat":48.03981188717695,"info":"直接查询获得"},{"name":"宝山乡","code":"230225204","level":4,"mergeName":"黑龙江省,齐齐哈尔市,甘南县,宝山乡","lng":124.00645744956846,"lat":48.170703282096824,"info":"直接查询获得"},{"name":"查哈阳乡","code":"230225206","level":4,"mergeName":"黑龙江省,齐齐哈尔市,甘南县,查哈阳乡","lng":124.30833264160505,"lat":48.42884776953347,"info":"直接查询获得"},{"name":"查哈阳农场","code":"230225500","level":4,"mergeName":"黑龙江省,齐齐哈尔市,甘南县,查哈阳农场","lng":124.3007474397093,"lat":48.24875074162806,"info":"直接查询获得"},{"name":"北京市双河农场","code":"230225580","level":4,"mergeName":"黑龙江省,齐齐哈尔市,甘南县,北京市双河农场","lng":123.75986107349624,"lat":47.87258347784692,"info":"直接查询获得"},{"name":"富裕县","code":"230227","level":3,"mergeName":"黑龙江省,齐齐哈尔市,富裕县","lng":124.48054247905756,"lat":47.780228063275445,"info":"直接查询获得"},{"name":"富裕镇","code":"230227100","level":4,"mergeName":"黑龙江省,齐齐哈尔市,富裕县,富裕镇","lng":124.48058164517779,"lat":47.77994820159054,"info":"直接查询获得"},{"name":"富路镇","code":"230227101","level":4,"mergeName":"黑龙江省,齐齐哈尔市,富裕县,富路镇","lng":124.739534111133,"lat":47.64430194824251,"info":"直接查询获得"},{"name":"富海镇","code":"230227102","level":4,"mergeName":"黑龙江省,齐齐哈尔市,富裕县,富海镇","lng":124.87266900366456,"lat":47.87513488980999,"info":"直接查询获得"},{"name":"二道湾镇","code":"230227103","level":4,"mergeName":"黑龙江省,齐齐哈尔市,富裕县,二道湾镇","lng":124.5447725806491,"lat":47.96482510947075,"info":"直接查询获得"},{"name":"龙安桥镇","code":"230227104","level":4,"mergeName":"黑龙江省,齐齐哈尔市,富裕县,龙安桥镇","lng":124.45718042732051,"lat":47.527396284196605,"info":"直接查询获得"},{"name":"塔哈镇","code":"230227105","level":4,"mergeName":"黑龙江省,齐齐哈尔市,富裕县,塔哈镇","lng":124.24817294194034,"lat":47.55657858894807,"info":"直接查询获得"},{"name":"繁荣乡","code":"230227200","level":4,"mergeName":"黑龙江省,齐齐哈尔市,富裕县,繁荣乡","lng":124.63941921697813,"lat":47.403536875946564,"info":"直接查询获得"},{"name":"绍文乡","code":"230227201","level":4,"mergeName":"黑龙江省,齐齐哈尔市,富裕县,绍文乡","lng":124.91165862393494,"lat":47.53432283173115,"info":"直接查询获得"},{"name":"忠厚乡","code":"230227202","level":4,"mergeName":"黑龙江省,齐齐哈尔市,富裕县,忠厚乡","lng":124.85918911202924,"lat":47.97207116367501,"info":"直接查询获得"},{"name":"友谊达斡尔族满族柯尔克孜族乡","code":"230227203","level":4,"mergeName":"黑龙江省,齐齐哈尔市,富裕县,友谊达斡尔族满族柯尔克孜族乡","lng":124.48282174962803,"lat":47.786909053602635,"info":"直接查询获得"},{"name":"克山县","code":"230229","level":3,"mergeName":"黑龙江省,齐齐哈尔市,克山县","lng":125.8813783269278,"lat":48.04317236073717,"info":"直接查询获得"},{"name":"克山镇","code":"230229100","level":4,"mergeName":"黑龙江省,齐齐哈尔市,克山县,克山镇","lng":125.88193204244416,"lat":48.04335392677974,"info":"直接查询获得"},{"name":"北兴镇","code":"230229101","level":4,"mergeName":"黑龙江省,齐齐哈尔市,克山县,北兴镇","lng":125.69448613057584,"lat":48.49974712428281,"info":"直接查询获得"},{"name":"西城镇","code":"230229102","level":4,"mergeName":"黑龙江省,齐齐哈尔市,克山县,西城镇","lng":125.50850059846663,"lat":48.165280663922,"info":"直接查询获得"},{"name":"古城镇","code":"230229103","level":4,"mergeName":"黑龙江省,齐齐哈尔市,克山县,古城镇","lng":125.67982722643325,"lat":47.96897929924474,"info":"直接查询获得"},{"name":"北联镇","code":"230229104","level":4,"mergeName":"黑龙江省,齐齐哈尔市,克山县,北联镇","lng":125.66562259089554,"lat":48.24525515502739,"info":"直接查询获得"},{"name":"西河镇","code":"230229105","level":4,"mergeName":"黑龙江省,齐齐哈尔市,克山县,西河镇","lng":125.57809583420807,"lat":48.08231758798801,"info":"直接查询获得"},{"name":"双河镇","code":"230229106","level":4,"mergeName":"黑龙江省,齐齐哈尔市,克山县,双河镇","lng":125.84706786597413,"lat":47.92378239188932,"info":"直接查询获得"},{"name":"河南乡","code":"230229200","level":4,"mergeName":"黑龙江省,齐齐哈尔市,克山县,河南乡","lng":126.03770055346963,"lat":47.97404987876318,"info":"直接查询获得"},{"name":"河北乡","code":"230229203","level":4,"mergeName":"黑龙江省,齐齐哈尔市,克山县,河北乡","lng":125.98733446793253,"lat":48.1456012119159,"info":"直接查询获得"},{"name":"古北乡","code":"230229204","level":4,"mergeName":"黑龙江省,齐齐哈尔市,克山县,古北乡","lng":125.82057361426284,"lat":48.113704810305904,"info":"直接查询获得"},{"name":"西联乡","code":"230229205","level":4,"mergeName":"黑龙江省,齐齐哈尔市,克山县,西联乡","lng":125.32025969520504,"lat":48.093111505421184,"info":"直接查询获得"},{"name":"发展乡","code":"230229206","level":4,"mergeName":"黑龙江省,齐齐哈尔市,克山县,发展乡","lng":125.337859027265,"lat":48.19036205269971,"info":"直接查询获得"},{"name":"西建乡","code":"230229207","level":4,"mergeName":"黑龙江省,齐齐哈尔市,克山县,西建乡","lng":125.54711857717126,"lat":48.26688398462056,"info":"直接查询获得"},{"name":"向华乡","code":"230229208","level":4,"mergeName":"黑龙江省,齐齐哈尔市,克山县,向华乡","lng":125.71013282044026,"lat":48.16646803852497,"info":"直接查询获得"},{"name":"曙光乡","code":"230229210","level":4,"mergeName":"黑龙江省,齐齐哈尔市,克山县,曙光乡","lng":125.65844324342919,"lat":48.42678493516372,"info":"直接查询获得"},{"name":"克山县河北林场","code":"230229400","level":4,"mergeName":"黑龙江省,齐齐哈尔市,克山县,克山县河北林场","lng":126.02750011474265,"lat":48.19105552866848,"info":"直接查询获得"},{"name":"克山县涌泉林场","code":"230229401","level":4,"mergeName":"黑龙江省,齐齐哈尔市,克山县,克山县涌泉林场","lng":125.86284116391543,"lat":48.27443163105338,"info":"直接查询获得"},{"name":"克山县北联林场","code":"230229402","level":4,"mergeName":"黑龙江省,齐齐哈尔市,克山县,克山县北联林场","lng":125.68034024871001,"lat":48.21398969560153,"info":"直接查询获得"},{"name":"克山县第一良种场","code":"230229580","level":4,"mergeName":"黑龙江省,齐齐哈尔市,克山县,克山县第一良种场","lng":125.8813783269278,"lat":48.04317236073717,"info":"直接查询获得"},{"name":"克山县第二良种场","code":"230229581","level":4,"mergeName":"黑龙江省,齐齐哈尔市,克山县,克山县第二良种场","lng":125.8813783269278,"lat":48.04317236073717,"info":"直接查询获得"},{"name":"克山县种猪场","code":"230229583","level":4,"mergeName":"黑龙江省,齐齐哈尔市,克山县,克山县种猪场","lng":125.49494292704874,"lat":48.19540778330899,"info":"直接查询获得"},{"name":"克山县种畜场","code":"230229584","level":4,"mergeName":"黑龙江省,齐齐哈尔市,克山县,克山县种畜场","lng":125.92168089346376,"lat":48.26915443575562,"info":"直接查询获得"},{"name":"克东县","code":"230230","level":3,"mergeName":"黑龙江省,齐齐哈尔市,克东县","lng":126.25538674804284,"lat":48.048244160483,"info":"直接查询获得"},{"name":"克东镇","code":"230230100","level":4,"mergeName":"黑龙江省,齐齐哈尔市,克东县,克东镇","lng":126.25527796324559,"lat":48.04799593132564,"info":"直接查询获得"},{"name":"宝泉镇","code":"230230101","level":4,"mergeName":"黑龙江省,齐齐哈尔市,克东县,宝泉镇","lng":126.22650865132175,"lat":48.17366778729072,"info":"直接查询获得"},{"name":"乾丰镇","code":"230230102","level":4,"mergeName":"黑龙江省,齐齐哈尔市,克东县,乾丰镇","lng":126.25889382258437,"lat":47.78960709421195,"info":"直接查询获得"},{"name":"玉岗镇","code":"230230103","level":4,"mergeName":"黑龙江省,齐齐哈尔市,克东县,玉岗镇","lng":126.45825745933156,"lat":48.094699268191434,"info":"直接查询获得"},{"name":"蒲峪路镇","code":"230230104","level":4,"mergeName":"黑龙江省,齐齐哈尔市,克东县,蒲峪路镇","lng":126.1617133646491,"lat":48.00285344921237,"info":"直接查询获得"},{"name":"润津乡","code":"230230202","level":4,"mergeName":"黑龙江省,齐齐哈尔市,克东县,润津乡","lng":126.32692927477389,"lat":47.95471590076071,"info":"直接查询获得"},{"name":"昌盛乡","code":"230230204","level":4,"mergeName":"黑龙江省,齐齐哈尔市,克东县,昌盛乡","lng":126.41362290430425,"lat":47.83491463188813,"info":"直接查询获得"},{"name":"第一苗圃","code":"230230400","level":4,"mergeName":"黑龙江省,齐齐哈尔市,克东县,第一苗圃","lng":126.25538674804284,"lat":48.048244160483,"info":"直接查询获得"},{"name":"第二苗圃","code":"230230401","level":4,"mergeName":"黑龙江省,齐齐哈尔市,克东县,第二苗圃","lng":126.210465004744,"lat":48.157128176719084,"info":"直接查询获得"},{"name":"爱华林场","code":"230230402","level":4,"mergeName":"黑龙江省,齐齐哈尔市,克东县,爱华林场","lng":126.13124757402389,"lat":48.23739867327345,"info":"直接查询获得"},{"name":"发展林场","code":"230230403","level":4,"mergeName":"黑龙江省,齐齐哈尔市,克东县,发展林场","lng":126.48379439853882,"lat":47.9318857560974,"info":"直接查询获得"},{"name":"东兴林场","code":"230230404","level":4,"mergeName":"黑龙江省,齐齐哈尔市,克东县,东兴林场","lng":126.56246125781185,"lat":47.84863651296724,"info":"直接查询获得"},{"name":"红旗奶山羊场","code":"230230580","level":4,"mergeName":"黑龙江省,齐齐哈尔市,克东县,红旗奶山羊场","lng":126.25538674804284,"lat":48.048244160483,"info":"直接查询获得"},{"name":"第一良种场","code":"230230581","level":4,"mergeName":"黑龙江省,齐齐哈尔市,克东县,第一良种场","lng":126.49009493372475,"lat":47.95156217629963,"info":"直接查询获得"},{"name":"第二良种繁殖场","code":"230230582","level":4,"mergeName":"黑龙江省,齐齐哈尔市,克东县,第二良种繁殖场","lng":126.23943544727152,"lat":48.248157590652966,"info":"直接查询获得"},{"name":"果树繁殖场","code":"230230583","level":4,"mergeName":"黑龙江省,齐齐哈尔市,克东县,果树繁殖场","lng":126.25538674804284,"lat":48.048244160483,"info":"直接查询获得"},{"name":"种猪场","code":"230230584","level":4,"mergeName":"黑龙江省,齐齐哈尔市,克东县,种猪场","lng":126.28232378621797,"lat":48.00573094870019,"info":"直接查询获得"},{"name":"黑龙江省社会救助安置中心","code":"230230585","level":4,"mergeName":"黑龙江省,齐齐哈尔市,克东县,黑龙江省社会救助安置中心","lng":126.095661380907,"lat":48.22659342097832,"info":"直接查询获得"},{"name":"拜泉县","code":"230231","level":3,"mergeName":"黑龙江省,齐齐哈尔市,拜泉县","lng":126.10542147027297,"lat":47.60186730195864,"info":"直接查询获得"},{"name":"拜泉镇","code":"230231100","level":4,"mergeName":"黑龙江省,齐齐哈尔市,拜泉县,拜泉镇","lng":126.10625806219441,"lat":47.6018652969293,"info":"直接查询获得"},{"name":"三道镇","code":"230231101","level":4,"mergeName":"黑龙江省,齐齐哈尔市,拜泉县,三道镇","lng":126.41138127273464,"lat":47.427208094609284,"info":"直接查询获得"},{"name":"兴农镇","code":"230231102","level":4,"mergeName":"黑龙江省,齐齐哈尔市,拜泉县,兴农镇","lng":125.97364903501348,"lat":47.802201857126256,"info":"直接查询获得"},{"name":"长春镇","code":"230231103","level":4,"mergeName":"黑龙江省,齐齐哈尔市,拜泉县,长春镇","lng":125.67164716662879,"lat":47.74049767634759,"info":"直接查询获得"},{"name":"龙泉镇","code":"230231104","level":4,"mergeName":"黑龙江省,齐齐哈尔市,拜泉县,龙泉镇","lng":125.97886792053482,"lat":47.42466322294123,"info":"直接查询获得"},{"name":"国富镇","code":"230231105","level":4,"mergeName":"黑龙江省,齐齐哈尔市,拜泉县,国富镇","lng":126.40441302706314,"lat":47.65718479611224,"info":"直接查询获得"},{"name":"富强镇","code":"230231106","level":4,"mergeName":"黑龙江省,齐齐哈尔市,拜泉县,富强镇","lng":125.74708320096565,"lat":47.46970462930993,"info":"直接查询获得"},{"name":"新生乡","code":"230231200","level":4,"mergeName":"黑龙江省,齐齐哈尔市,拜泉县,新生乡","lng":126.19031291749259,"lat":47.4268918906154,"info":"直接查询获得"},{"name":"兴国乡","code":"230231201","level":4,"mergeName":"黑龙江省,齐齐哈尔市,拜泉县,兴国乡","lng":126.20048563900303,"lat":47.55032327755801,"info":"直接查询获得"},{"name":"上升乡","code":"230231203","level":4,"mergeName":"黑龙江省,齐齐哈尔市,拜泉县,上升乡","lng":126.24901515689109,"lat":47.65301818202977,"info":"直接查询获得"},{"name":"兴华乡","code":"230231204","level":4,"mergeName":"黑龙江省,齐齐哈尔市,拜泉县,兴华乡","lng":126.06663668072667,"lat":47.705057866625694,"info":"直接查询获得"},{"name":"大众乡","code":"230231206","level":4,"mergeName":"黑龙江省,齐齐哈尔市,拜泉县,大众乡","lng":125.88407521972988,"lat":47.80309342836223,"info":"直接查询获得"},{"name":"丰产乡","code":"230231209","level":4,"mergeName":"黑龙江省,齐齐哈尔市,拜泉县,丰产乡","lng":125.86174720746537,"lat":47.63557282158366,"info":"直接查询获得"},{"name":"永勤乡","code":"230231210","level":4,"mergeName":"黑龙江省,齐齐哈尔市,拜泉县,永勤乡","lng":125.8139504373818,"lat":47.55095232129203,"info":"直接查询获得"},{"name":"爱农乡","code":"230231212","level":4,"mergeName":"黑龙江省,齐齐哈尔市,拜泉县,爱农乡","lng":125.73236435469299,"lat":47.38337273186533,"info":"直接查询获得"},{"name":"时中乡","code":"230231214","level":4,"mergeName":"黑龙江省,齐齐哈尔市,拜泉县,时中乡","lng":125.9723783818696,"lat":47.533841851405214,"info":"直接查询获得"},{"name":"讷河市","code":"230281","level":3,"mergeName":"黑龙江省,齐齐哈尔市,讷河市","lng":124.89054905619638,"lat":48.49008659326358,"info":"直接查询获得"},{"name":"雨亭街道","code":"230281001","level":4,"mergeName":"黑龙江省,齐齐哈尔市,讷河市,雨亭街道","lng":124.88941198108184,"lat":48.48114384230512,"info":"直接查询获得"},{"name":"通江街道","code":"230281002","level":4,"mergeName":"黑龙江省,齐齐哈尔市,讷河市,通江街道","lng":124.87860886918823,"lat":48.48892682683716,"info":"直接查询获得"},{"name":"拉哈镇","code":"230281101","level":4,"mergeName":"黑龙江省,齐齐哈尔市,讷河市,拉哈镇","lng":124.6345989994421,"lat":48.22385789339964,"info":"直接查询获得"},{"name":"二克浅镇","code":"230281102","level":4,"mergeName":"黑龙江省,齐齐哈尔市,讷河市,二克浅镇","lng":124.60493210065269,"lat":48.4862543420383,"info":"直接查询获得"},{"name":"学田镇","code":"230281103","level":4,"mergeName":"黑龙江省,齐齐哈尔市,讷河市,学田镇","lng":124.81740021817951,"lat":48.69338613200088,"info":"直接查询获得"},{"name":"龙河镇","code":"230281104","level":4,"mergeName":"黑龙江省,齐齐哈尔市,讷河市,龙河镇","lng":125.4448210728137,"lat":48.55666102245601,"info":"直接查询获得"},{"name":"讷南镇","code":"230281105","level":4,"mergeName":"黑龙江省,齐齐哈尔市,讷河市,讷南镇","lng":125.1484906580629,"lat":48.427723025141404,"info":"直接查询获得"},{"name":"六合镇","code":"230281106","level":4,"mergeName":"黑龙江省,齐齐哈尔市,讷河市,六合镇","lng":124.70602282138815,"lat":48.352648814969825,"info":"直接查询获得"},{"name":"长发镇","code":"230281107","level":4,"mergeName":"黑龙江省,齐齐哈尔市,讷河市,长发镇","lng":124.95488902055179,"lat":48.341056870131254,"info":"直接查询获得"},{"name":"通南镇","code":"230281108","level":4,"mergeName":"黑龙江省,齐齐哈尔市,讷河市,通南镇","lng":125.01938618837144,"lat":48.150775333606134,"info":"直接查询获得"},{"name":"同义镇","code":"230281109","level":4,"mergeName":"黑龙江省,齐齐哈尔市,讷河市,同义镇","lng":124.80551545662134,"lat":48.19278758556927,"info":"直接查询获得"},{"name":"九井镇","code":"230281110","level":4,"mergeName":"黑龙江省,齐齐哈尔市,讷河市,九井镇","lng":125.36640609840565,"lat":48.46230344533322,"info":"直接查询获得"},{"name":"老莱镇","code":"230281111","level":4,"mergeName":"黑龙江省,齐齐哈尔市,讷河市,老莱镇","lng":125.0178524215437,"lat":48.66314949940792,"info":"直接查询获得"},{"name":"孔国乡","code":"230281201","level":4,"mergeName":"黑龙江省,齐齐哈尔市,讷河市,孔国乡","lng":125.19289506542195,"lat":48.53232672037598,"info":"直接查询获得"},{"name":"和盛乡","code":"230281207","level":4,"mergeName":"黑龙江省,齐齐哈尔市,讷河市,和盛乡","lng":124.8593810888998,"lat":48.06853392175309,"info":"直接查询获得"},{"name":"同心乡","code":"230281208","level":4,"mergeName":"黑龙江省,齐齐哈尔市,讷河市,同心乡","lng":124.98057903101795,"lat":48.213507454013,"info":"直接查询获得"},{"name":"兴旺鄂温克族乡","code":"230281210","level":4,"mergeName":"黑龙江省,齐齐哈尔市,讷河市,兴旺鄂温克族乡","lng":124.89054905619638,"lat":48.49008659326358,"info":"直接查询获得"},{"name":"龙河镇保安林场","code":"230281400","level":4,"mergeName":"黑龙江省,齐齐哈尔市,讷河市,龙河镇保安林场","lng":125.60074373306469,"lat":48.56972893317502,"info":"直接查询获得"},{"name":"龙河镇茂山林场","code":"230281401","level":4,"mergeName":"黑龙江省,齐齐哈尔市,讷河市,龙河镇茂山林场","lng":125.84080474161948,"lat":48.701895162692246,"info":"直接查询获得"},{"name":"龙河镇国庆林场","code":"230281402","level":4,"mergeName":"黑龙江省,齐齐哈尔市,讷河市,龙河镇国庆林场","lng":125.59245955965162,"lat":48.847425835183486,"info":"直接查询获得"},{"name":"学田镇富源林场","code":"230281403","level":4,"mergeName":"黑龙江省,齐齐哈尔市,讷河市,学田镇富源林场","lng":124.81740021817951,"lat":48.69338613200088,"info":"直接查询获得"},{"name":"老莱镇宽余林场","code":"230281404","level":4,"mergeName":"黑龙江省,齐齐哈尔市,讷河市,老莱镇宽余林场","lng":125.0178524215437,"lat":48.66314949940792,"info":"直接查询获得"},{"name":"新江林场","code":"230281405","level":4,"mergeName":"黑龙江省,齐齐哈尔市,讷河市,新江林场","lng":124.89054905619638,"lat":48.49008659326358,"info":"直接查询获得"},{"name":"一良苗圃","code":"230281406","level":4,"mergeName":"黑龙江省,齐齐哈尔市,讷河市,一良苗圃","lng":124.89054905619638,"lat":48.49008659326358,"info":"直接查询获得"},{"name":"黑龙江省老莱农场","code":"230281480","level":4,"mergeName":"黑龙江省,齐齐哈尔市,讷河市,黑龙江省老莱农场","lng":124.89054905619638,"lat":48.49008659326358,"info":"直接查询获得"},{"name":"六合镇黎明奶牛场","code":"230281581","level":4,"mergeName":"黑龙江省,齐齐哈尔市,讷河市,六合镇黎明奶牛场","lng":124.63517130988251,"lat":48.30494404773893,"info":"直接查询获得"},{"name":"孔国乡进化种猪场","code":"230281582","level":4,"mergeName":"黑龙江省,齐齐哈尔市,讷河市,孔国乡进化种猪场","lng":124.98261530994799,"lat":48.48782304741558,"info":"直接查询获得"},{"name":"二克浅镇二里种畜场","code":"230281583","level":4,"mergeName":"黑龙江省,齐齐哈尔市,讷河市,二克浅镇二里种畜场","lng":124.57823877276243,"lat":48.40670121582998,"info":"直接查询获得"},{"name":"龙河镇青色草原种畜场","code":"230281584","level":4,"mergeName":"黑龙江省,齐齐哈尔市,讷河市,龙河镇青色草原种畜场","lng":125.75313434588097,"lat":48.64562987352086,"info":"直接查询获得"},{"name":"第一良种场","code":"230281585","level":4,"mergeName":"黑龙江省,齐齐哈尔市,讷河市,第一良种场","lng":124.82885100834584,"lat":48.48540150334879,"info":"直接查询获得"},{"name":"第二良种场","code":"230281586","level":4,"mergeName":"黑龙江省,齐齐哈尔市,讷河市,第二良种场","lng":125.18218574919985,"lat":48.34760352943485,"info":"直接查询获得"},{"name":"第三良种场","code":"230281587","level":4,"mergeName":"黑龙江省,齐齐哈尔市,讷河市,第三良种场","lng":125.08571580960091,"lat":48.24178339086459,"info":"直接查询获得"},{"name":"第四良种场","code":"230281588","level":4,"mergeName":"黑龙江省,齐齐哈尔市,讷河市,第四良种场","lng":124.75452107824444,"lat":48.602076654875496,"info":"直接查询获得"},{"name":"鸡西市","code":"2303","level":2,"mergeName":"黑龙江省,鸡西市","lng":130.97561865876668,"lat":45.300872317823895,"info":"直接查询获得"},{"name":"鸡冠区","code":"230302","level":3,"mergeName":"黑龙江省,鸡西市,鸡冠区","lng":130.98763160852113,"lat":45.309806344311816,"info":"直接查询获得"},{"name":"向阳街道","code":"230302001","level":4,"mergeName":"黑龙江省,鸡西市,鸡冠区,向阳街道","lng":130.9814871090023,"lat":45.30139592269902,"info":"直接查询获得"},{"name":"南山街道","code":"230302002","level":4,"mergeName":"黑龙江省,鸡西市,鸡冠区,南山街道","lng":130.97591348263506,"lat":45.300762765298145,"info":"直接查询获得"},{"name":"立新街道","code":"230302003","level":4,"mergeName":"黑龙江省,鸡西市,鸡冠区,立新街道","lng":130.93463625462076,"lat":45.24374621326524,"info":"直接查询获得"},{"name":"东风街道","code":"230302004","level":4,"mergeName":"黑龙江省,鸡西市,鸡冠区,东风街道","lng":131.00509942865443,"lat":45.30210419848157,"info":"直接查询获得"},{"name":"红军路街道","code":"230302005","level":4,"mergeName":"黑龙江省,鸡西市,鸡冠区,红军路街道","lng":130.98747171014037,"lat":45.30972622140189,"info":"直接查询获得"},{"name":"西鸡西街道","code":"230302006","level":4,"mergeName":"黑龙江省,鸡西市,鸡冠区,西鸡西街道","lng":130.94852321249962,"lat":45.31991000680365,"info":"直接查询获得"},{"name":"西山街道","code":"230302007","level":4,"mergeName":"黑龙江省,鸡西市,鸡冠区,西山街道","lng":130.9724988437305,"lat":45.30764507761724,"info":"直接查询获得"},{"name":"红星乡","code":"230302200","level":4,"mergeName":"黑龙江省,鸡西市,鸡冠区,红星乡","lng":131.04236185985295,"lat":45.279500216984765,"info":"直接查询获得"},{"name":"西郊乡","code":"230302201","level":4,"mergeName":"黑龙江省,鸡西市,鸡冠区,西郊乡","lng":130.95696938722665,"lat":45.32198534851589,"info":"直接查询获得"},{"name":"恒山区","code":"230303","level":3,"mergeName":"黑龙江省,鸡西市,恒山区","lng":130.91138523344475,"lat":45.21697188315374,"info":"直接查询获得"},{"name":"桦木林街道","code":"230303001","level":4,"mergeName":"黑龙江省,鸡西市,恒山区,桦木林街道","lng":130.90788900324733,"lat":45.200948366660285,"info":"直接查询获得"},{"name":"大恒山街道","code":"230303002","level":4,"mergeName":"黑龙江省,鸡西市,恒山区,大恒山街道","lng":130.90210762935803,"lat":45.20822677401526,"info":"直接查询获得"},{"name":"小恒山街道","code":"230303003","level":4,"mergeName":"黑龙江省,鸡西市,恒山区,小恒山街道","lng":130.95554687553633,"lat":45.214433072207235,"info":"直接查询获得"},{"name":"二道河子街道","code":"230303004","level":4,"mergeName":"黑龙江省,鸡西市,恒山区,二道河子街道","lng":130.99760466276757,"lat":45.22840946662278,"info":"直接查询获得"},{"name":"张新街道","code":"230303005","level":4,"mergeName":"黑龙江省,鸡西市,恒山区,张新街道","lng":131.05037914669902,"lat":45.22143880382134,"info":"直接查询获得"},{"name":"奋斗街道","code":"230303006","level":4,"mergeName":"黑龙江省,鸡西市,恒山区,奋斗街道","lng":130.91603504242553,"lat":45.2181936613086,"info":"直接查询获得"},{"name":"柳毛街道","code":"230303007","level":4,"mergeName":"黑龙江省,鸡西市,恒山区,柳毛街道","lng":130.80151438482417,"lat":45.26721686862669,"info":"直接查询获得"},{"name":"红旗乡","code":"230303200","level":4,"mergeName":"黑龙江省,鸡西市,恒山区,红旗乡","lng":130.95016105880035,"lat":45.13552745357783,"info":"直接查询获得"},{"name":"柳毛乡","code":"230303201","level":4,"mergeName":"黑龙江省,鸡西市,恒山区,柳毛乡","lng":130.80151438482417,"lat":45.26721686862669,"info":"直接查询获得"},{"name":"滴道区","code":"230304","level":3,"mergeName":"黑龙江省,鸡西市,滴道区","lng":130.85058046059333,"lat":45.35443361721627,"info":"直接查询获得"},{"name":"东兴街道","code":"230304001","level":4,"mergeName":"黑龙江省,鸡西市,滴道区,东兴街道","lng":130.8542100640064,"lat":45.35691527468739,"info":"直接查询获得"},{"name":"矿里街道","code":"230304002","level":4,"mergeName":"黑龙江省,鸡西市,滴道区,矿里街道","lng":130.81570236667602,"lat":45.35974999023653,"info":"直接查询获得"},{"name":"洗煤街道","code":"230304003","level":4,"mergeName":"黑龙江省,鸡西市,滴道区,洗煤街道","lng":130.78904889210972,"lat":45.36957241016358,"info":"直接查询获得"},{"name":"大通沟街道","code":"230304004","level":4,"mergeName":"黑龙江省,鸡西市,滴道区,大通沟街道","lng":130.6969545321753,"lat":45.40650400032311,"info":"直接查询获得"},{"name":"滴道河乡","code":"230304200","level":4,"mergeName":"黑龙江省,鸡西市,滴道区,滴道河乡","lng":130.85968541575087,"lat":45.357540263692925,"info":"直接查询获得"},{"name":"兰岭乡","code":"230304201","level":4,"mergeName":"黑龙江省,鸡西市,滴道区,兰岭乡","lng":130.71354134995934,"lat":45.30380112052158,"info":"直接查询获得"},{"name":"梨树区","code":"230305","level":3,"mergeName":"黑龙江省,鸡西市,梨树区","lng":130.7033960671907,"lat":45.09824178098074,"info":"直接查询获得"},{"name":"街里街道","code":"230305001","level":4,"mergeName":"黑龙江省,鸡西市,梨树区,街里街道","lng":130.70820689473922,"lat":45.099406477782125,"info":"直接查询获得"},{"name":"穆棱街道","code":"230305002","level":4,"mergeName":"黑龙江省,鸡西市,梨树区,穆棱街道","lng":130.70282592615808,"lat":45.017270498070175,"info":"直接查询获得"},{"name":"平岗街道","code":"230305003","level":4,"mergeName":"黑龙江省,鸡西市,梨树区,平岗街道","lng":130.76387816870295,"lat":45.15959807187694,"info":"直接查询获得"},{"name":"碱场街道","code":"230305004","level":4,"mergeName":"黑龙江省,鸡西市,梨树区,碱场街道","lng":130.63423887216507,"lat":45.11693998322412,"info":"直接查询获得"},{"name":"石磷街道","code":"230305005","level":4,"mergeName":"黑龙江省,鸡西市,梨树区,石磷街道","lng":130.71633039004234,"lat":45.17399124087436,"info":"直接查询获得"},{"name":"梨树镇","code":"230305101","level":4,"mergeName":"黑龙江省,鸡西市,梨树区,梨树镇","lng":130.7033960671907,"lat":45.09824178098074,"info":"直接查询获得"},{"name":"城子河区","code":"230306","level":3,"mergeName":"黑龙江省,鸡西市,城子河区","lng":131.01846864006785,"lat":45.3444351939177,"info":"直接查询获得"},{"name":"城子河街道","code":"230306001","level":4,"mergeName":"黑龙江省,鸡西市,城子河区,城子河街道","lng":131.01813797380962,"lat":45.34443297669095,"info":"直接查询获得"},{"name":"正阳街道","code":"230306002","level":4,"mergeName":"黑龙江省,鸡西市,城子河区,正阳街道","lng":131.09289001767016,"lat":45.359852941250715,"info":"直接查询获得"},{"name":"东海街道","code":"230306003","level":4,"mergeName":"黑龙江省,鸡西市,城子河区,东海街道","lng":131.24655498824222,"lat":45.378523649471255,"info":"直接查询获得"},{"name":"城西街道","code":"230306004","level":4,"mergeName":"黑龙江省,鸡西市,城子河区,城西街道","lng":131.0055899582595,"lat":45.34107651622426,"info":"直接查询获得"},{"name":"杏花街道","code":"230306005","level":4,"mergeName":"黑龙江省,鸡西市,城子河区,杏花街道","lng":131.12775864254908,"lat":45.33275421615053,"info":"直接查询获得"},{"name":"长青乡","code":"230306200","level":4,"mergeName":"黑龙江省,鸡西市,城子河区,长青乡","lng":131.03872444118193,"lat":45.34518632195696,"info":"直接查询获得"},{"name":"永丰乡","code":"230306201","level":4,"mergeName":"黑龙江省,鸡西市,城子河区,永丰乡","lng":131.01846864006785,"lat":45.3444351939177,"info":"直接查询获得"},{"name":"麻山区","code":"230307","level":3,"mergeName":"黑龙江省,鸡西市,麻山区","lng":130.48453641612977,"lat":45.217934996767426,"info":"直接查询获得"},{"name":"麻山街道","code":"230307001","level":4,"mergeName":"黑龙江省,鸡西市,麻山区,麻山街道","lng":130.4879014685702,"lat":45.214904965202486,"info":"直接查询获得"},{"name":"麻山镇","code":"230307101","level":4,"mergeName":"黑龙江省,鸡西市,麻山区,麻山镇","lng":130.48453641612977,"lat":45.217934996767426,"info":"直接查询获得"},{"name":"鸡东县","code":"230321","level":3,"mergeName":"黑龙江省,鸡西市,鸡东县","lng":131.1305584829592,"lat":45.26618456082589,"info":"直接查询获得"},{"name":"鸡东镇","code":"230321100","level":4,"mergeName":"黑龙江省,鸡西市,鸡东县,鸡东镇","lng":131.14744950112453,"lat":45.261431565050295,"info":"直接查询获得"},{"name":"平阳镇","code":"230321101","level":4,"mergeName":"黑龙江省,鸡西市,鸡东县,平阳镇","lng":131.26277998114313,"lat":45.19739983124027,"info":"直接查询获得"},{"name":"向阳镇","code":"230321102","level":4,"mergeName":"黑龙江省,鸡西市,鸡东县,向阳镇","lng":131.5222389988805,"lat":45.23869442240374,"info":"直接查询获得"},{"name":"哈达镇","code":"230321103","level":4,"mergeName":"黑龙江省,鸡西市,鸡东县,哈达镇","lng":131.1460596967378,"lat":45.38910779872839,"info":"直接查询获得"},{"name":"永安镇","code":"230321104","level":4,"mergeName":"黑龙江省,鸡西市,鸡东县,永安镇","lng":131.47732228609252,"lat":45.351390647311575,"info":"直接查询获得"},{"name":"永和镇","code":"230321105","level":4,"mergeName":"黑龙江省,鸡西市,鸡东县,永和镇","lng":131.13401318628948,"lat":45.12889329473344,"info":"直接查询获得"},{"name":"东海镇","code":"230321106","level":4,"mergeName":"黑龙江省,鸡西市,鸡东县,东海镇","lng":131.32508573267117,"lat":45.297404065472605,"info":"直接查询获得"},{"name":"兴农镇","code":"230321107","level":4,"mergeName":"黑龙江省,鸡西市,鸡东县,兴农镇","lng":130.956677617597,"lat":45.50623182331469,"info":"直接查询获得"},{"name":"鸡林乡","code":"230321200","level":4,"mergeName":"黑龙江省,鸡西市,鸡东县,鸡林乡","lng":131.1305584829592,"lat":45.26618456082589,"info":"直接查询获得"},{"name":"明德乡","code":"230321205","level":4,"mergeName":"黑龙江省,鸡西市,鸡东县,明德乡","lng":131.51144217512547,"lat":45.280973881646354,"info":"直接查询获得"},{"name":"下亮子乡","code":"230321206","level":4,"mergeName":"黑龙江省,鸡西市,鸡东县,下亮子乡","lng":131.40048190290443,"lat":45.189313631702305,"info":"直接查询获得"},{"name":"林业局","code":"230321400","level":4,"mergeName":"黑龙江省,鸡西市,鸡东县,林业局","lng":131.19676473989298,"lat":45.00377606933611,"info":"直接查询获得"},{"name":"八五一０农场","code":"230321500","level":4,"mergeName":"黑龙江省,鸡西市,鸡东县,八五一０农场","lng":131.30178009452015,"lat":45.30609844846123,"info":"直接查询获得"},{"name":"虎林市","code":"230381","level":3,"mergeName":"黑龙江省,鸡西市,虎林市","lng":132.94346566318296,"lat":45.76894691288418,"info":"直接查询获得"},{"name":"虎林镇","code":"230381100","level":4,"mergeName":"黑龙江省,鸡西市,虎林市,虎林镇","lng":132.9433832885677,"lat":45.76936266666959,"info":"直接查询获得"},{"name":"东方红镇","code":"230381101","level":4,"mergeName":"黑龙江省,鸡西市,虎林市,东方红镇","lng":133.10182946865734,"lat":46.21168388249896,"info":"直接查询获得"},{"name":"迎春镇","code":"230381102","level":4,"mergeName":"黑龙江省,鸡西市,虎林市,迎春镇","lng":132.9536216357872,"lat":46.0568965113179,"info":"直接查询获得"},{"name":"虎头镇","code":"230381103","level":4,"mergeName":"黑龙江省,鸡西市,虎林市,虎头镇","lng":133.67779250910203,"lat":45.98947591001561,"info":"直接查询获得"},{"name":"杨岗镇","code":"230381104","level":4,"mergeName":"黑龙江省,鸡西市,虎林市,杨岗镇","lng":132.29442304407624,"lat":45.71972995740193,"info":"直接查询获得"},{"name":"东诚镇","code":"230381105","level":4,"mergeName":"黑龙江省,鸡西市,虎林市,东诚镇","lng":133.14046432562418,"lat":45.791824159489146,"info":"直接查询获得"},{"name":"宝东镇","code":"230381106","level":4,"mergeName":"黑龙江省,鸡西市,虎林市,宝东镇","lng":132.81849375995625,"lat":45.75031255959716,"info":"直接查询获得"},{"name":"新乐乡","code":"230381203","level":4,"mergeName":"黑龙江省,鸡西市,虎林市,新乐乡","lng":132.94032563627283,"lat":45.849288742555814,"info":"直接查询获得"},{"name":"伟光乡","code":"230381204","level":4,"mergeName":"黑龙江省,鸡西市,虎林市,伟光乡","lng":133.08645885951682,"lat":45.91852512292436,"info":"直接查询获得"},{"name":"珍宝岛乡","code":"230381206","level":4,"mergeName":"黑龙江省,鸡西市,虎林市,珍宝岛乡","lng":133.62148029325863,"lat":46.19291654993313,"info":"直接查询获得"},{"name":"阿北乡","code":"230381207","level":4,"mergeName":"黑龙江省,鸡西市,虎林市,阿北乡","lng":133.35617796975518,"lat":46.21145003568683,"info":"直接查询获得"},{"name":"东方红林业局","code":"230381400","level":4,"mergeName":"黑龙江省,鸡西市,虎林市,东方红林业局","lng":133.09520895704875,"lat":46.217898162030906,"info":"直接查询获得"},{"name":"迎春林业局","code":"230381401","level":4,"mergeName":"黑龙江省,鸡西市,虎林市,迎春林业局","lng":132.9536216357872,"lat":46.0568965113179,"info":"直接查询获得"},{"name":"八五０农场","code":"230381500","level":4,"mergeName":"黑龙江省,鸡西市,虎林市,八五０农场","lng":132.4883999918328,"lat":45.74438392888921,"info":"直接查询获得"},{"name":"八五四农场","code":"230381501","level":4,"mergeName":"黑龙江省,鸡西市,虎林市,八五四农场","lng":132.9536216357872,"lat":46.0568965113179,"info":"直接查询获得"},{"name":"八五六农场","code":"230381502","level":4,"mergeName":"黑龙江省,鸡西市,虎林市,八五六农场","lng":132.71061490380407,"lat":45.63216473715232,"info":"直接查询获得"},{"name":"八五八农场","code":"230381503","level":4,"mergeName":"黑龙江省,鸡西市,虎林市,八五八农场","lng":133.34000700004933,"lat":45.72707989127163,"info":"直接查询获得"},{"name":"庆丰农场","code":"230381504","level":4,"mergeName":"黑龙江省,鸡西市,虎林市,庆丰农场","lng":133.0769601501051,"lat":45.79338124833277,"info":"直接查询获得"},{"name":"云山农场","code":"230381505","level":4,"mergeName":"黑龙江省,鸡西市,虎林市,云山农场","lng":132.5071869736075,"lat":45.925873827189115,"info":"直接查询获得"},{"name":"密山市","code":"230382","level":3,"mergeName":"黑龙江省,鸡西市,密山市","lng":131.85353110655427,"lat":45.53564080974782,"info":"直接查询获得"},{"name":"中心街道","code":"230382001","level":4,"mergeName":"黑龙江省,鸡西市,密山市,中心街道","lng":132.0426247245246,"lat":45.35356185845329,"info":"直接查询获得"},{"name":"密山镇","code":"230382100","level":4,"mergeName":"黑龙江省,鸡西市,密山市,密山镇","lng":131.87879370325876,"lat":45.54837788471476,"info":"直接查询获得"},{"name":"连珠山镇","code":"230382101","level":4,"mergeName":"黑龙江省,鸡西市,密山市,连珠山镇","lng":131.80595208572632,"lat":45.51829052114623,"info":"直接查询获得"},{"name":"当壁镇","code":"230382102","level":4,"mergeName":"黑龙江省,鸡西市,密山市,当壁镇","lng":132.00849096295966,"lat":45.279925336029095,"info":"直接查询获得"},{"name":"知一镇","code":"230382103","level":4,"mergeName":"黑龙江省,鸡西市,密山市,知一镇","lng":132.0088963682363,"lat":45.5335149350938,"info":"直接查询获得"},{"name":"黑台镇","code":"230382104","level":4,"mergeName":"黑龙江省,鸡西市,密山市,黑台镇","lng":131.63109880464958,"lat":45.42163689532387,"info":"直接查询获得"},{"name":"兴凯镇","code":"230382105","level":4,"mergeName":"黑龙江省,鸡西市,密山市,兴凯镇","lng":132.07856894359062,"lat":45.712421844962925,"info":"直接查询获得"},{"name":"裴德镇","code":"230382106","level":4,"mergeName":"黑龙江省,鸡西市,密山市,裴德镇","lng":131.41220471614864,"lat":45.59436140001599,"info":"直接查询获得"},{"name":"白鱼湾镇","code":"230382107","level":4,"mergeName":"黑龙江省,鸡西市,密山市,白鱼湾镇","lng":132.1642175833043,"lat":45.38864663229258,"info":"直接查询获得"},{"name":"柳毛乡","code":"230382200","level":4,"mergeName":"黑龙江省,鸡西市,密山市,柳毛乡","lng":132.1968751172043,"lat":45.55738907005573,"info":"直接查询获得"},{"name":"杨木乡","code":"230382201","level":4,"mergeName":"黑龙江省,鸡西市,密山市,杨木乡","lng":132.43889653111083,"lat":45.6119012861271,"info":"直接查询获得"},{"name":"兴凯湖乡","code":"230382202","level":4,"mergeName":"黑龙江省,鸡西市,密山市,兴凯湖乡","lng":132.26628389346766,"lat":45.4617220066935,"info":"直接查询获得"},{"name":"承紫河乡","code":"230382203","level":4,"mergeName":"黑龙江省,鸡西市,密山市,承紫河乡","lng":132.37053988349808,"lat":45.44794025298385,"info":"直接查询获得"},{"name":"二人班乡","code":"230382206","level":4,"mergeName":"黑龙江省,鸡西市,密山市,二人班乡","lng":131.71441888646436,"lat":45.301427938579586,"info":"直接查询获得"},{"name":"太平乡","code":"230382208","level":4,"mergeName":"黑龙江省,鸡西市,密山市,太平乡","lng":131.5623898416158,"lat":45.39509866055086,"info":"直接查询获得"},{"name":"和平乡","code":"230382210","level":4,"mergeName":"黑龙江省,鸡西市,密山市,和平乡","lng":131.85353110655427,"lat":45.53564080974782,"info":"直接查询获得"},{"name":"富源乡","code":"230382212","level":4,"mergeName":"黑龙江省,鸡西市,密山市,富源乡","lng":131.67767762337692,"lat":45.78522710575396,"info":"直接查询获得"},{"name":"林业局","code":"230382400","level":4,"mergeName":"黑龙江省,鸡西市,密山市,林业局","lng":131.8839977667392,"lat":45.5468338416818,"info":"直接查询获得"},{"name":"青年水库","code":"230382480","level":4,"mergeName":"黑龙江省,鸡西市,密山市,青年水库","lng":131.80472014954995,"lat":45.68903737809953,"info":"直接查询获得"},{"name":"煤炭工业局","code":"230382481","level":4,"mergeName":"黑龙江省,鸡西市,密山市,煤炭工业局","lng":131.8811548094612,"lat":45.550009050179035,"info":"直接查询获得"},{"name":"经济开发区管理委员会","code":"230382482","level":4,"mergeName":"黑龙江省,鸡西市,密山市,经济开发区管理委员会","lng":131.80615150954955,"lat":45.51563701354102,"info":"直接查询获得"},{"name":"牡丹江管理局局直","code":"230382501","level":4,"mergeName":"黑龙江省,鸡西市,密山市,牡丹江管理局局直","lng":131.8741666214074,"lat":45.55220467021139,"info":"直接查询获得"},{"name":"八五五农场","code":"230382502","level":4,"mergeName":"黑龙江省,鸡西市,密山市,八五五农场","lng":131.6067569710928,"lat":45.73916490871682,"info":"直接查询获得"},{"name":"八五七农场","code":"230382503","level":4,"mergeName":"黑龙江省,鸡西市,密山市,八五七农场","lng":131.85353110655427,"lat":45.53564080974782,"info":"直接查询获得"},{"name":"八五一一农场","code":"230382504","level":4,"mergeName":"黑龙江省,鸡西市,密山市,八五一一农场","lng":131.85353110655427,"lat":45.53564080974782,"info":"直接查询获得"},{"name":"兴凯湖农场","code":"230382505","level":4,"mergeName":"黑龙江省,鸡西市,密山市,兴凯湖农场","lng":132.80607001509208,"lat":45.27651725362607,"info":"直接查询获得"},{"name":"牡丹江管理局北大营管委会","code":"230382506","level":4,"mergeName":"黑龙江省,鸡西市,密山市,牡丹江管理局北大营管委会","lng":131.86836329832124,"lat":45.5564326381322,"info":"直接查询获得"},{"name":"牡丹江管理局双峰农场","code":"230382507","level":4,"mergeName":"黑龙江省,鸡西市,密山市,牡丹江管理局双峰农场","lng":131.88975473726103,"lat":45.65745944606826,"info":"直接查询获得"},{"name":"水产养殖有限公司","code":"230382580","level":4,"mergeName":"黑龙江省,鸡西市,密山市,水产养殖有限公司","lng":132.3446229610601,"lat":45.37529887746865,"info":"直接查询获得"},{"name":"种畜场","code":"230382581","level":4,"mergeName":"黑龙江省,鸡西市,密山市,种畜场","lng":131.85353110655427,"lat":45.53564080974782,"info":"直接查询获得"},{"name":"水田良种场","code":"230382582","level":4,"mergeName":"黑龙江省,鸡西市,密山市,水田良种场","lng":131.9294323526537,"lat":45.6304900902835,"info":"直接查询获得"},{"name":"市良种场","code":"230382583","level":4,"mergeName":"黑龙江省,鸡西市,密山市,市良种场","lng":131.9294323526537,"lat":45.6304900902835,"info":"直接查询获得"},{"name":"校办企业公司","code":"230382584","level":4,"mergeName":"黑龙江省,鸡西市,密山市,校办企业公司","lng":131.85353110655427,"lat":45.53564080974782,"info":"直接查询获得"},{"name":"蜂蜜山粮库有限公司","code":"230382585","level":4,"mergeName":"黑龙江省,鸡西市,密山市,蜂蜜山粮库有限公司","lng":132.10349072318465,"lat":45.43575045824255,"info":"直接查询获得"},{"name":"鹤岗市","code":"2304","level":2,"mergeName":"黑龙江省,鹤岗市","lng":130.3044328986694,"lat":47.35605615768509,"info":"直接查询获得"},{"name":"向阳区","code":"230402","level":3,"mergeName":"黑龙江省,鹤岗市,向阳区","lng":130.30046804763998,"lat":47.34858088906713,"info":"直接查询获得"},{"name":"北山街道","code":"230402001","level":4,"mergeName":"黑龙江省,鹤岗市,向阳区,北山街道","lng":130.29678902305096,"lat":47.365269061824826,"info":"直接查询获得"},{"name":"红军街道","code":"230402002","level":4,"mergeName":"黑龙江省,鹤岗市,向阳区,红军街道","lng":130.30628601310596,"lat":47.355139739707056,"info":"直接查询获得"},{"name":"光明街道","code":"230402003","level":4,"mergeName":"黑龙江省,鹤岗市,向阳区,光明街道","lng":130.3005580542589,"lat":47.348100784260126,"info":"直接查询获得"},