[{"name":"黑龙江省","code":"23","level":1,"mergeName":"黑龙江省,黑龙江省","lng":126.669655694996,"lat":45.74793002611443,"info":"直接检索POI第一个结果成功!","tag":""},{"name":"哈尔滨市","code":"2301","level":2,"mergeName":"黑龙江省,哈尔滨市","lng":126.54161122760294,"lat":45.80882438299695,"info":"直接检索POI第一个结果成功!","tag":""},{"name":"道里区","code":"230102","level":3,"mergeName":"黑龙江省,哈尔滨市,道里区","lng":126.62342889345224,"lat":45.761843409898226,"info":"直接检索POI第一个结果成功!","tag":""},{"name":"兆麟街道","code":"230102001","level":4,"mergeName":"黑龙江省,哈尔滨市,道里区,兆麟街道","lng":126.63431644606379,"lat":45.77264659071546,"info":"直接检索POI第一个结果成功!","tag":["行政地标","乡镇"]},{"name":"新阳路街道","code":"230102002","level":4,"mergeName":"黑龙江省,哈尔滨市,道里区,新阳路街道","lng":126.62700837141787,"lat":45.7674337514948,"info":"直接检索POI第一个结果成功!","tag":""},{"name":"抚顺街道","code":"230102003","level":4,"mergeName":"黑龙江省,哈尔滨市,道里区,抚顺街道","lng":126.62168150957423,"lat":45.76410003597651,"info":"直接检索POI第一个结果成功!","tag":""},{"name":"共乐街道","code":"230102004","level":4,"mergeName":"黑龙江省,哈尔滨市,道里区,共乐街道","lng":126.6169430378396,"lat":45.75711092452513,"info":"直接检索POI第一个结果成功!","tag":["政府机构"]},{"name":"新华街道","code":"230102005","level":4,"mergeName":"黑龙江省,哈尔滨市,道里区,新华街道","lng":126.59611537543788,"lat":45.74117972394559,"info":"直接检索POI第一个结果成功!","tag":["行政地标","乡镇"]},{"name":"城乡路街道","code":"230102006","level":4,"mergeName":"黑龙江省,哈尔滨市,道里区,城乡路街道","lng":126.58815971234982,"lat":45.73567096724791,"info":"直接检索POI第一个结果成功!","tag":["行政地标","乡镇"]},{"name":"工农街道","code":"230102007","level":4,"mergeName":"黑龙江省,哈尔滨市,道里区,工农街道","lng":126.56502753699279,"lat":45.72519291888767,"info":"直接检索POI第一个结果成功!","tag":["行政地标","乡镇"]},{"name":"尚志街道","code":"230102008","level":4,"mergeName":"黑龙江省,哈尔滨市,道里区,尚志街道","lng":126.62964364046196,"lat":45.773435857714155,"info":"直接检索POI第一个结果成功!","tag":["行政地标","乡镇"]},{"name":"斯大林街道","code":"230102009","level":4,"mergeName":"黑龙江省,哈尔滨市,道里区,斯大林街道","lng":126.63452700887532,"lat":45.78507810976366,"info":"直接检索POI第一个结果成功!","tag":""},{"name":"通江街道","code":"230102010","level":4,"mergeName":"黑龙江省,哈尔滨市,道里区,通江街道","lng":126.62186979440911,"lat":45.78174256451202,"info":"直接检索POI第一个结果成功!","tag":["行政地标","乡镇"]},{"name":"经纬街道","code":"230102011","level":4,"mergeName":"黑龙江省,哈尔滨市,道里区,经纬街道","lng":126.63709768975325,"lat":45.77055703770529,"info":"直接检索POI第一个结果成功!","tag":["道路","县道"]},{"name":"工程街道","code":"230102012","level":4,"mergeName":"黑龙江省,哈尔滨市,道里区,工程街道","lng":126.61592759329112,"lat":45.77766520686279,"info":"直接检索POI第一个结果成功!","tag":["行政地标","乡镇"]},{"name":"安静街道","code":"230102013","level":4,"mergeName":"黑龙江省,哈尔滨市,道里区,安静街道","lng":126.62135811959062,"lat":45.769027197050384,"info":"直接检索POI第一个结果成功!","tag":["教育","初等教育(小学)"]},{"name":"安和街道","code":"230102014","level":4,"mergeName":"黑龙江省,哈尔滨市,道里区,安和街道","lng":126.61791482474031,"lat":45.761758336630336,"info":"直接检索POI第一个结果成功!","tag":""},{"name":"正阳河街道","code":"230102015","level":4,"mergeName":"黑龙江省,哈尔滨市,道里区,正阳河街道","lng":126.60123383040322,"lat":45.76627087510976,"info":"直接检索POI第一个结果成功!","tag":["行政地标","乡镇"]},{"name":"建国街道","code":"230102016","level":4,"mergeName":"黑龙江省,哈尔滨市,道里区,建国街道","lng":126.60379238415676,"lat":45.75170179420495,"info":"直接检索POI第一个结果成功!","tag":["行政地标","乡镇"]},{"name":"康安街道","code":"230102017","level":4,"mergeName":"黑龙江省,哈尔滨市,道里区,康安街道","lng":126.5915678834547,"lat":45.74523517391761,"info":"直接检索POI第一个结果成功!","tag":["行政地标","乡镇"]},{"name":"爱建街道","code":"230102018","level":4,"mergeName":"黑龙江省,哈尔滨市,道里区,爱建街道","lng":126.60600778520548,"lat":45.768894039693194,"info":"直接检索POI第一个结果成功!","tag":["行政地标","乡镇"]},{"name":"群力街道","code":"230102019","level":4,"mergeName":"黑龙江省,哈尔滨市,道里区,群力街道","lng":126.53664844898248,"lat":45.71450603756791,"info":"直接检索POI第一个结果成功!","tag":["行政地标","乡镇"]},{"name":"太平镇","code":"230102101","level":4,"mergeName":"黑龙江省,哈尔滨市,道里区,太平镇","lng":126.20517551240957,"lat":45.64014255202075,"info":"直接检索POI第一个结果成功!","tag":["行政地标","乡镇"]},{"name":"新发镇","code":"230102102","level":4,"mergeName":"黑龙江省,哈尔滨市,道里区,新发镇","lng":126.49383502871555,"lat":45.675126828158994,"info":"直接检索POI第一个结果成功!","tag":["行政地标","乡镇"]},{"name":"新农镇","code":"230102103","level":4,"mergeName":"黑龙江省,哈尔滨市,道里区,新农镇","lng":126.36006700776564,"lat":45.64635344260295,"info":"直接检索POI第一个结果成功!","tag":["行政地标","乡镇"]},{"name":"榆树镇","code":"230102104","level":4,"mergeName":"黑龙江省,哈尔滨市,道里区,榆树镇","lng":126.46823655558087,"lat":45.602047753792796,"info":"直接检索POI第一个结果成功!","tag":["行政地标","乡镇"]},{"name":"闫家岗农场","code":"230102500","level":4,"mergeName":"黑龙江省,哈尔滨市,道里区,闫家岗农场","lng":126.3219846032976,"lat":45.63749918303342,"info":"直接检索POI第一个结果成功!","tag":["公司企业","农林园艺"]},{"name":"道里区农垦","code":"230102579","level":4,"mergeName":"黑龙江省,哈尔滨市,道里区,道里区农垦","lng":126.56622003755729,"lat":45.68800696512899,"info":"直接检索POI第一个结果成功!","tag":["医疗","综合医院","三级医院"]},{"name":"南岗区","code":"230103","level":3,"mergeName":"黑龙江省,哈尔滨市,南岗区","lng":126.67563849952303,"lat":45.76586616375799,"info":"直接检索POI第一个结果成功!","tag":""},{"name":"花园街道","code":"230103001","level":4,"mergeName":"黑龙江省,哈尔滨市,南岗区,花园街道","lng":126.65265086152256,"lat":45.75671293767852,"info":"直接检索POI第一个结果成功!","tag":["行政地标","乡镇"]},{"name":"奋斗路街道","code":"230103002","level":4,"mergeName":"黑龙江省,哈尔滨市,南岗区,奋斗路街道","lng":126.66849553342985,"lat":45.755137500494364,"info":"直接检索POI第一个结果成功!","tag":["行政地标","乡镇"]},{"name":"革新街道","code":"230103003","level":4,"mergeName":"黑龙江省,哈尔滨市,南岗区,革新街道","lng":126.66111011467952,"lat":45.75186146905339,"info":"直接检索POI第一个结果成功!","tag":["行政地标","乡镇"]},{"name":"文化街道","code":"230103004","level":4,"mergeName":"黑龙江省,哈尔滨市,南岗区,文化街道","lng":126.65750943670385,"lat":45.74836788713305,"info":"直接检索POI第一个结果成功!","tag":["行政地标","乡镇"]},{"name":"大成街道","code":"230103005","level":4,"mergeName":"黑龙江省,哈尔滨市,南岗区,大成街道","lng":126.67583720470185,"lat":45.76602070512011,"info":"直接检索POI第一个结果成功!","tag":["道路","乡道"]},{"name":"芦家街道","code":"230103006","level":4,"mergeName":"黑龙江省,哈尔滨市,南岗区,芦家街道","lng":126.67918716560968,"lat":45.757874882737504,"info":"直接检索POI第一个结果成功!","tag":""},{"name":"荣市街道","code":"230103007","level":4,"mergeName":"黑龙江省,哈尔滨市,南岗区,荣市街道","lng":126.65666898206872,"lat":45.7603028907343,"info":"检索POI失败,BMAP_STATUE_CODE:1 ,GetPoint结果: 直接查询获得"},{"name":"燎原街道","code":"230103009","level":4,"mergeName":"黑龙江省,哈尔滨市,南岗区,燎原街道","lng":126.66801529930422,"lat":45.776703008015,"info":"直接检索POI第一个结果成功!","tag":["行政地标","乡镇"]},{"name":"松花江街道","code":"230103010","level":4,"mergeName":"黑龙江省,哈尔滨市,南岗区,松花江街道","lng":126.6397203825202,"lat":45.762542351330104,"info":"直接检索POI第一个结果成功!","tag":""},{"name":"曲线街道","code":"230103011","level":4,"mergeName":"黑龙江省,哈尔滨市,南岗区,曲线街道","lng":126.63247824349872,"lat":45.747644301382174,"info":"直接检索POI第一个结果成功!","tag":["行政地标","乡镇"]},{"name":"通达街道","code":"230103012","level":4,"mergeName":"黑龙江省,哈尔滨市,南岗区,通达街道","lng":126.62971846931094,"lat":45.745296120396745,"info":"直接检索POI第一个结果成功!","tag":["行政地标","乡镇"]},{"name":"七政街道","code":"230103013","level":4,"mergeName":"黑龙江省,哈尔滨市,南岗区,七政街道","lng":126.62728019866519,"lat":45.74177929205627,"info":"直接检索POI第一个结果成功!","tag":["行政地标","乡镇"]},{"name":"和兴路街道","code":"230103015","level":4,"mergeName":"黑龙江省,哈尔滨市,南岗区,和兴路街道","lng":126.61990232568115,"lat":45.73331026353487,"info":"直接检索POI第一个结果成功!","tag":["行政地标","乡镇"]},{"name":"哈西街道","code":"230103016","level":4,"mergeName":"黑龙江省,哈尔滨市,南岗区,哈西街道","lng":126.5982048340541,"lat":45.71526089145673,"info":"直接检索POI第一个结果成功!","tag":""},{"name":"保健路街道","code":"230103017","level":4,"mergeName":"黑龙江省,哈尔滨市,南岗区,保健路街道","lng":126.64008922676261,"lat":45.705891291948,"info":"检索POI失败,BMAP_STATUE_CODE:1 ,GetPoint结果: 直接查询获得"},{"name":"先锋路街道","code":"230103018","level":4,"mergeName":"黑龙江省,哈尔滨市,南岗区,先锋路街道","lng":126.73798215954362,"lat":45.778457105286286,"info":"直接检索POI第一个结果成功!","tag":["道路"]},{"name":"新春街道","code":"230103019","level":4,"mergeName":"黑龙江省,哈尔滨市,南岗区,新春街道","lng":126.71757580242607,"lat":45.75516592453711,"info":"直接检索POI第一个结果成功!","tag":""},{"name":"跃进街道","code":"230103020","level":4,"mergeName":"黑龙江省,哈尔滨市,南岗区,跃进街道","lng":126.64095555259642,"lat":45.68519574069848,"info":"直接检索POI第一个结果成功!","tag":["行政地标","乡镇"]},{"name":"王岗镇","code":"230103101","level":4,"mergeName":"黑龙江省,哈尔滨市,南岗区,王岗镇","lng":126.59747900320204,"lat":45.69244183598772,"info":"直接检索POI第一个结果成功!","tag":["行政地标","乡镇"]},{"name":"红旗满族乡","code":"230103201","level":4,"mergeName":"黑龙江省,哈尔滨市,南岗区,红旗满族乡","lng":126.53414280542347,"lat":45.58642162317658,"info":"直接检索POI第一个结果成功!","tag":""},{"name":"红旗农场","code":"230103500","level":4,"mergeName":"黑龙江省,哈尔滨市,南岗区,红旗农场","lng":126.56765112806524,"lat":45.67879561208056,"info":"直接检索POI第一个结果成功!","tag":""},{"name":"南岗区农垦","code":"230103579","level":4,"mergeName":"黑龙江省,哈尔滨市,南岗区,南岗区农垦","lng":126.56622003755729,"lat":45.68800696512899,"info":"直接检索POI第一个结果成功!","tag":["医疗","综合医院","三级医院"]},{"name":"道外区","code":"230104","level":3,"mergeName":"黑龙江省,哈尔滨市,道外区","lng":126.65560404088663,"lat":45.7977762204344,"info":"直接检索POI第一个结果成功!","tag":""},{"name":"靖宇街道","code":"230104001","level":4,"mergeName":"黑龙江省,哈尔滨市,道外区,靖宇街道","lng":126.64467076452462,"lat":45.786819874794574,"info":"直接检索POI第一个结果成功!","tag":""},{"name":"太古街道","code":"230104002","level":4,"mergeName":"黑龙江省,哈尔滨市,道外区,太古街道","lng":126.65740720953681,"lat":45.79036061812065,"info":"直接检索POI第一个结果成功!","tag":["行政地标","乡镇"]},{"name":"东莱街道","code":"230104003","level":4,"mergeName":"黑龙江省,哈尔滨市,道外区,东莱街道","lng":126.65657987016213,"lat":45.784420620546356,"info":"直接检索POI第一个结果成功!","tag":["行政地标","乡镇"]},{"name":"滨江街道","code":"230104004","level":4,"mergeName":"黑龙江省,哈尔滨市,道外区,滨江街道","lng":126.65924999346001,"lat":45.782897888034924,"info":"直接检索POI第一个结果成功!","tag":["行政地标","乡镇"]},{"name":"仁里街道","code":"230104005","level":4,"mergeName":"黑龙江省,哈尔滨市,道外区,仁里街道","lng":126.66365600232535,"lat":45.79596002197626,"info":"直接检索POI第一个结果成功!","tag":["行政地标","乡镇"]},{"name":"南市街道","code":"230104006","level":4,"mergeName":"黑龙江省,哈尔滨市,道外区,南市街道","lng":126.66536493872755,"lat":45.7868523049306,"info":"直接检索POI第一个结果成功!","tag":""},{"name":"崇俭街道","code":"230104007","level":4,"mergeName":"黑龙江省,哈尔滨市,道外区,崇俭街道","lng":126.67171461122487,"lat":45.79401940183627,"info":"直接检索POI第一个结果成功!","tag":["行政地标","乡镇"]},{"name":"振江街道","code":"230104008","level":4,"mergeName":"黑龙江省,哈尔滨市,道外区,振江街道","lng":126.6770530612096,"lat":45.802329179276754,"info":"直接检索POI第一个结果成功!","tag":["行政地标","乡镇"]},{"name":"东原街道","code":"230104009","level":4,"mergeName":"黑龙江省,哈尔滨市,道外区,东原街道","lng":126.66457514852318,"lat":45.798046983041736,"info":"直接检索POI第一个结果成功!","tag":["行政地标","乡镇"]},{"name":"大兴街道","code":"230104010","level":4,"mergeName":"黑龙江省,哈尔滨市,道外区,大兴街道","lng":126.65234193425766,"lat":45.7951167195935,"info":"直接检索POI第一个结果成功!","tag":["行政地标","乡镇"]},{"name":"胜利街道","code":"230104011","level":4,"mergeName":"黑龙江省,哈尔滨市,道外区,胜利街道","lng":126.63618195711638,"lat":45.78574118485616,"info":"直接检索POI第一个结果成功!","tag":["行政地标","乡镇"]},{"name":"南马街道","code":"230104012","level":4,"mergeName":"黑龙江省,哈尔滨市,道外区,南马街道","lng":126.65132639987864,"lat":45.77397805971065,"info":"直接检索POI第一个结果成功!","tag":["行政地标","乡镇"]},{"name":"民强街道","code":"230104021","level":4,"mergeName":"黑龙江省,哈尔滨市,道外区,民强街道","lng":126.69857852733149,"lat":45.792648321058586,"info":"直接检索POI第一个结果成功!","tag":""},{"name":"大有坊街道","code":"230104022","level":4,"mergeName":"黑龙江省,哈尔滨市,道外区,大有坊街道","lng":126.6998518753919,"lat":45.779817726038125,"info":"直接检索POI第一个结果成功!","tag":["行政地标","乡镇"]},{"name":"南直路街道","code":"230104023","level":4,"mergeName":"黑龙江省,哈尔滨市,道外区,南直路街道","lng":126.71422880592642,"lat":45.74711674764481,"info":"直接检索POI第一个结果成功!","tag":["道路","省道"]},{"name":"化工街道","code":"230104024","level":4,"mergeName":"黑龙江省,哈尔滨市,道外区,化工街道","lng":126.73015198973529,"lat":45.779374016235145,"info":"直接检索POI第一个结果成功!","tag":["行政地标","乡镇"]},{"name":"火车头街道","code":"230104025","level":4,"mergeName":"黑龙江省,哈尔滨市,道外区,火车头街道","lng":126.71235179656333,"lat":45.792908551256524,"info":"直接检索POI第一个结果成功!","tag":["行政地标","乡镇"]},{"name":"新一街道","code":"230104026","level":4,"mergeName":"黑龙江省,哈尔滨市,道外区,新一街道","lng":126.72428039543038,"lat":45.8011420907297,"info":"直接检索POI第一个结果成功!","tag":["行政地标","乡镇"]},{"name":"三棵树大街街道","code":"230104027","level":4,"mergeName":"黑龙江省,哈尔滨市,道外区,三棵树大街街道","lng":126.70370075517997,"lat":45.7986453706183,"info":"直接检索POI第一个结果成功!","tag":["道路","乡道"]},{"name":"水泥路街道","code":"230104028","level":4,"mergeName":"黑龙江省,哈尔滨市,道外区,水泥路街道","lng":126.73414495772717,"lat":45.823029422149034,"info":"直接检索POI第一个结果成功!","tag":["道路"]},{"name":"太平大街街道","code":"230104029","level":4,"mergeName":"黑龙江省,哈尔滨市,道外区,太平大街街道","lng":126.68992883340641,"lat":45.79382717104299,"info":"直接检索POI第一个结果成功!","tag":["行政地标","乡镇"]},{"name":"黎华街道","code":"230104030","level":4,"mergeName":"黑龙江省,哈尔滨市,道外区,黎华街道","lng":126.67897184177893,"lat":45.79361313361762,"info":"直接检索POI第一个结果成功!","tag":["行政地标","乡镇"]},{"name":"新乐街道","code":"230104031","level":4,"mergeName":"黑龙江省,哈尔滨市,道外区,新乐街道","lng":126.68709423036965,"lat":45.789042929216905,"info":"直接检索POI第一个结果成功!","tag":["行政地标","乡镇"]},{"name":"永源镇","code":"230104102","level":4,"mergeName":"黑龙江省,哈尔滨市,道外区,永源镇","lng":127.03192739530091,"lat":45.78028424921416,"info":"直接检索POI第一个结果成功!","tag":["行政地标","乡镇"]},{"name":"巨源镇","code":"230104109","level":4,"mergeName":"黑龙江省,哈尔滨市,道外区,巨源镇","lng":126.98639642120519,"lat":45.94923441977223,"info":"直接检索POI第一个结果成功!","tag":["行政地标","乡镇"]},{"name":"团结镇","code":"230104111","level":4,"mergeName":"黑龙江省,哈尔滨市,道外区,团结镇","lng":126.76955831686395,"lat":45.794196990070155,"info":"直接检索POI第一个结果成功!","tag":["行政地标","乡镇"]},{"name":"民主镇","code":"230104112","level":4,"mergeName":"黑龙江省,哈尔滨市,道外区,民主镇","lng":126.82366307806916,"lat":45.86187389586756,"info":"直接检索POI第一个结果成功!","tag":["行政地标","乡镇"]},{"name":"青年农场","code":"230104500","level":4,"mergeName":"黑龙江省,哈尔滨市,道外区,青年农场","lng":126.7255682062095,"lat":45.79979336689786,"info":"直接检索POI第一个结果成功!","tag":["公司企业","农林园艺"]},{"name":"道外农垦","code":"230104579","level":4,"mergeName":"黑龙江省,哈尔滨市,道外区,道外农垦","lng":126.7078648503715,"lat":45.783026234876495,"info":"直接检索POI第一个结果成功!","tag":""},{"name":"平房区","code":"230108","level":3,"mergeName":"黑龙江省,哈尔滨市,平房区","lng":126.64354707416219,"lat":45.60386229555506,"info":"直接检索POI第一个结果成功!","tag":""},{"name":"兴建街道","code":"230108001","level":4,"mergeName":"黑龙江省,哈尔滨市,平房区,兴建街道","lng":126.64779911346314,"lat":45.609239741837875,"info":"直接检索POI第一个结果成功!","tag":["行政地标","乡镇"]},{"name":"保国街道","code":"230108002","level":4,"mergeName":"黑龙江省,哈尔滨市,平房区,保国街道","lng":126.68026252713568,"lat":45.59427859474873,"info":"直接检索POI第一个结果成功!","tag":["行政地标","乡镇"]},{"name":"联盟街道","code":"230108003","level":4,"mergeName":"黑龙江省,哈尔滨市,平房区,联盟街道","lng":126.68597170780438,"lat":45.59802737739879,"info":"直接检索POI第一个结果成功!","tag":["行政地标","乡镇"]},{"name":"友协街道","code":"230108004","level":4,"mergeName":"黑龙江省,哈尔滨市,平房区,友协街道","lng":126.63512348373396,"lat":45.60938753168357,"info":"直接检索POI第一个结果成功!","tag":["行政地标","乡镇"]},{"name":"新疆街道","code":"230108005","level":4,"mergeName":"黑龙江省,哈尔滨市,平房区,新疆街道","lng":126.63231627901526,"lat":45.612023282610615,"info":"直接检索POI第一个结果成功!","tag":""},{"name":"新伟街道","code":"230108006","level":4,"mergeName":"黑龙江省,哈尔滨市,平房区,新伟街道","lng":126.62420907178766,"lat":45.60689598459946,"info":"直接检索POI第一个结果成功!","tag":""},{"name":"平新街道","code":"230108007","level":4,"mergeName":"黑龙江省,哈尔滨市,平房区,平新街道","lng":126.65167880513022,"lat":45.5971463166302,"info":"直接检索POI第一个结果成功!","tag":["行政地标","乡镇"]},{"name":"建安街道","code":"230108008","level":4,"mergeName":"黑龙江省,哈尔滨市,平房区,建安街道","lng":126.66833096386041,"lat":45.58769517966412,"info":"直接检索POI第一个结果成功!","tag":""},{"name":"平盛街道","code":"230108009","level":4,"mergeName":"黑龙江省,哈尔滨市,平房区,平盛街道","lng":126.65044165878186,"lat":45.57682022458843,"info":"直接检索POI第一个结果成功!","tag":""},{"name":"平房镇","code":"230108101","level":4,"mergeName":"黑龙江省,哈尔滨市,平房区,平房镇","lng":126.68774361542283,"lat":45.598347484497495,"info":"直接检索POI第一个结果成功!","tag":["行政地标","乡镇"]},{"name":"平房农垦","code":"230108579","level":4,"mergeName":"黑龙江省,哈尔滨市,平房区,平房农垦","lng":126.59290950273386,"lat":45.58023174086322,"info":"直接检索POI第一个结果成功!","tag":["公司企业"]},{"name":"松北区","code":"230109","level":3,"mergeName":"黑龙江省,哈尔滨市,松北区","lng":126.51648256824997,"lat":45.80859256142944,"info":"直接检索POI第一个结果成功!","tag":""},{"name":"太阳岛街道","code":"230109002","level":4,"mergeName":"黑龙江省,哈尔滨市,松北区,太阳岛街道","lng":126.60472787951484,"lat":45.791793405032465,"info":"检索POI失败,BMAP_STATUE_CODE:1 ,GetPoint结果: 直接查询获得"},{"name":"松浦街道","code":"230109003","level":4,"mergeName":"黑龙江省,哈尔滨市,松北区,松浦街道","lng":126.51648256824997,"lat":45.80859256142944,"info":"检索POI失败,BMAP_STATUE_CODE:1 ,GetPoint结果: 直接查询获得"},{"name":"万宝街道","code":"230109004","level":4,"mergeName":"黑龙江省,哈尔滨市,松北区,万宝街道","lng":126.41194693571427,"lat":45.869702570925135,"info":"直接检索POI第一个结果成功!","tag":["行政地标","乡镇"]},{"name":"松北街道","code":"230109005","level":4,"mergeName":"黑龙江省,哈尔滨市,松北区,松北街道","lng":126.53339900846122,"lat":45.824670194320376,"info":"直接检索POI第一个结果成功!","tag":["行政地标","乡镇"]},{"name":"松安街道","code":"230109006","level":4,"mergeName":"黑龙江省,哈尔滨市,松北区,松安街道","lng":126.55175695952434,"lat":45.81624385639885,"info":"直接检索POI第一个结果成功!","tag":""},{"name":"松祥街道","code":"230109007","level":4,"mergeName":"黑龙江省,哈尔滨市,松北区,松祥街道","lng":126.49709740483617,"lat":45.80276133275136,"info":"直接检索POI第一个结果成功!","tag":""},{"name":"船口街道","code":"230109008","level":4,"mergeName":"黑龙江省,哈尔滨市,松北区,船口街道","lng":126.648344923891,"lat":45.840877520616004,"info":"直接检索POI第一个结果成功!","tag":""},{"name":"对青山镇","code":"230109101","level":4,"mergeName":"黑龙江省,哈尔滨市,松北区,对青山镇","lng":126.35147372742658,"lat":45.94035144294003,"info":"直接检索POI第一个结果成功!","tag":["行政地标","乡镇"]},{"name":"乐业镇","code":"230109102","level":4,"mergeName":"黑龙江省,哈尔滨市,松北区,乐业镇","lng":126.52019140220902,"lat":45.97117842765606,"info":"直接检索POI第一个结果成功!","tag":["行政地标","乡镇"]},{"name":"香坊区","code":"230110","level":3,"mergeName":"黑龙江省,哈尔滨市,香坊区","lng":126.6696243441337,"lat":45.71361964538922,"info":"直接检索POI第一个结果成功!","tag":""},{"name":"香坊大街街道","code":"230110001","level":4,"mergeName":"黑龙江省,哈尔滨市,香坊区,香坊大街街道","lng":126.69425201850376,"lat":45.73100545146465,"info":"直接检索POI第一个结果成功!","tag":["道路","乡道"]},{"name":"安埠街道","code":"230110002","level":4,"mergeName":"黑龙江省,哈尔滨市,香坊区,安埠街道","lng":126.70002201445548,"lat":45.73340343290139,"info":"直接检索POI第一个结果成功!","tag":["购物","综合商场/购物中心"]},{"name":"通天街道","code":"230110003","level":4,"mergeName":"黑龙江省,哈尔滨市,香坊区,通天街道","lng":126.70768959096651,"lat":45.73107754906747,"info":"直接检索POI第一个结果成功!","tag":["道路","乡道"]},{"name":"新香坊街道","code":"230110004","level":4,"mergeName":"黑龙江省,哈尔滨市,香坊区,新香坊街道","lng":126.76940246085796,"lat":45.733315107590876,"info":"直接检索POI第一个结果成功!","tag":["行政地标","乡镇"]},{"name":"铁东街道","code":"230110005","level":4,"mergeName":"黑龙江省,哈尔滨市,香坊区,铁东街道","lng":126.73447526466319,"lat":45.73758928743733,"info":"直接检索POI第一个结果成功!","tag":""},{"name":"新成街道","code":"230110006","level":4,"mergeName":"黑龙江省,哈尔滨市,香坊区,新成街道","lng":126.71855495543196,"lat":45.73799150034924,"info":"直接检索POI第一个结果成功!","tag":["行政地标","乡镇"]},{"name":"红旗街道","code":"230110007","level":4,"mergeName":"黑龙江省,哈尔滨市,香坊区,红旗街道","lng":126.69841225098158,"lat":45.739833376803794,"info":"直接检索POI第一个结果成功!","tag":["道路","乡道"]},{"name":"六顺街道","code":"230110008","level":4,"mergeName":"黑龙江省,哈尔滨市,香坊区,六顺街道","lng":126.6772726969068,"lat":45.74564217436768,"info":"直接检索POI第一个结果成功!","tag":["行政地标","乡镇"]},{"name":"建筑街道","code":"230110009","level":4,"mergeName":"黑龙江省,哈尔滨市,香坊区,建筑街道","lng":126.6440123065858,"lat":45.712604666485795,"info":"直接检索POI第一个结果成功!","tag":""},{"name":"哈平路街道","code":"230110010","level":4,"mergeName":"黑龙江省,哈尔滨市,香坊区,哈平路街道","lng":126.65075435892989,"lat":45.72737289443229,"info":"直接检索POI第一个结果成功!","tag":["行政地标","乡镇"]},{"name":"安乐街道","code":"230110011","level":4,"mergeName":"黑龙江省,哈尔滨市,香坊区,安乐街道","lng":126.66389728718535,"lat":45.726221069143634,"info":"直接检索POI第一个结果成功!","tag":["行政地标","乡镇"]},{"name":"健康路街道","code":"230110012","level":4,"mergeName":"黑龙江省,哈尔滨市,香坊区,健康路街道","lng":126.66663002237726,"lat":45.72165751213184,"info":"直接检索POI第一个结果成功!","tag":["道路","乡道"]},{"name":"大庆路街道","code":"230110013","level":4,"mergeName":"黑龙江省,哈尔滨市,香坊区,大庆路街道","lng":126.67330452214699,"lat":45.70759457257616,"info":"直接检索POI第一个结果成功!","tag":["行政地标","乡镇"]},{"name":"进乡街道","code":"230110014","level":4,"mergeName":"黑龙江省,哈尔滨市,香坊区,进乡街道","lng":126.69009340297585,"lat":45.71244878049534,"info":"直接检索POI第一个结果成功!","tag":["行政地标","乡镇"]},{"name":"通乡街道","code":"230110015","level":4,"mergeName":"黑龙江省,哈尔滨市,香坊区,通乡街道","lng":126.69427142190277,"lat":45.71459596609369,"info":"直接检索POI第一个结果成功!","tag":["道路"]},{"name":"和平路街道","code":"230110016","level":4,"mergeName":"黑龙江省,哈尔滨市,香坊区,和平路街道","lng":126.66273110697229,"lat":45.737569472368634,"info":"直接检索POI第一个结果成功!","tag":["道路"]},{"name":"民生路街道","code":"230110017","level":4,"mergeName":"黑龙江省,哈尔滨市,香坊区,民生路街道","lng":126.66026193461698,"lat":45.74363582379403,"info":"直接检索POI第一个结果成功!","tag":["道路","乡道"]},{"name":"文政街道","code":"230110018","level":4,"mergeName":"黑龙江省,哈尔滨市,香坊区,文政街道","lng":126.6450431121585,"lat":45.739818280220014,"info":"直接检索POI第一个结果成功!","tag":["道路","乡道"]},{"name":"王兆街道","code":"230110019","level":4,"mergeName":"黑龙江省,哈尔滨市,香坊区,王兆街道","lng":126.64159236137246,"lat":45.732602020250724,"info":"直接检索POI第一个结果成功!","tag":["行政地标","乡镇"]},{"name":"黎明街道","code":"230110020","level":4,"mergeName":"黑龙江省,哈尔滨市,香坊区,黎明街道","lng":126.67165658068893,"lat":45.71961895720659,"info":"直接检索POI第一个结果成功!","tag":["行政地标","乡镇"]},{"name":"成高子镇","code":"230110101","level":4,"mergeName":"黑龙江省,哈尔滨市,香坊区,成高子镇","lng":126.85086969772782,"lat":45.70498279550552,"info":"直接检索POI第一个结果成功!","tag":["行政地标","乡镇"]},{"name":"幸福镇","code":"230110102","level":4,"mergeName":"黑龙江省,哈尔滨市,香坊区,幸福镇","lng":126.76884946398602,"lat":45.733403873269395,"info":"直接检索POI第一个结果成功!","tag":["行政地标","乡镇"]},{"name":"朝阳镇","code":"230110103","level":4,"mergeName":"黑龙江省,哈尔滨市,香坊区,朝阳镇","lng":126.65556470498666,"lat":45.646010376265366,"info":"检索POI失败,BMAP_STATUE_CODE:1 ,GetPoint结果: 直接查询获得"},{"name":"向阳镇","code":"230110104","level":4,"mergeName":"黑龙江省,哈尔滨市,香坊区,向阳镇","lng":127.43419067846537,"lat":44.63363303536461,"info":"直接检索POI第一个结果成功!","tag":["行政地标","乡镇"]},{"name":"哈尔滨综合保税区地区","code":"230110400","level":4,"mergeName":"黑龙江省,哈尔滨市,香坊区,哈尔滨综合保税区地区","lng":126.7870549726041,"lat":45.70149299622422,"info":"直接检索POI第一个结果成功!","tag":""},{"name":"香坊实验农场地区","code":"230110500","level":4,"mergeName":"黑龙江省,哈尔滨市,香坊区,香坊实验农场地区","lng":126.7711479582944,"lat":45.7404389351334,"info":"直接检索POI第一个结果成功!","tag":""},{"name":"香坊区农垦地区","code":"230110579","level":4,"mergeName":"黑龙江省,哈尔滨市,香坊区,香坊区农垦地区","lng":126.70387134339632,"lat":45.744848863510576,"info":"直接检索POI第一个结果成功!","tag":["教育","科研机构/教育"]},{"name":"呼兰区","code":"230111","level":3,"mergeName":"黑龙江省,哈尔滨市,呼兰区","lng":126.59439898309995,"lat":45.8952097808631,"info":"直接检索POI第一个结果成功!","tag":""},{"name":"呼兰街道","code":"230111001","level":4,"mergeName":"黑龙江省,哈尔滨市,呼兰区,呼兰街道","lng":126.61326393779292,"lat":45.98092897832038,"info":"直接检索POI第一个结果成功!","tag":["行政地标","乡镇"]},{"name":"兰河街道","code":"230111002","level":4,"mergeName":"黑龙江省,哈尔滨市,呼兰区,兰河街道","lng":126.60218280034395,"lat":45.98911578849099,"info":"直接检索POI第一个结果成功!","tag":["行政地标","乡镇"]},{"name":"腰堡街道","code":"230111003","level":4,"mergeName":"黑龙江省,哈尔滨市,呼兰区,腰堡街道","lng":126.76910799631179,"lat":45.98194229758345,"info":"直接检索POI第一个结果成功!","tag":["名称标注类"]},{"name":"利民街道","code":"230111004","level":4,"mergeName":"黑龙江省,哈尔滨市,呼兰区,利民街道","lng":126.59118188157706,"lat":45.89656238764416,"info":"直接检索POI第一个结果成功!","tag":""},{"name":"康金街道","code":"230111005","level":4,"mergeName":"黑龙江省,哈尔滨市,呼兰区,康金街道","lng":126.80785227227959,"lat":46.19672852094652,"info":"直接检索POI第一个结果成功!","tag":["行政地标","乡镇"]},{"name":"双井街道","code":"230111006","level":4,"mergeName":"黑龙江省,哈尔滨市,呼兰区,双井街道","lng":126.730400730531,"lat":46.042865314341526,"info":"直接检索POI第一个结果成功!","tag":["行政地标","乡镇"]},{"name":"建设路街道","code":"230111007","level":4,"mergeName":"黑龙江省,哈尔滨市,呼兰区,建设路街道","lng":126.65711382295726,"lat":45.76164069259834,"info":"直接检索POI第一个结果成功!","tag":["道路"]},{"name":"学院路街道","code":"230111008","level":4,"mergeName":"黑龙江省,哈尔滨市,呼兰区,学院路街道","lng":126.51299265134368,"lat":45.88107517666808,"info":"直接检索POI第一个结果成功!","tag":["道路","乡道"]},{"name":"长岭街道","code":"230111009","level":4,"mergeName":"黑龙江省,哈尔滨市,呼兰区,长岭街道","lng":126.65098728954862,"lat":46.048492297746186,"info":"直接检索POI第一个结果成功!","tag":["行政地标","乡镇"]},{"name":"沈家街道","code":"230111010","level":4,"mergeName":"黑龙江省,哈尔滨市,呼兰区,沈家街道","lng":126.78804436629278,"lat":46.10584547800431,"info":"直接检索POI第一个结果成功!","tag":["行政地标","乡镇"]},{"name":"南京路街道","code":"230111011","level":4,"mergeName":"黑龙江省,哈尔滨市,呼兰区,南京路街道","lng":126.57782892949335,"lat":45.89677439590283,"info":"直接检索POI第一个结果成功!","tag":["道路"]},{"name":"裕民街道","code":"230111012","level":4,"mergeName":"黑龙江省,哈尔滨市,呼兰区,裕民街道","lng":126.55003733328658,"lat":45.86280480198417,"info":"直接检索POI第一个结果成功!","tag":""},{"name":"裕田街道","code":"230111013","level":4,"mergeName":"黑龙江省,哈尔滨市,呼兰区,裕田街道","lng":126.5764968322526,"lat":45.9281608772717,"info":"直接检索POI第一个结果成功!","tag":""},{"name":"裕强街道","code":"230111014","level":4,"mergeName":"黑龙江省,哈尔滨市,呼兰区,裕强街道","lng":126.59439898309995,"lat":45.8952097808631,"info":"检索POI失败,BMAP_STATUE_CODE:1 ,GetPoint结果: 直接查询获得"},{"name":"萧乡街道","code":"230111015","level":4,"mergeName":"黑龙江省,哈尔滨市,呼兰区,萧乡街道","lng":126.6148641792284,"lat":45.98746562401935,"info":"直接检索POI第一个结果成功!","tag":""},{"name":"公园路街道","code":"230111016","level":4,"mergeName":"黑龙江省,哈尔滨市,呼兰区,公园路街道","lng":126.60225969529561,"lat":45.98913914542717,"info":"直接检索POI第一个结果成功!","tag":""},{"name":"二八镇","code":"230111105","level":4,"mergeName":"黑龙江省,哈尔滨市,呼兰区,二八镇","lng":127.04508649305556,"lat":46.120979455543065,"info":"直接检索POI第一个结果成功!","tag":["行政地标","乡镇"]},{"name":"石人镇","code":"230111106","level":4,"mergeName":"黑龙江省,哈尔滨市,呼兰区,石人镇","lng":126.9054806540879,"lat":46.30146256127785,"info":"直接检索POI第一个结果成功!","tag":["行政地标","乡镇"]},{"name":"白奎镇","code":"230111107","level":4,"mergeName":"黑龙江省,哈尔滨市,呼兰区,白奎镇","lng":127.017174613741,"lat":46.371938406776465,"info":"直接检索POI第一个结果成功!","tag":["行政地标","乡镇"]},{"name":"方台镇","code":"230111109","level":4,"mergeName":"黑龙江省,哈尔滨市,呼兰区,方台镇","lng":126.9456069730828,"lat":46.097768492359045,"info":"直接检索POI第一个结果成功!","tag":["行政地标","乡镇"]},{"name":"莲花镇","code":"230111110","level":4,"mergeName":"黑龙江省,哈尔滨市,呼兰区,莲花镇","lng":126.80195292033441,"lat":46.34622093265022,"info":"直接检索POI第一个结果成功!","tag":["行政地标","乡镇"]},{"name":"大用镇","code":"230111111","level":4,"mergeName":"黑龙江省,哈尔滨市,呼兰区,大用镇","lng":126.73049648989837,"lat":46.29069368518357,"info":"直接检索POI第一个结果成功!","tag":["行政地标","乡镇"]},{"name":"利业镇","code":"230111114","level":4,"mergeName":"黑龙江省,哈尔滨市,呼兰区,利业镇","lng":126.58241235369694,"lat":45.90146690856105,"info":"直接检索POI第一个结果成功!","tag":["政府机构","各级政府","乡镇级政府"]},{"name":"杨林乡","code":"230111201","level":4,"mergeName":"黑龙江省,哈尔滨市,呼兰区,杨林乡","lng":127.15269262365491,"lat":46.08708706549222,"info":"直接检索POI第一个结果成功!","tag":["行政地标","乡镇"]},{"name":"许堡乡","code":"230111203","level":4,"mergeName":"黑龙江省,哈尔滨市,呼兰区,许堡乡","lng":126.68931358396262,"lat":46.16828225888967,"info":"直接检索POI第一个结果成功!","tag":["行政地标","乡镇"]},{"name":"孟家乡","code":"230111205","level":4,"mergeName":"黑龙江省,哈尔滨市,呼兰区,孟家乡","lng":126.56903829143374,"lat":46.06909827069671,"info":"直接检索POI第一个结果成功!","tag":["行政地标","乡镇"]},{"name":"呼兰农垦","code":"230111579","level":4,"mergeName":"黑龙江省,哈尔滨市,呼兰区,呼兰农垦","lng":126.53604092496607,"lat":45.8815738483389,"info":"直接检索POI第一个结果成功!","tag":["教育","高等教育","高等专科学校"]},{"name":"阿城区","code":"230112","level":3,"mergeName":"黑龙江省,哈尔滨市,阿城区","lng":126.96435649551775,"lat":45.55427530435246,"info":"直接检索POI第一个结果成功!","tag":""},{"name":"金城街道","code":"230112001","level":4,"mergeName":"黑龙江省,哈尔滨市,阿城区,金城街道","lng":126.98177149528703,"lat":45.55025192520799,"info":"直接检索POI第一个结果成功!","tag":""},{"name":"金都街道","code":"230112002","level":4,"mergeName":"黑龙江省,哈尔滨市,阿城区,金都街道","lng":126.98458597628036,"lat":45.53843736833157,"info":"直接检索POI第一个结果成功!","tag":["行政地标","乡镇"]},{"name":"通城街道","code":"230112003","level":4,"mergeName":"黑龙江省,哈尔滨市,阿城区,通城街道","lng":126.99902884243933,"lat":45.5554859156933,"info":"直接检索POI第一个结果成功!","tag":""},{"name":"河东街道","code":"230112004","level":4,"mergeName":"黑龙江省,哈尔滨市,阿城区,河东街道","lng":127.02451251212985,"lat":45.56046579495717,"info":"直接检索POI第一个结果成功!","tag":["行政地标","乡镇"]},{"name":"阿什河街道","code":"230112005","level":4,"mergeName":"黑龙江省,哈尔滨市,阿城区,阿什河街道","lng":126.99090357927096,"lat":45.54326960418615,"info":"直接检索POI第一个结果成功!","tag":["行政地标","乡镇"]},{"name":"玉泉街道","code":"230112006","level":4,"mergeName":"黑龙江省,哈尔滨市,阿城区,玉泉街道","lng":127.1672679898766,"lat":45.421512648013426,"info":"直接检索POI第一个结果成功!","tag":["行政地标","乡镇"]},{"name":"新利街道","code":"230112007","level":4,"mergeName":"黑龙江省,哈尔滨市,阿城区,新利街道","lng":126.84016584859306,"lat":45.624605075871905,"info":"直接检索POI第一个结果成功!","tag":""},{"name":"双丰街道","code":"230112008","level":4,"mergeName":"黑龙江省,哈尔滨市,阿城区,双丰街道","lng":126.97800984096398,"lat":45.45286522618485,"info":"直接检索POI第一个结果成功!","tag":["行政地标","乡镇"]},{"name":"舍利街道","code":"230112009","level":4,"mergeName":"黑龙江省,哈尔滨市,阿城区,舍利街道","lng":126.93935162266403,"lat":45.56979024586999,"info":"直接检索POI第一个结果成功!","tag":["行政地标","乡镇"]},{"name":"小岭街道","code":"230112010","level":4,"mergeName":"黑龙江省,哈尔滨市,阿城区,小岭街道","lng":127.31440180867902,"lat":45.3413428378462,"info":"直接检索POI第一个结果成功!","tag":["行政地标","乡镇"]},{"name":"亚沟街道","code":"230112011","level":4,"mergeName":"黑龙江省,哈尔滨市,阿城区,亚沟街道","lng":127.08234793611801,"lat":45.4878927533137,"info":"直接检索POI第一个结果成功!","tag":["行政地标","乡镇"]},{"name":"交界街道","code":"230112012","level":4,"mergeName":"黑龙江省,哈尔滨市,阿城区,交界街道","lng":127.09674435988212,"lat":45.35657313649801,"info":"直接检索POI第一个结果成功!","tag":["行政地标","乡镇"]},{"name":"料甸街道","code":"230112013","level":4,"mergeName":"黑龙江省,哈尔滨市,阿城区,料甸街道","lng":127.06634049125232,"lat":45.641174356319354,"info":"直接检索POI第一个结果成功!","tag":""},{"name":"蜚克图街道","code":"230112014","level":4,"mergeName":"黑龙江省,哈尔滨市,阿城区,蜚克图街道","lng":127.15413440399844,"lat":45.762932688301284,"info":"直接检索POI第一个结果成功!","tag":["行政地标","乡镇"]},{"name":"杨树街道","code":"230112015","level":4,"mergeName":"黑龙江省,哈尔滨市,阿城区,杨树街道","lng":126.86707117658368,"lat":45.4917107295565,"info":"直接检索POI第一个结果成功!","tag":["行政地标","乡镇"]},{"name":"平山镇","code":"230112107","level":4,"mergeName":"黑龙江省,哈尔滨市,阿城区,平山镇","lng":127.40289190819537,"lat":45.32856293274083,"info":"直接检索POI第一个结果成功!","tag":["行政地标","乡镇"]},{"name":"松峰山镇","code":"230112108","level":4,"mergeName":"黑龙江省,哈尔滨市,阿城区,松峰山镇","lng":127.44369932242796,"lat":45.41029332265495,"info":"直接检索POI第一个结果成功!","tag":""},{"name":"红星镇","code":"230112109","level":4,"mergeName":"黑龙江省,哈尔滨市,阿城区,红星镇","lng":127.1278472898598,"lat":45.574549991491445,"info":"直接检索POI第一个结果成功!","tag":["行政地标","乡镇"]},{"name":"金龙山镇","code":"230112112","level":4,"mergeName":"黑龙江省,哈尔滨市,阿城区,金龙山镇","lng":127.12490641728121,"lat":45.51595494091022,"info":"直接检索POI第一个结果成功!","tag":["行政地标","乡镇"]},{"name":"阿城原种场","code":"230112503","level":4,"mergeName":"黑龙江省,哈尔滨市,阿城区,阿城原种场","lng":127.05651994592553,"lat":45.527441806561185,"info":"直接检索POI第一个结果成功!","tag":""},{"name":"双城区","code":"230113","level":3,"mergeName":"黑龙江省,哈尔滨市,双城区","lng":126.3196219699758,"lat":45.38811183889491,"info":"直接检索POI第一个结果成功!","tag":""},{"name":"五家街道","code":"230113002","level":4,"mergeName":"黑龙江省,哈尔滨市,双城区,五家街道","lng":126.39241328239967,"lat":45.54384012472004,"info":"直接检索POI第一个结果成功!","tag":["行政地标","乡镇"]},{"name":"新兴街道","code":"230113003","level":4,"mergeName":"黑龙江省,哈尔滨市,双城区,新兴街道","lng":126.51363718554708,"lat":45.5180888094787,"info":"直接检索POI第一个结果成功!","tag":""},{"name":"兰棱街道","code":"230113004","level":4,"mergeName":"黑龙江省,哈尔滨市,双城区,兰棱街道","lng":126.20120976307463,"lat":45.221701452025584,"info":"直接检索POI第一个结果成功!","tag":["行政地标","乡镇"]},{"name":"周家街道","code":"230113005","level":4,"mergeName":"黑龙江省,哈尔滨市,双城区,周家街道","lng":126.66317792413295,"lat":45.46589993068429,"info":"直接检索POI第一个结果成功!","tag":["行政地标","乡镇"]},{"name":"公正街道","code":"230113006","level":4,"mergeName":"黑龙江省,哈尔滨市,双城区,公正街道","lng":126.25792131703926,"lat":45.53072614875013,"info":"直接检索POI第一个结果成功!","tag":""},{"name":"承旭街道","code":"230113007","level":4,"mergeName":"黑龙江省,哈尔滨市,双城区,承旭街道","lng":126.33194950631986,"lat":45.37331215818435,"info":"直接检索POI第一个结果成功!","tag":""},{"name":"承恩街道","code":"230113008","level":4,"mergeName":"黑龙江省,哈尔滨市,双城区,承恩街道","lng":126.31964433778299,"lat":45.37503289238716,"info":"直接检索POI第一个结果成功!","tag":""},{"name":"永治街道","code":"230113009","level":4,"mergeName":"黑龙江省,哈尔滨市,双城区,永治街道","lng":126.32521212516443,"lat":45.390589224073466,"info":"直接检索POI第一个结果成功!","tag":""},{"name":"永和街道","code":"230113010","level":4,"mergeName":"黑龙江省,哈尔滨市,双城区,永和街道","lng":126.30073428815344,"lat":45.39952558802584,"info":"直接检索POI第一个结果成功!","tag":""},{"name":"幸福街道","code":"230113011","level":4,"mergeName":"黑龙江省,哈尔滨市,双城区,幸福街道","lng":126.39627357066773,"lat":45.443518410307185,"info":"直接检索POI第一个结果成功!","tag":["行政地标","乡镇"]},{"name":"韩甸镇","code":"230113104","level":4,"mergeName":"黑龙江省,哈尔滨市,双城区,韩甸镇","lng":125.91179495149584,"lat":45.297794685656484,"info":"直接检索POI第一个结果成功!","tag":["行政地标","乡镇"]},{"name":"单城镇","code":"230113105","level":4,"mergeName":"黑龙江省,哈尔滨市,双城区,单城镇","lng":126.47856203843482,"lat":45.30956717962342,"info":"直接检索POI第一个结果成功!","tag":["行政地标","乡镇"]},{"name":"东官镇","code":"230113106","level":4,"mergeName":"黑龙江省,哈尔滨市,双城区,东官镇","lng":126.56602259000618,"lat":45.45660390795605,"info":"直接检索POI第一个结果成功!","tag":["行政地标","乡镇"]},{"name":"农丰满族锡伯族镇","code":"230113107","level":4,"mergeName":"黑龙江省,哈尔滨市,双城区,农丰满族锡伯族镇","lng":126.13189713873815,"lat":45.51055851974741,"info":"直接检索POI第一个结果成功!","tag":["行政地标","乡镇"]},{"name":"杏山镇","code":"230113108","level":4,"mergeName":"黑龙江省,哈尔滨市,双城区,杏山镇","lng":125.90995719808352,"lat":45.46369895944822,"info":"直接检索POI第一个结果成功!","tag":["行政地标","乡镇"]},{"name":"西官镇","code":"230113109","level":4,"mergeName":"黑龙江省,哈尔滨市,双城区,西官镇","lng":125.97614102432873,"lat":45.400148900637795,"info":"直接检索POI第一个结果成功!","tag":""},{"name":"联兴镇","code":"230113110","level":4,"mergeName":"黑龙江省,哈尔滨市,双城区,联兴镇","lng":126.46639224453833,"lat":45.36636897920966,"info":"直接检索POI第一个结果成功!","tag":["行政地标","乡镇"]},{"name":"永胜镇","code":"230113111","level":4,"mergeName":"黑龙江省,哈尔滨市,双城区,永胜镇","lng":126.11760051671622,"lat":45.62097274555126,"info":"直接检索POI第一个结果成功!","tag":""},{"name":"胜丰镇","code":"230113112","level":4,"mergeName":"黑龙江省,哈尔滨市,双城区,胜丰镇","lng":126.29002648647443,"lat":45.27698228968378,"info":"直接检索POI第一个结果成功!","tag":""},{"name":"金城乡","code":"230113201","level":4,"mergeName":"黑龙江省,哈尔滨市,双城区,金城乡","lng":126.09422463107433,"lat":45.19853165305484,"info":"直接检索POI第一个结果成功!","tag":["行政地标","乡镇"]},{"name":"青岭满族乡","code":"230113203","level":4,"mergeName":"黑龙江省,哈尔滨市,双城区,青岭满族乡","lng":126.57834069414238,"lat":45.3701780793301,"info":"直接检索POI第一个结果成功!","tag":["行政地标","乡镇"]},{"name":"临江乡","code":"230113209","level":4,"mergeName":"黑龙江省,哈尔滨市,双城区,临江乡","lng":126.01635268234708,"lat":45.57771983843263,"info":"直接检索POI第一个结果成功!","tag":["行政地标","乡镇"]},{"name":"水泉乡","code":"230113210","level":4,"mergeName":"黑龙江省,哈尔滨市,双城区,水泉乡","lng":126.0584460209172,"lat":45.45063889346998,"info":"直接检索POI第一个结果成功!","tag":["行政地标","乡镇"]},{"name":"乐群满族乡","code":"230113211","level":4,"mergeName":"黑龙江省,哈尔滨市,双城区,乐群满族乡","lng":126.23285625771639,"lat":45.41622036802952,"info":"直接检索POI第一个结果成功!","tag":["行政地标","乡镇"]},{"name":"万隆乡","code":"230113214","level":4,"mergeName":"黑龙江省,哈尔滨市,双城区,万隆乡","lng":125.77756394388608,"lat":45.38932085804197,"info":"直接检索POI第一个结果成功!","tag":["行政地标","乡镇"]},{"name":"希勤满族乡","code":"230113216","level":4,"mergeName":"黑龙江省,哈尔滨市,双城区,希勤满族乡","lng":126.06253888048178,"lat":45.29936297211103,"info":"直接检索POI第一个结果成功!","tag":["行政地标","乡镇"]},{"name":"同心满族乡","code":"230113217","level":4,"mergeName":"黑龙江省,哈尔滨市,双城区,同心满族乡","lng":126.1984453176982,"lat":45.3237166531201,"info":"直接检索POI第一个结果成功!","tag":["行政地标","乡镇"]},{"name":"依兰县","code":"230123","level":3,"mergeName":"黑龙江省,哈尔滨市,依兰县","lng":129.574515205685,"lat":46.331259293396506,"info":"直接检索POI第一个结果成功!","tag":""},{"name":"依兰镇","code":"230123100","level":4,"mergeName":"黑龙江省,哈尔滨市,依兰县,依兰镇","lng":129.57202366552252,"lat":46.316885236889526,"info":"直接检索POI第一个结果成功!","tag":["行政地标","乡镇"]},{"name":"达连河镇","code":"230123101","level":4,"mergeName":"黑龙江省,哈尔滨市,依兰县,达连河镇","lng":129.43145592101476,"lat":46.18123654234185,"info":"直接检索POI第一个结果成功!","tag":["行政地标","乡镇"]},{"name":"江湾镇","code":"230123102","level":4,"mergeName":"黑龙江省,哈尔滨市,依兰县,江湾镇","lng":129.62259359454592,"lat":46.16375069250987,"info":"直接检索POI第一个结果成功!","tag":["行政地标","乡镇"]},{"name":"三道岗镇","code":"230123103","level":4,"mergeName":"黑龙江省,哈尔滨市,依兰县,三道岗镇","lng":130.1145239274148,"lat":46.1210657249229,"info":"直接检索POI第一个结果成功!","tag":["行政地标","乡镇"]},{"name":"道台桥镇","code":"230123104","level":4,"mergeName":"黑龙江省,哈尔滨市,依兰县,道台桥镇","lng":129.85044339732022,"lat":46.20503914808145,"info":"直接检索POI第一个结果成功!","tag":["行政地标","乡镇"]},{"name":"宏克利镇","code":"230123105","level":4,"mergeName":"黑龙江省,哈尔滨市,依兰县,宏克利镇","lng":129.8620451028122,"lat":46.57782953935968,"info":"直接检索POI第一个结果成功!","tag":["行政地标","乡镇"]},{"name":"团山子乡","code":"230123200","level":4,"mergeName":"黑龙江省,哈尔滨市,依兰县,团山子乡","lng":129.92531617344127,"lat":46.324721989340574,"info":"直接检索POI第一个结果成功!","tag":["行政地标","乡镇"]},{"name":"愚公乡","code":"230123201","level":4,"mergeName":"黑龙江省,哈尔滨市,依兰县,愚公乡","lng":130.0635795846548,"lat":46.43599833988723,"info":"直接检索POI第一个结果成功!","tag":["行政地标","乡镇"]},{"name":"迎兰朝鲜族乡","code":"230123202","level":4,"mergeName":"黑龙江省,哈尔滨市,依兰县,迎兰朝鲜族乡","lng":129.54458663050053,"lat":46.35206941350091,"info":"直接检索POI第一个结果成功!","tag":["行政地标","乡镇"]},{"name":"依兰县林业局","code":"230123400","level":4,"mergeName":"黑龙江省,哈尔滨市,依兰县,依兰县林业局","lng":129.5807305815086,"lat":46.323356204803304,"info":"直接检索POI第一个结果成功!","tag":["政府机构","机关单位"]},{"name":"依兰农场","code":"230123500","level":4,"mergeName":"黑龙江省,哈尔滨市,依兰县,依兰农场","lng":129.56798901615497,"lat":46.423810183050556,"info":"直接检索POI第一个结果成功!","tag":""},{"name":"松花江农场","code":"230123501","level":4,"mergeName":"黑龙江省,哈尔滨市,依兰县,松花江农场","lng":129.4429345586519,"lat":46.30557883192662,"info":"直接检索POI第一个结果成功!","tag":["公司企业","农林园艺"]},{"name":"方正县","code":"230124","level":3,"mergeName":"黑龙江省,哈尔滨市,方正县","lng":128.83563197455823,"lat":45.857758440062085,"info":"直接检索POI第一个结果成功!","tag":""},{"name":"方正镇","code":"230124100","level":4,"mergeName":"黑龙江省,哈尔滨市,方正县,方正镇","lng":128.84062646336318,"lat":45.840020084575684,"info":"直接检索POI第一个结果成功!","tag":["行政地标","乡镇"]},{"name":"会发镇","code":"230124101","level":4,"mergeName":"黑龙江省,哈尔滨市,方正县,会发镇","lng":128.6765996501233,"lat":45.79794273739542,"info":"直接检索POI第一个结果成功!","tag":["行政地标","乡镇"]},{"name":"大罗密镇","code":"230124102","level":4,"mergeName":"黑龙江省,哈尔滨市,方正县,大罗密镇","lng":129.21680734652358,"lat":45.96562496182877,"info":"直接检索POI第一个结果成功!","tag":["行政地标","乡镇"]},{"name":"得莫利镇","code":"230124103","level":4,"mergeName":"黑龙江省,哈尔滨市,方正县,得莫利镇","lng":128.90109958182032,"lat":45.880193329916516,"info":"直接检索POI第一个结果成功!","tag":""},{"name":"天门乡","code":"230124200","level":4,"mergeName":"黑龙江省,哈尔滨市,方正县,天门乡","lng":128.6788611342447,"lat":45.889396970317314,"info":"直接检索POI第一个结果成功!","tag":["行政地标","乡镇"]},{"name":"松南乡","code":"230124201","level":4,"mergeName":"黑龙江省,哈尔滨市,方正县,松南乡","lng":128.81635487729727,"lat":45.88521286068291,"info":"直接检索POI第一个结果成功!","tag":["行政地标","乡镇"]},{"name":"德善乡","code":"230124202","level":4,"mergeName":"黑龙江省,哈尔滨市,方正县,德善乡","lng":128.86550817853146,"lat":45.81363932981717,"info":"直接检索POI第一个结果成功!","tag":["行政地标","乡镇"]},{"name":"宝兴乡","code":"230124204","level":4,"mergeName":"黑龙江省,哈尔滨市,方正县,宝兴乡","lng":128.7737592961165,"lat":45.76613268132194,"info":"直接检索POI第一个结果成功!","tag":["名称标注类"]},{"name":"方正林业局","code":"230124400","level":4,"mergeName":"黑龙江省,哈尔滨市,方正县,方正林业局","lng":129.26334909397912,"lat":46.012585443199775,"info":"直接检索POI第一个结果成功!","tag":["政府机构","各级政府","区县级政府"]},{"name":"沙河农场","code":"230124500","level":4,"mergeName":"黑龙江省,哈尔滨市,方正县,沙河农场","lng":129.38041554939576,"lat":46.12614513376333,"info":"直接检索POI第一个结果成功!","tag":["公司企业","农林园艺"]},{"name":"宾县","code":"230125","level":3,"mergeName":"黑龙江省,哈尔滨市,宾县","lng":127.4734953975497,"lat":45.75246444342027,"info":"直接检索POI第一个结果成功!","tag":""},{"name":"宾州镇","code":"230125100","level":4,"mergeName":"黑龙江省,哈尔滨市,宾县,宾州镇","lng":127.49903422319854,"lat":45.76263270502624,"info":"直接检索POI第一个结果成功!","tag":["行政地标","乡镇"]},{"name":"居仁镇","code":"230125101","level":4,"mergeName":"黑龙江省,哈尔滨市,宾县,居仁镇","lng":127.29481560449209,"lat":45.77085949277642,"info":"直接检索POI第一个结果成功!","tag":["行政地标","乡镇"]},{"name":"宾西镇","code":"230125102","level":4,"mergeName":"黑龙江省,哈尔滨市,宾县,宾西镇","lng":127.1861412988108,"lat":45.7615608378753,"info":"直接检索POI第一个结果成功!","tag":["行政地标","乡镇"]},{"name":"糖坊镇","code":"230125103","level":4,"mergeName":"黑龙江省,哈尔滨市,宾县,糖坊镇","lng":127.06576485708152,"lat":45.91728416062823,"info":"直接检索POI第一个结果成功!","tag":["行政地标","乡镇"]},{"name":"宾安镇","code":"230125104","level":4,"mergeName":"黑龙江省,哈尔滨市,宾县,宾安镇","lng":127.75773776600201,"lat":45.84859968489377,"info":"直接检索POI第一个结果成功!","tag":["行政地标","乡镇"]},{"name":"新甸镇","code":"230125105","level":4,"mergeName":"黑龙江省,哈尔滨市,宾县,新甸镇","lng":127.83794324295255,"lat":45.927503646897556,"info":"直接检索POI第一个结果成功!","tag":["行政地标","乡镇"]},{"name":"胜利镇","code":"230125106","level":4,"mergeName":"黑龙江省,哈尔滨市,宾县,胜利镇","lng":128.04897640725773,"lat":45.808833178376055,"info":"直接检索POI第一个结果成功!","tag":["行政地标","乡镇"]},{"name":"宁远镇","code":"230125107","level":4,"mergeName":"黑龙江省,哈尔滨市,宾县,宁远镇","lng":127.92277328649902,"lat":45.73485883007388,"info":"直接检索POI第一个结果成功!","tag":["行政地标","乡镇"]},{"name":"摆渡镇","code":"230125109","level":4,"mergeName":"黑龙江省,哈尔滨市,宾县,摆渡镇","lng":128.16532116402766,"lat":45.90756234519213,"info":"直接检索POI第一个结果成功!","tag":["行政地标","乡镇"]},{"name":"平坊镇","code":"230125110","level":4,"mergeName":"黑龙江省,哈尔滨市,宾县,平坊镇","lng":127.54021173930123,"lat":45.6571962491024,"info":"直接检索POI第一个结果成功!","tag":["行政地标","乡镇"]},{"name":"满井镇","code":"230125111","level":4,"mergeName":"黑龙江省,哈尔滨市,宾县,满井镇","lng":127.29186898275825,"lat":45.922181635227126,"info":"直接检索POI第一个结果成功!","tag":["行政地标","乡镇"]},{"name":"常安镇","code":"230125112","level":4,"mergeName":"黑龙江省,哈尔滨市,宾县,常安镇","lng":127.85403135565304,"lat":45.77157026512484,"info":"直接检索POI第一个结果成功!","tag":["行政地标","乡镇"]},{"name":"永和乡","code":"230125201","level":4,"mergeName":"黑龙江省,哈尔滨市,宾县,永和乡","lng":127.10672246799537,"lat":45.845634240752105,"info":"直接检索POI第一个结果成功!","tag":["行政地标","乡镇"]},{"name":"鸟河乡","code":"230125203","level":4,"mergeName":"黑龙江省,哈尔滨市,宾县,鸟河乡","lng":127.46715120471599,"lat":45.91070581748793,"info":"直接检索POI第一个结果成功!","tag":["行政地标","乡镇"]},{"name":"民和乡","code":"230125204","level":4,"mergeName":"黑龙江省,哈尔滨市,宾县,民和乡","lng":127.5739783247771,"lat":45.911249809955,"info":"直接检索POI第一个结果成功!","tag":["行政地标","乡镇"]},{"name":"经建乡","code":"230125205","level":4,"mergeName":"黑龙江省,哈尔滨市,宾县,经建乡","lng":127.63240420497698,"lat":45.82408728738084,"info":"直接检索POI第一个结果成功!","tag":["行政地标","乡镇"]},{"name":"三宝乡","code":"230125210","level":4,"mergeName":"黑龙江省,哈尔滨市,宾县,三宝乡","lng":127.68021831235687,"lat":45.766390898461125,"info":"直接检索POI第一个结果成功!","tag":["行政地标","乡镇"]},{"name":"九龙山柞蚕育种场","code":"230125500","level":4,"mergeName":"黑龙江省,哈尔滨市,宾县,九龙山柞蚕育种场","lng":126.87892853982382,"lat":45.7500289225398,"info":"直接检索POI第一个结果成功!","tag":""},{"name":"农垦农业职业学院","code":"230125579","level":4,"mergeName":"黑龙江省,哈尔滨市,宾县,农垦农业职业学院","lng":126.53604092496607,"lat":45.8815738483389,"info":"直接检索POI第一个结果成功!","tag":["教育","高等教育","高等专科学校"]},{"name":"巴彦县","code":"230126","level":3,"mergeName":"黑龙江省,哈尔滨市,巴彦县","lng":127.41055113046515,"lat":46.09128284532353,"info":"直接检索POI第一个结果成功!","tag":""},{"name":"巴彦镇","code":"230126100","level":4,"mergeName":"黑龙江省,哈尔滨市,巴彦县,巴彦镇","lng":127.41261265178001,"lat":46.090552621333366,"info":"直接检索POI第一个结果成功!","tag":["行政地标","乡镇"]},{"name":"兴隆镇","code":"230126101","level":4,"mergeName":"黑龙江省,哈尔滨市,巴彦县,兴隆镇","lng":127.12264053146282,"lat":46.44254832989638,"info":"直接检索POI第一个结果成功!","tag":["行政地标","乡镇"]},{"name":"西集镇","code":"230126102","level":4,"mergeName":"黑龙江省,哈尔滨市,巴彦县,西集镇","lng":127.18215973929891,"lat":46.15636771841297,"info":"直接检索POI第一个结果成功!","tag":["行政地标","乡镇"]},{"name":"洼兴镇","code":"230126103","level":4,"mergeName":"黑龙江省,哈尔滨市,巴彦县,洼兴镇","lng":127.49165428411182,"lat":46.366893794844415,"info":"直接检索POI第一个结果成功!","tag":["行政地标","乡镇"]},{"name":"龙泉镇","code":"230126104","level":4,"mergeName":"黑龙江省,哈尔滨市,巴彦县,龙泉镇","lng":127.46424455757733,"lat":46.213529113907114,"info":"直接检索POI第一个结果成功!","tag":["行政地标","乡镇"]},{"name":"巴彦港镇","code":"230126105","level":4,"mergeName":"黑龙江省,哈尔滨市,巴彦县,巴彦港镇","lng":127.54480252961,"lat":46.056354582918566,"info":"直接检索POI第一个结果成功!","tag":["行政地标","乡镇"]},{"name":"龙庙镇","code":"230126106","level":4,"mergeName":"黑龙江省,哈尔滨市,巴彦县,龙庙镇","lng":127.24045671265812,"lat":46.35903830800266,"info":"直接检索POI第一个结果成功!","tag":["行政地标","乡镇"]},{"name":"万发镇","code":"230126107","level":4,"mergeName":"黑龙江省,哈尔滨市,巴彦县,万发镇","lng":127.13748664696521,"lat":46.54312429603036,"info":"直接检索POI第一个结果成功!","tag":["行政地标","乡镇"]},{"name":"天增镇","code":"230126108","level":4,"mergeName":"黑龙江省,哈尔滨市,巴彦县,天增镇","lng":127.33826583353505,"lat":46.57616342701449,"info":"直接检索POI第一个结果成功!","tag":["行政地标","乡镇"]},{"name":"黑山镇","code":"230126110","level":4,"mergeName":"黑龙江省,哈尔滨市,巴彦县,黑山镇","lng":127.48247746451348,"lat":46.450844185726076,"info":"直接检索POI第一个结果成功!","tag":["行政地标","乡镇"]},{"name":"松花江乡","code":"230126200","level":4,"mergeName":"黑龙江省,哈尔滨市,巴彦县,松花江乡","lng":127.34437035845869,"lat":46.05111733369743,"info":"直接检索POI第一个结果成功!","tag":["行政地标","乡镇"]},{"name":"富江乡","code":"230126202","level":4,"mergeName":"黑龙江省,哈尔滨市,巴彦县,富江乡","lng":127.47099640145149,"lat":46.043181230888365,"info":"直接检索POI第一个结果成功!","tag":["行政地标","乡镇"]},{"name":"华山乡","code":"230126204","level":4,"mergeName":"黑龙江省,哈尔滨市,巴彦县,华山乡","lng":127.38127104202833,"lat":46.234968773310584,"info":"直接检索POI第一个结果成功!","tag":["行政地标","乡镇"]},{"name":"丰乐乡","code":"230126205","level":4,"mergeName":"黑龙江省,哈尔滨市,巴彦县,丰乐乡","lng":127.15075515833098,"lat":46.25523989137099,"info":"直接检索POI第一个结果成功!","tag":["行政地标","乡镇"]},{"name":"德祥乡","code":"230126209","level":4,"mergeName":"黑龙江省,哈尔滨市,巴彦县,德祥乡","lng":127.20671465092265,"lat":46.502292331358476,"info":"直接检索POI第一个结果成功!","tag":["行政地标","乡镇"]},{"name":"红光乡","code":"230126210","level":4,"mergeName":"黑龙江省,哈尔滨市,巴彦县,红光乡","lng":126.98156048332275,"lat":46.4331917750442,"info":"直接检索POI第一个结果成功!","tag":["行政地标","乡镇"]},{"name":"山后乡","code":"230126212","level":4,"mergeName":"黑龙江省,哈尔滨市,巴彦县,山后乡","lng":127.41204132947567,"lat":46.596536933476244,"info":"直接检索POI第一个结果成功!","tag":["行政地标","乡镇"]},{"name":"镇东乡","code":"230126214","level":4,"mergeName":"黑龙江省,哈尔滨市,巴彦县,镇东乡","lng":127.49058431241887,"lat":46.29555613944619,"info":"直接检索POI第一个结果成功!","tag":["行政地标","乡镇"]},{"name":"兴隆林业局","code":"230126400","level":4,"mergeName":"黑龙江省,哈尔滨市,巴彦县,兴隆林业局","lng":127.13390330628589,"lat":46.44665186276741,"info":"直接检索POI第一个结果成功!","tag":["政府机构","各级政府"]},{"name":"工业园区","code":"230126401","level":4,"mergeName":"黑龙江省,哈尔滨市,巴彦县,工业园区","lng":126.57491320946905,"lat":45.58516122082251,"info":"直接检索POI第一个结果成功!","tag":""},{"name":"木兰县","code":"230127","level":3,"mergeName":"黑龙江省,哈尔滨市,木兰县","lng":128.05036024689588,"lat":45.956871946006125,"info":"直接检索POI第一个结果成功!","tag":""},{"name":"木兰镇","code":"230127100","level":4,"mergeName":"黑龙江省,哈尔滨市,木兰县,木兰镇","lng":128.05517705087095,"lat":45.95635948140546,"info":"直接检索POI第一个结果成功!","tag":["行政地标","乡镇"]},{"name":"东兴镇","code":"230127101","level":4,"mergeName":"黑龙江省,哈尔滨市,木兰县,东兴镇","lng":127.87831120612964,"lat":46.38842434959996,"info":"直接检索POI第一个结果成功!","tag":["行政地标","乡镇"]},{"name":"大贵镇","code":"230127102","level":4,"mergeName":"黑龙江省,哈尔滨市,木兰县,大贵镇","lng":127.81973701569005,"lat":46.25133755889503,"info":"直接检索POI第一个结果成功!","tag":["行政地标","乡镇"]},{"name":"利东镇","code":"230127103","level":4,"mergeName":"黑龙江省,哈尔滨市,木兰县,利东镇","lng":127.90253805658114,"lat":46.08733940765899,"info":"直接检索POI第一个结果成功!","tag":["行政地标","乡镇"]},{"name":"柳河镇","code":"230127104","level":4,"mergeName":"黑龙江省,哈尔滨市,木兰县,柳河镇","lng":127.73848321620937,"lat":46.017842766701534,"info":"直接检索POI第一个结果成功!","tag":["行政地标","乡镇"]},{"name":"新民镇","code":"230127105","level":4,"mergeName":"黑龙江省,哈尔滨市,木兰县,新民镇","lng":127.83091103792874,"lat":46.327159280230624,"info":"直接检索POI第一个结果成功!","tag":["行政地标","乡镇"]},{"name":"建国乡","code":"230127200","level":4,"mergeName":"黑龙江省,哈尔滨市,木兰县,建国乡","lng":128.07950936238933,"lat":46.00163574982224,"info":"直接检索POI第一个结果成功!","tag":["行政地标","乡镇"]},{"name":"吉兴乡","code":"230127203","level":4,"mergeName":"黑龙江省,哈尔滨市,木兰县,吉兴乡","lng":127.92658102389476,"lat":46.016875860508534,"info":"直接检索POI第一个结果成功!","tag":["行政地标","乡镇"]},{"name":"兴隆林业局","code":"230127400","level":4,"mergeName":"黑龙江省,哈尔滨市,木兰县,兴隆林业局","lng":127.13390330628589,"lat":46.44665186276741,"info":"直接检索POI第一个结果成功!","tag":["政府机构","各级政府"]},{"name":"通河县","code":"230128","level":3,"mergeName":"黑龙江省,哈尔滨市,通河县","lng":128.75241295211333,"lat":45.996393592694446,"info":"直接检索POI第一个结果成功!","tag":""},{"name":"通河镇","code":"230128100","level":4,"mergeName":"黑龙江省,哈尔滨市,通河县,通河镇","lng":128.77249825484162,"lat":45.98109124843915,"info":"直接检索POI第一个结果成功!","tag":["行政地标","乡镇"]},{"name":"乌鸦泡镇","code":"230128101","level":4,"mergeName":"黑龙江省,哈尔滨市,通河县,乌鸦泡镇","lng":128.8808711790243,"lat":45.98161431736584,"info":"直接检索POI第一个结果成功!","tag":["行政地标","乡镇"]},{"name":"清河镇","code":"230128102","level":4,"mergeName":"黑龙江省,哈尔滨市,通河县,清河镇","lng":129.32095248565406,"lat":46.178439077556305,"info":"直接检索POI第一个结果成功!","tag":["行政地标","乡镇"]},{"name":"浓河镇","code":"230128103","level":4,"mergeName":"黑龙江省,哈尔滨市,通河县,浓河镇","lng":128.38841354082106,"lat":46.009340118449686,"info":"直接检索POI第一个结果成功!","tag":["行政地标","乡镇"]},{"name":"凤山镇","code":"230128104","level":4,"mergeName":"黑龙江省,哈尔滨市,通河县,凤山镇","lng":128.57934676001815,"lat":46.26764031149628,"info":"直接检索POI第一个结果成功!","tag":["行政地标","乡镇"]},{"name":"祥顺镇","code":"230128105","level":4,"mergeName":"黑龙江省,哈尔滨市,通河县,祥顺镇","lng":129.13574506577763,"lat":46.07190583139328,"info":"直接检索POI第一个结果成功!","tag":["行政地标","乡镇"]},{"name":"富林镇","code":"230128106","level":4,"mergeName":"黑龙江省,哈尔滨市,通河县,富林镇","lng":128.56404170023072,"lat":46.0269310658438,"info":"直接检索POI第一个结果成功!","tag":["行政地标","乡镇"]},{"name":"三站镇","code":"230128107","level":4,"mergeName":"黑龙江省,哈尔滨市,通河县,三站镇","lng":128.86860778169364,"lat":46.02608916093796,"info":"直接检索POI第一个结果成功!","tag":["行政地标","乡镇"]},{"name":"清河林业局","code":"230128400","level":4,"mergeName":"黑龙江省,哈尔滨市,通河县,清河林业局","lng":129.31667143108513,"lat":46.19328353542513,"info":"直接检索POI第一个结果成功!","tag":""},{"name":"兴隆林业局","code":"230128401","level":4,"mergeName":"黑龙江省,哈尔滨市,通河县,兴隆林业局","lng":127.13390330628589,"lat":46.44665186276741,"info":"直接检索POI第一个结果成功!","tag":["政府机构","各级政府"]},{"name":"岔林河农场","code":"230128500","level":4,"mergeName":"黑龙江省,哈尔滨市,通河县,岔林河农场","lng":128.91876179526597,"lat":46.007109398150014,"info":"直接检索POI第一个结果成功!","tag":["公司企业","农林园艺"]},{"name":"延寿县","code":"230129","level":3,"mergeName":"黑龙江省,哈尔滨市,延寿县","lng":128.3386085189394,"lat":45.45764189115257,"info":"直接检索POI第一个结果成功!","tag":""},{"name":"延寿镇","code":"230129100","level":4,"mergeName":"黑龙江省,哈尔滨市,延寿县,延寿镇","lng":128.31762958188978,"lat":45.45189006654563,"info":"直接检索POI第一个结果成功!","tag":["行政地标","乡镇"]},{"name":"六团镇","code":"230129101","level":4,"mergeName":"黑龙江省,哈尔滨市,延寿县,六团镇","lng":128.49559881528901,"lat":45.58340504971723,"info":"直接检索POI第一个结果成功!","tag":["行政地标","乡镇"]},{"name":"中和镇","code":"230129102","level":4,"mergeName":"黑龙江省,哈尔滨市,延寿县,中和镇","lng":128.78734499915785,"lat":45.509762989581134,"info":"直接检索POI第一个结果成功!","tag":["行政地标","乡镇"]},{"name":"加信镇","code":"230129103","level":4,"mergeName":"黑龙江省,哈尔滨市,延寿县,加信镇","lng":128.72404688953293,"lat":45.67279100803282,"info":"直接检索POI第一个结果成功!","tag":["行政地标","乡镇"]},{"name":"延河镇","code":"230129104","level":4,"mergeName":"黑龙江省,哈尔滨市,延寿县,延河镇","lng":128.15173114911988,"lat":45.39525265035031,"info":"直接检索POI第一个结果成功!","tag":["行政地标","乡镇"]},{"name":"玉河镇","code":"230129105","level":4,"mergeName":"黑龙江省,哈尔滨市,延寿县,玉河镇","lng":128.3841054472563,"lat":45.40008631021299,"info":"直接检索POI第一个结果成功!","tag":["名称标注类"]},{"name":"安山乡","code":"230129204","level":4,"mergeName":"黑龙江省,哈尔滨市,延寿县,安山乡","lng":128.5288833700282,"lat":45.51888819978453,"info":"直接检索POI第一个结果成功!","tag":["行政地标","乡镇"]},{"name":"寿山乡","code":"230129205","level":4,"mergeName":"黑龙江省,哈尔滨市,延寿县,寿山乡","lng":128.45380820567576,"lat":45.45335068155077,"info":"直接检索POI第一个结果成功!","tag":["行政地标","乡镇"]},{"name":"青川乡","code":"230129209","level":4,"mergeName":"黑龙江省,哈尔滨市,延寿县,青川乡","lng":128.11975668313642,"lat":45.452486431507786,"info":"直接检索POI第一个结果成功!","tag":["名称标注类"]},{"name":"太平川","code":"230129400","level":4,"mergeName":"黑龙江省,哈尔滨市,延寿县,太平川","lng":128.3344013050834,"lat":45.64325844940269,"info":"直接检索POI第一个结果成功!","tag":""},{"name":"庆阳农场","code":"230129500","level":4,"mergeName":"黑龙江省,哈尔滨市,延寿县,庆阳农场","lng":128.82833458974787,"lat":45.518818921427886,"info":"直接检索POI第一个结果成功!","tag":""},{"name":"尚志市","code":"230183","level":3,"mergeName":"黑龙江省,哈尔滨市,尚志市","lng":128.0154880269983,"lat":45.215474703800155,"info":"直接检索POI第一个结果成功!","tag":""},{"name":"尚志镇","code":"230183100","level":4,"mergeName":"黑龙江省,哈尔滨市,尚志市,尚志镇","lng":127.9682192808935,"lat":45.219455094285415,"info":"直接检索POI第一个结果成功!","tag":["行政地标","乡镇"]},{"name":"一面坡镇","code":"230183101","level":4,"mergeName":"黑龙江省,哈尔滨市,尚志市,一面坡镇","lng":128.08576228738323,"lat":45.06615376613916,"info":"直接检索POI第一个结果成功!","tag":""},{"name":"苇河镇","code":"230183102","level":4,"mergeName":"黑龙江省,哈尔滨市,尚志市,苇河镇","lng":128.39036583787106,"lat":44.96243200736678,"info":"直接检索POI第一个结果成功!","tag":["行政地标","乡镇"]},{"name":"亚布力镇","code":"230183103","level":4,"mergeName":"黑龙江省,哈尔滨市,尚志市,亚布力镇","lng":128.6003887677984,"lat":44.938072747595164,"info":"直接检索POI第一个结果成功!","tag":["行政地标","乡镇"]},{"name":"帽儿山镇","code":"230183104","level":4,"mergeName":"黑龙江省,哈尔滨市,尚志市,帽儿山镇","lng":127.51918528189015,"lat":45.281783886110674,"info":"直接检索POI第一个结果成功!","tag":["行政地标","乡镇"]},{"name":"亮河镇","code":"230183105","level":4,"mergeName":"黑龙江省,哈尔滨市,尚志市,亮河镇","lng":128.77507297809433,"lat":45.16938319638344,"info":"直接检索POI第一个结果成功!","tag":["行政地标","乡镇"]},{"name":"庆阳镇","code":"230183106","level":4,"mergeName":"黑龙江省,哈尔滨市,尚志市,庆阳镇","lng":128.79716329872087,"lat":45.375169842254344,"info":"直接检索POI第一个结果成功!","tag":["行政地标","乡镇"]},{"name":"石头河子镇","code":"230183107","level":4,"mergeName":"黑龙江省,哈尔滨市,尚志市,石头河子镇","lng":128.7052351242093,"lat":44.87582158148162,"info":"直接检索POI第一个结果成功!","tag":["名称标注类"]},{"name":"元宝镇","code":"230183108","level":4,"mergeName":"黑龙江省,哈尔滨市,尚志市,元宝镇","lng":128.28446063906972,"lat":45.26520882131829,"info":"直接检索POI第一个结果成功!","tag":["行政地标","乡镇"]},{"name":"黑龙宫镇","code":"230183109","level":4,"mergeName":"黑龙江省,哈尔滨市,尚志市,黑龙宫镇","lng":127.90788405233215,"lat":45.43578321986095,"info":"直接检索POI第一个结果成功!","tag":["行政地标","乡镇"]},{"name":"长寿乡","code":"230183202","level":4,"mergeName":"黑龙江省,哈尔滨市,尚志市,长寿乡","lng":127.94504147161656,"lat":45.269582357352384,"info":"直接检索POI第一个结果成功!","tag":["行政地标","乡镇"]},{"name":"乌吉密乡","code":"230183204","level":4,"mergeName":"黑龙江省,哈尔滨市,尚志市,乌吉密乡","lng":127.86860735068859,"lat":45.22272295590738,"info":"直接检索POI第一个结果成功!","tag":["行政地标","乡镇"]},{"name":"鱼池乡","code":"230183206","level":4,"mergeName":"黑龙江省,哈尔滨市,尚志市,鱼池乡","lng":128.77708707856095,"lat":44.945065469758205,"info":"直接检索POI第一个结果成功!","tag":["政府机构"]},{"name":"珍珠山乡","code":"230183207","level":4,"mergeName":"黑龙江省,哈尔滨市,尚志市,珍珠山乡","lng":128.35009731711415,"lat":44.90271620558936,"info":"直接检索POI第一个结果成功!","tag":["行政地标","乡镇"]},{"name":"老街基乡","code":"230183208","level":4,"mergeName":"黑龙江省,哈尔滨市,尚志市,老街基乡","lng":127.97350563884642,"lat":44.97637574086098,"info":"直接检索POI第一个结果成功!","tag":["行政地标","乡镇"]},{"name":"马延乡","code":"230183209","level":4,"mergeName":"黑龙江省,哈尔滨市,尚志市,马延乡","lng":128.0560878428275,"lat":45.14629270846715,"info":"直接检索POI第一个结果成功!","tag":["行政地标","乡镇"]},{"name":"河东乡","code":"230183211","level":4,"mergeName":"黑龙江省,哈尔滨市,尚志市,河东乡","lng":128.04692943849213,"lat":45.26413974516459,"info":"直接检索POI第一个结果成功!","tag":["行政地标","乡镇"]},{"name":"苇河林业局","code":"230183400","level":4,"mergeName":"黑龙江省,哈尔滨市,尚志市,苇河林业局","lng":128.39858102142088,"lat":44.94744475590997,"info":"直接检索POI第一个结果成功!","tag":""},{"name":"亚布力林业局","code":"230183401","level":4,"mergeName":"黑龙江省,哈尔滨市,尚志市,亚布力林业局","lng":128.63174996061,"lat":44.948918785351694,"info":"直接检索POI第一个结果成功!","tag":["政府机构","各级政府"]},{"name":"哈尔滨市政府亚布力滑雪旅游度假区管理委员会","code":"230183402","level":4,"mergeName":"黑龙江省,哈尔滨市,尚志市,哈尔滨市政府亚布力滑雪旅游度假区管理委员会","lng":128.4889312421562,"lat":44.79592340960977,"info":"直接检索POI第一个结果成功!","tag":["<font color=\"#c60a00\">政府</font>机构"]},{"name":"五常市","code":"230184","level":3,"mergeName":"黑龙江省,哈尔滨市,五常市","lng":127.17353323134876,"lat":44.937842345327205,"info":"直接检索POI第一个结果成功!","tag":""},{"name":"五常镇","code":"230184100","level":4,"mergeName":"黑龙江省,哈尔滨市,五常市,五常镇","lng":127.16327521123867,"lat":44.91937121375131,"info":"直接检索POI第一个结果成功!","tag":["行政地标","乡镇"]},{"name":"拉林满族镇","code":"230184101","level":4,"mergeName":"黑龙江省,哈尔滨市,五常市,拉林满族镇","lng":126.87654928785005,"lat":45.2448691739686,"info":"直接检索POI第一个结果成功!","tag":["行政地标","乡镇"]},{"name":"山河镇","code":"230184102","level":4,"mergeName":"黑龙江省,哈尔滨市,五常市,山河镇","lng":127.21855001537028,"lat":44.71993234525367,"info":"直接检索POI第一个结果成功!","tag":["行政地标","乡镇"]},{"name":"小山子镇","code":"230184103","level":4,"mergeName":"黑龙江省,哈尔滨市,五常市,小山子镇","lng":127.61311103773743,"lat":44.91225539649675,"info":"直接检索POI第一个结果成功!","tag":["行政地标","乡镇"]},{"name":"安家镇","code":"230184104","level":4,"mergeName":"黑龙江省,哈尔滨市,五常市,安家镇","lng":127.07740186598005,"lat":45.063842594394764,"info":"直接检索POI第一个结果成功!","tag":["行政地标","乡镇"]},{"name":"牛家满族镇","code":"230184105","level":4,"mergeName":"黑龙江省,哈尔滨市,五常市,牛家满族镇","lng":126.7556079916161,"lat":45.359885367206665,"info":"直接检索POI第一个结果成功!","tag":["行政地标","乡镇"]},{"name":"杜家镇","code":"230184106","level":4,"mergeName":"黑龙江省,哈尔滨市,五常市,杜家镇","lng":127.2097512027306,"lat":44.822646804047395,"info":"直接检索POI第一个结果成功!","tag":["行政地标","乡镇"]},{"name":"背荫河镇","code":"230184107","level":4,"mergeName":"黑龙江省,哈尔滨市,五常市,背荫河镇","lng":127.0080334568714,"lat":45.17843844659918,"info":"直接检索POI第一个结果成功!","tag":["行政地标","乡镇"]},{"name":"冲河镇","code":"230184108","level":4,"mergeName":"黑龙江省,哈尔滨市,五常市,冲河镇","lng":127.7433709061784,"lat":44.675149109395164,"info":"直接检索POI第一个结果成功!","tag":["行政地标","乡镇"]},{"name":"沙河子镇","code":"230184109","level":4,"mergeName":"黑龙江省,哈尔滨市,五常市,沙河子镇","lng":127.62484021278122,"lat":44.45787156301218,"info":"直接检索POI第一个结果成功!","tag":["行政地标","乡镇"]},{"name":"向阳镇","code":"230184110","level":4,"mergeName":"黑龙江省,哈尔滨市,五常市,向阳镇","lng":127.43419067846537,"lat":44.63363303536461,"info":"直接检索POI第一个结果成功!","tag":["行政地标","乡镇"]},{"name":"龙凤山镇","code":"230184111","level":4,"mergeName":"黑龙江省,哈尔滨市,五常市,龙凤山镇","lng":127.55711669089231,"lat":44.86983348365355,"info":"直接检索POI第一个结果成功!","tag":["行政地标","乡镇"]},{"name":"兴盛乡","code":"230184200","level":4,"mergeName":"黑龙江省,哈尔滨市,五常市,兴盛乡","lng":127.07359853997472,"lat":44.88017661479502,"info":"直接检索POI第一个结果成功!","tag":["行政地标","乡镇"]},{"name":"志广乡","code":"230184201","level":4,"mergeName":"黑龙江省,哈尔滨市,五常市,志广乡","lng":127.47540385729654,"lat":44.97802449216878,"info":"直接检索POI第一个结果成功!","tag":["行政地标","乡镇"]},{"name":"卫国乡","code":"230184202","level":4,"mergeName":"黑龙江省,哈尔滨市,五常市,卫国乡","lng":127.36222813301386,"lat":45.03224683405811,"info":"直接检索POI第一个结果成功!","tag":["行政地标","乡镇"]},{"name":"常堡乡","code":"230184203","level":4,"mergeName":"黑龙江省,哈尔滨市,五常市,常堡乡","lng":127.22624749576228,"lat":45.046331981759664,"info":"直接检索POI第一个结果成功!","tag":["行政地标","乡镇"]},{"name":"民意乡","code":"230184206","level":4,"mergeName":"黑龙江省,哈尔滨市,五常市,民意乡","lng":127.30150799023345,"lat":44.93137379346101,"info":"直接检索POI第一个结果成功!","tag":["行政地标","乡镇"]},{"name":"红旗满族乡","code":"230184209","level":4,"mergeName":"黑龙江省,哈尔滨市,五常市,红旗满族乡","lng":126.53414280542347,"lat":45.58642162317658,"info":"直接检索POI第一个结果成功!","tag":""},{"name":"八家子乡","code":"230184210","level":4,"mergeName":"黑龙江省,哈尔滨市,五常市,八家子乡","lng":127.05516215714718,"lat":45.238351184538764,"info":"直接检索POI第一个结果成功!","tag":["名称标注类"]},{"name":"民乐朝鲜族乡","code":"230184211","level":4,"mergeName":"黑龙江省,哈尔滨市,五常市,民乐朝鲜族乡","lng":127.07021524223909,"lat":45.061605564566534,"info":"直接检索POI第一个结果成功!","tag":["行政地标","乡镇"]},{"name":"营城子满族乡","code":"230184212","level":4,"mergeName":"黑龙江省,哈尔滨市,五常市,营城子满族乡","lng":126.96613415229145,"lat":45.17604524632732,"info":"直接检索POI第一个结果成功!","tag":["行政地标","乡镇"]},{"name":"长山乡","code":"230184214","level":4,"mergeName":"黑龙江省,哈尔滨市,五常市,长山乡","lng":127.11008986572325,"lat":44.69057990792236,"info":"直接检索POI第一个结果成功!","tag":["行政地标","乡镇"]},{"name":"兴隆乡","code":"230184215","level":4,"mergeName":"黑龙江省,哈尔滨市,五常市,兴隆乡","lng":126.91002527149345,"lat":45.30400601309174,"info":"直接检索POI第一个结果成功!","tag":["行政地标","乡镇"]},{"name":"二河乡","code":"230184216","level":4,"mergeName":"黑龙江省,哈尔滨市,五常市,二河乡","lng":127.32452714906535,"lat":45.091245405442145,"info":"直接检索POI第一个结果成功!","tag":["行政地标","乡镇"]},{"name":"山河屯林业局","code":"230184400","level":4,"mergeName":"黑龙江省,哈尔滨市,五常市,山河屯林业局","lng":127.23680924265774,"lat":44.716709110161126,"info":"直接检索POI第一个结果成功!","tag":["政府机构"]},{"name":"齐齐哈尔市","code":"2302","level":2,"mergeName":"黑龙江省,齐齐哈尔市","lng":123.92456880231268,"lat":47.35997791850246,"info":"直接检索POI第一个结果成功!","tag":""},{"name":"龙沙区","code":"230202","level":3,"mergeName":"黑龙江省,齐齐哈尔市,龙沙区","lng":123.96437271946004,"lat":47.323575939019,"info":"直接检索POI第一个结果成功!","tag":""},{"name":"五龙街道","code":"230202001","level":4,"mergeName":"黑龙江省,齐齐哈尔市,龙沙区,五龙街道","lng":123.94811303040716,"lat":47.34142598734518,"info":"直接检索POI第一个结果成功!","tag":["行政地标","乡镇"]},{"name":"湖滨街道","code":"230202002","level":4,"mergeName":"黑龙江省,齐齐哈尔市,龙沙区,湖滨街道","lng":123.93563296178749,"lat":47.33930580418254,"info":"直接检索POI第一个结果成功!","tag":""},{"name":"江安街道","code":"230202003","level":4,"mergeName":"黑龙江省,齐齐哈尔市,龙沙区,江安街道","lng":123.93263127392588,"lat":47.33187969417722,"info":"直接检索POI第一个结果成功!","tag":""},{"name":"正阳街道","code":"230202004","level":4,"mergeName":"黑龙江省,齐齐哈尔市,龙沙区,正阳街道","lng":123.9717815839842,"lat":47.34863675332229,"info":"直接检索POI第一个结果成功!","tag":["行政地标","乡镇"]},{"name":"彩虹街道","code":"230202005","level":4,"mergeName":"黑龙江省,齐齐哈尔市,龙沙区,彩虹街道","lng":123.97540570773366,"lat":47.324212297461706,"info":"直接检索POI第一个结果成功!","tag":""},{"name":"南航街道","code":"230202006","level":4,"mergeName":"黑龙江省,齐齐哈尔市,龙沙区,南航街道","lng":123.95994479194025,"lat":47.31746850925659,"info":"直接检索POI第一个结果成功!","tag":["行政地标","乡镇"]},{"name":"大民街道","code":"230202007","level":4,"mergeName":"黑龙江省,齐齐哈尔市,龙沙区,大民街道","lng":123.91474888579974,"lat":47.27451795733648,"info":"直接检索POI第一个结果成功!","tag":["名称标注类"]},{"name":"齐齐哈尔局直","code":"230202579","level":4,"mergeName":"黑龙江省,齐齐哈尔市,龙沙区,齐齐哈尔局直","lng":123.92298311342645,"lat":47.323514733855276,"info":"直接检索POI第一个结果成功!","tag":""},{"name":"建华区","code":"230203","level":3,"mergeName":"黑龙江省,齐齐哈尔市,建华区","lng":123.9613544129465,"lat":47.36055474896642,"info":"直接检索POI第一个结果成功!","tag":""},{"name":"中华街道","code":"230203002","level":4,"mergeName":"黑龙江省,齐齐哈尔市,建华区,中华街道","lng":123.97017056288259,"lat":47.357411159637856,"info":"直接检索POI第一个结果成功!","tag":["行政地标","乡镇"]},{"name":"西大桥街道","code":"230203004","level":4,"mergeName":"黑龙江省,齐齐哈尔市,建华区,西大桥街道","lng":123.97080818013357,"lat":47.36181710045829,"info":"直接检索POI第一个结果成功!","tag":["行政地标","乡镇"]},{"name":"卜奎街道","code":"230203005","level":4,"mergeName":"黑龙江省,齐齐哈尔市,建华区,卜奎街道","lng":123.96070116517964,"lat":47.36072132665706,"info":"直接检索POI第一个结果成功!","tag":["行政地标","乡镇"]},{"name":"建设街道","code":"230203006","level":4,"mergeName":"黑龙江省,齐齐哈尔市,建华区,建设街道","lng":123.98837975455326,"lat":47.35831447482161,"info":"直接检索POI第一个结果成功!","tag":""},{"name":"文化街道","code":"230203007","level":4,"mergeName":"黑龙江省,齐齐哈尔市,建华区,文化街道","lng":123.94047204373922,"lat":47.37192122606273,"info":"直接检索POI第一个结果成功!","tag":["行政地标","乡镇"]},{"name":"区直辖村级区划","code":"230203198","level":4,"mergeName":"黑龙江省,齐齐哈尔市,建华区,区直辖村级区划","lng":123.96135010108006,"lat":47.360554871046276,"info":"检索POI失败,BMAP_STATUE_CODE:2 ,GetPoint结果: 直接查询获得"},{"name":"铁锋区","code":"230204","level":3,"mergeName":"黑龙江省,齐齐哈尔市,铁锋区","lng":123.98441391538779,"lat":47.34701739843531,"info":"直接检索POI第一个结果成功!","tag":""},{"name":"站前街道","code":"230204001","level":4,"mergeName":"黑龙江省,齐齐哈尔市,铁锋区,站前街道","lng":123.99312711951242,"lat":47.344256082493466,"info":"直接检索POI第一个结果成功!","tag":""},{"name":"南浦街道","code":"230204002","level":4,"mergeName":"黑龙江省,齐齐哈尔市,铁锋区,南浦街道","lng":124.02068686306706,"lat":47.33276085235444,"info":"直接检索POI第一个结果成功!","tag":["行政地标","乡镇"]},{"name":"通东街道","code":"230204003","level":4,"mergeName":"黑龙江省,齐齐哈尔市,铁锋区,通东街道","lng":124.01408341926317,"lat":47.3448660573282,"info":"直接检索POI第一个结果成功!","tag":["行政地标","乡镇"]},{"name":"光荣街道","code":"230204004","level":4,"mergeName":"黑龙江省,齐齐哈尔市,铁锋区,光荣街道","lng":124.03204090572994,"lat":47.35145608090077,"info":"直接检索POI第一个结果成功!","tag":["行政地标","乡镇"]},{"name":"龙华街道","code":"230204005","level":4,"mergeName":"黑龙江省,齐齐哈尔市,铁锋区,龙华街道","lng":123.98374297100239,"lat":47.34562970651545,"info":"直接检索POI第一个结果成功!","tag":""},{"name":"北局宅街道","code":"230204006","level":4,"mergeName":"黑龙江省,齐齐哈尔市,铁锋区,北局宅街道","lng":124.00395152124662,"lat":47.359241153326444,"info":"直接检索POI第一个结果成功!","tag":""},{"name":"东湖街道","code":"230204008","level":4,"mergeName":"黑龙江省,齐齐哈尔市,铁锋区,东湖街道","lng":124.01397292768544,"lat":47.34482734642332,"info":"直接检索POI第一个结果成功!","tag":["行政地标","乡镇"]},{"name":"扎龙镇","code":"230204100","level":4,"mergeName":"黑龙江省,齐齐哈尔市,铁锋区,扎龙镇","lng":124.05807793161462,"lat":47.34646130032612,"info":"直接检索POI第一个结果成功!","tag":["名称标注类"]},{"name":"齐齐哈尔种畜场","code":"230204500","level":4,"mergeName":"黑龙江省,齐齐哈尔市,铁锋区,齐齐哈尔种畜场","lng":124.14607602920316,"lat":47.36335451453039,"info":"直接检索POI第一个结果成功!","tag":["公司企业","农林园艺"]},{"name":"昂昂溪区","code":"230205","level":3,"mergeName":"黑龙江省,齐齐哈尔市,昂昂溪区","lng":123.82940231658502,"lat":47.161330895653634,"info":"直接检索POI第一个结果成功!","tag":""},{"name":"新兴街道","code":"230205001","level":4,"mergeName":"黑龙江省,齐齐哈尔市,昂昂溪区,新兴街道","lng":123.81725776507335,"lat":47.15929290522553,"info":"直接检索POI第一个结果成功!","tag":["行政地标","乡镇"]},{"name":"新建街道","code":"230205002","level":4,"mergeName":"黑龙江省,齐齐哈尔市,昂昂溪区,新建街道","lng":123.81190880491414,"lat":47.1608494220741,"info":"直接检索POI第一个结果成功!","tag":["行政地标","乡镇"]},{"name":"林机街道","code":"230205005","level":4,"mergeName":"黑龙江省,齐齐哈尔市,昂昂溪区,林机街道","lng":123.97162069746734,"lat":47.26219141892657,"info":"直接检索POI第一个结果成功!","tag":["行政地标","乡镇"]},{"name":"道北街道","code":"230205006","level":4,"mergeName":"黑龙江省,齐齐哈尔市,昂昂溪区,道北街道","lng":123.8253886875664,"lat":47.168909083828545,"info":"直接检索POI第一个结果成功!","tag":""},{"name":"水师营满族镇","code":"230205100","level":4,"mergeName":"黑龙江省,齐齐哈尔市,昂昂溪区,水师营满族镇","lng":124.00111512159884,"lat":47.25738458990357,"info":"直接检索POI第一个结果成功!","tag":["行政地标","乡镇"]},{"name":"榆树屯镇","code":"230205101","level":4,"mergeName":"黑龙江省,齐齐哈尔市,昂昂溪区,榆树屯镇","lng":123.81618402049726,"lat":47.144107305409285,"info":"直接检索POI第一个结果成功!","tag":["行政地标","乡镇"]},{"name":"富拉尔基区","code":"230206","level":3,"mergeName":"黑龙江省,齐齐哈尔市,富拉尔基区","lng":123.63650917442625,"lat":47.21550383795653,"info":"直接检索POI第一个结果成功!","tag":""},{"name":"红岸街道","code":"230206001","level":4,"mergeName":"黑龙江省,齐齐哈尔市,富拉尔基区,红岸街道","lng":123.6586031781054,"lat":47.20975701677123,"info":"直接检索POI第一个结果成功!","tag":""},{"name":"沿江街道","code":"230206003","level":4,"mergeName":"黑龙江省,齐齐哈尔市,富拉尔基区,沿江街道","lng":123.65049201833355,"lat":47.20168063466962,"info":"直接检索POI第一个结果成功!","tag":["行政地标","乡镇"]},{"name":"电力街道","code":"230206004","level":4,"mergeName":"黑龙江省,齐齐哈尔市,富拉尔基区,电力街道","lng":123.61223336632445,"lat":47.19310089375118,"info":"直接检索POI第一个结果成功!","tag":""},{"name":"幸福街道","code":"230206005","level":4,"mergeName":"黑龙江省,齐齐哈尔市,富拉尔基区,幸福街道","lng":123.60352932491601,"lat":47.216370605761426,"info":"直接检索POI第一个结果成功!","tag":""},{"name":"红宝石街道","code":"230206006","level":4,"mergeName":"黑龙江省,齐齐哈尔市,富拉尔基区,红宝石街道","lng":123.63617482511542,"lat":47.21833961713112,"info":"直接检索POI第一个结果成功!","tag":""},{"name":"北兴街道","code":"230206007","level":4,"mergeName":"黑龙江省,齐齐哈尔市,富拉尔基区,北兴街道","lng":123.63740029349214,"lat":47.22201957984425,"info":"直接检索POI第一个结果成功!","tag":["行政地标","乡镇"]},{"name":"铁北街道","code":"230206008","level":4,"mergeName":"黑龙江省,齐齐哈尔市,富拉尔基区,铁北街道","lng":123.66838976748392,"lat":47.216254250005115,"info":"直接检索POI第一个结果成功!","tag":""},{"name":"和平街道","code":"230206009","level":4,"mergeName":"黑龙江省,齐齐哈尔市,富拉尔基区,和平街道","lng":123.60089630163571,"lat":47.24535024144949,"info":"直接检索POI第一个结果成功!","tag":""},{"name":"长青乡","code":"230206200","level":4,"mergeName":"黑龙江省,齐齐哈尔市,富拉尔基区,长青乡","lng":123.64146970728294,"lat":47.21001112074895,"info":"直接检索POI第一个结果成功!","tag":["行政地标","乡镇"]},{"name":"杜尔门沁达斡尔族乡","code":"230206202","level":4,"mergeName":"黑龙江省,齐齐哈尔市,富拉尔基区,杜尔门沁达斡尔族乡","lng":123.58300681689603,"lat":47.17717871620582,"info":"直接检索POI第一个结果成功!","tag":["行政地标","乡镇"]},{"name":"碾子山区","code":"230207","level":3,"mergeName":"黑龙江省,齐齐哈尔市,碾子山区","lng":122.89436509429821,"lat":47.52323550707935,"info":"直接检索POI第一个结果成功!","tag":""},{"name":"东安街道","code":"230207001","level":4,"mergeName":"黑龙江省,齐齐哈尔市,碾子山区,东安街道","lng":122.95053649715967,"lat":47.50924305180464,"info":"直接检索POI第一个结果成功!","tag":""},{"name":"富强街道","code":"230207002","level":4,"mergeName":"黑龙江省,齐齐哈尔市,碾子山区,富强街道","lng":122.89777326540309,"lat":47.516911195805264,"info":"直接检索POI第一个结果成功!","tag":["行政地标","乡镇"]},{"name":"跃进街道","code":"230207003","level":4,"mergeName":"黑龙江省,齐齐哈尔市,碾子山区,跃进街道","lng":122.88706887728502,"lat":47.516885696432865,"info":"直接检索POI第一个结果成功!","tag":["行政地标","乡镇"]},{"name":"繁荣街道","code":"230207004","level":4,"mergeName":"黑龙江省,齐齐哈尔市,碾子山区,繁荣街道","lng":122.89896468800097,"lat":47.523521137580644,"info":"直接检索POI第一个结果成功!","tag":["政府机构","各级政府"]},{"name":"梅里斯达斡尔族区","code":"230208","level":3,"mergeName":"黑龙江省,齐齐哈尔市,梅里斯达斡尔族区","lng":123.7595410970736,"lat":47.31554902424659,"info":"直接检索POI第一个结果成功!","tag":""},{"name":"梅里斯街道","code":"230208001","level":4,"mergeName":"黑龙江省,齐齐哈尔市,梅里斯达斡尔族区,梅里斯街道","lng":123.76088065025007,"lat":47.31743417662731,"info":"直接检索POI第一个结果成功!","tag":["行政地标","乡镇"]},{"name":"雅尔塞镇","code":"230208101","level":4,"mergeName":"黑龙江省,齐齐哈尔市,梅里斯达斡尔族区,雅尔塞镇","lng":123.91231861007304,"lat":47.451879869246554,"info":"直接检索POI第一个结果成功!","tag":["行政地标","乡镇"]},{"name":"卧牛吐达斡尔族镇","code":"230208102","level":4,"mergeName":"黑龙江省,齐齐哈尔市,梅里斯达斡尔族区,卧牛吐达斡尔族镇","lng":124.00991025118599,"lat":47.57654527400475,"info":"直接检索POI第一个结果成功!","tag":["行政地标","乡镇"]},{"name":"达呼店镇","code":"230208103","level":4,"mergeName":"黑龙江省,齐齐哈尔市,梅里斯达斡尔族区,达呼店镇","lng":123.83499705313176,"lat":47.53147994836571,"info":"直接检索POI第一个结果成功!","tag":["名称标注类"]},{"name":"共和镇","code":"230208104","level":4,"mergeName":"黑龙江省,齐齐哈尔市,梅里斯达斡尔族区,共和镇","lng":123.69340155729004,"lat":47.4569833516495,"info":"直接检索POI第一个结果成功!","tag":["行政地标","乡镇"]},{"name":"梅里斯镇","code":"230208105","level":4,"mergeName":"黑龙江省,齐齐哈尔市,梅里斯达斡尔族区,梅里斯镇","lng":123.765462008351,"lat":47.31862102182672,"info":"直接检索POI第一个结果成功!","tag":""},{"name":"莽格吐达斡尔族乡","code":"230208200","level":4,"mergeName":"黑龙江省,齐齐哈尔市,梅里斯达斡尔族区,莽格吐达斡尔族乡","lng":124.14646041413089,"lat":47.7915374574185,"info":"直接检索POI第一个结果成功!","tag":["行政地标","乡镇"]},{"name":"龙江县","code":"230221","level":3,"mergeName":"黑龙江省,齐齐哈尔市,龙江县","lng":123.21153880376322,"lat":47.34360427471904,"info":"直接检索POI第一个结果成功!","tag":""},{"name":"龙江镇","code":"230221100","level":4,"mergeName":"黑龙江省,齐齐哈尔市,龙江县,龙江镇","lng":113.08047512870588,"lat":22.874908266909774,"info":"直接检索POI第一个结果成功!","tag":["行政地标","乡镇"]},{"name":"景星镇","code":"230221101","level":4,"mergeName":"黑龙江省,齐齐哈尔市,龙江县,景星镇","lng":123.04087701619606,"lat":47.08758308688448,"info":"直接检索POI第一个结果成功!","tag":["行政地标","乡镇"]},{"name":"龙兴镇","code":"230221102","level":4,"mergeName":"黑龙江省,齐齐哈尔市,龙江县,龙兴镇","lng":122.76679897458922,"lat":47.496161661264196,"info":"直接检索POI第一个结果成功!","tag":["行政地标","乡镇"]},{"name":"山泉镇","code":"230221103","level":4,"mergeName":"黑龙江省,齐齐哈尔市,龙江县,山泉镇","lng":122.87973097889618,"lat":47.24544102347031,"info":"直接检索POI第一个结果成功!","tag":["行政地标","乡镇"]},{"name":"七棵树镇","code":"230221104","level":4,"mergeName":"黑龙江省,齐齐哈尔市,龙江县,七棵树镇","lng":123.26572369381992,"lat":47.53639101935803,"info":"直接检索POI第一个结果成功!","tag":["行政地标","乡镇"]},{"name":"杏山镇","code":"230221105","level":4,"mergeName":"黑龙江省,齐齐哈尔市,龙江县,杏山镇","lng":122.97415321850882,"lat":46.94509016845484,"info":"直接检索POI第一个结果成功!","tag":["行政地标","乡镇"]},{"name":"白山镇","code":"230221106","level":4,"mergeName":"黑龙江省,齐齐哈尔市,龙江县,白山镇","lng":123.25633774869885,"lat":47.27620729006092,"info":"直接检索POI第一个结果成功!","tag":["行政地标","乡镇"]},{"name":"头站镇","code":"230221107","level":4,"mergeName":"黑龙江省,齐齐哈尔市,龙江县,头站镇","lng":123.26225722268744,"lat":46.9724544548932,"info":"直接检索POI第一个结果成功!","tag":["行政地标","乡镇"]},{"name":"黑岗乡","code":"230221201","level":4,"mergeName":"黑龙江省,齐齐哈尔市,龙江县,黑岗乡","lng":123.41206403936535,"lat":47.25347497929423,"info":"直接检索POI第一个结果成功!","tag":["行政地标","乡镇"]},{"name":"广厚乡","code":"230221202","level":4,"mergeName":"黑龙江省,齐齐哈尔市,龙江县,广厚乡","lng":123.39889523991121,"lat":47.08231127399538,"info":"直接检索POI第一个结果成功!","tag":["行政地标","乡镇"]},{"name":"华民乡","code":"230221203","level":4,"mergeName":"黑龙江省,齐齐哈尔市,龙江县,华民乡","lng":123.45920100405182,"lat":47.13607610176158,"info":"直接检索POI第一个结果成功!","tag":["行政地标","乡镇"]},{"name":"哈拉海乡","code":"230221204","level":4,"mergeName":"黑龙江省,齐齐哈尔市,龙江县,哈拉海乡","lng":123.41824599822395,"lat":47.44287232522607,"info":"直接检索POI第一个结果成功!","tag":["行政地标","乡镇"]},{"name":"鲁河乡","code":"230221215","level":4,"mergeName":"黑龙江省,齐齐哈尔市,龙江县,鲁河乡","lng":123.00734668506931,"lat":47.457052443480144,"info":"直接检索POI第一个结果成功!","tag":["名称标注类"]},{"name":"济沁河乡","code":"230221217","level":4,"mergeName":"黑龙江省,齐齐哈尔市,龙江县,济沁河乡","lng":122.71048420216835,"lat":47.38754410996286,"info":"直接检索POI第一个结果成功!","tag":["行政地标","乡镇"]},{"name":"依安县","code":"230223","level":3,"mergeName":"黑龙江省,齐齐哈尔市,依安县","lng":125.3124777644026,"lat":47.89948425546637,"info":"直接检索POI第一个结果成功!","tag":""},{"name":"依安镇","code":"230223100","level":4,"mergeName":"黑龙江省,齐齐哈尔市,依安县,依安镇","lng":125.31167782334596,"lat":47.90145949950234,"info":"直接检索POI第一个结果成功!","tag":["行政地标","乡镇"]},{"name":"依龙镇","code":"230223101","level":4,"mergeName":"黑龙江省,齐齐哈尔市,依安县,依龙镇","lng":125.37440173608891,"lat":47.48205415219515,"info":"直接检索POI第一个结果成功!","tag":["行政地标","乡镇"]},{"name":"双阳镇","code":"230223102","level":4,"mergeName":"黑龙江省,齐齐哈尔市,依安县,双阳镇","lng":125.61015384260396,"lat":47.56465298288149,"info":"直接检索POI第一个结果成功!","tag":["名称标注类"]},{"name":"三兴镇","code":"230223103","level":4,"mergeName":"黑龙江省,齐齐哈尔市,依安县,三兴镇","lng":125.05222724968039,"lat":47.62569203968139,"info":"直接检索POI第一个结果成功!","tag":["行政地标","乡镇"]},{"name":"中心镇","code":"230223104","level":4,"mergeName":"黑龙江省,齐齐哈尔市,依安县,中心镇","lng":125.34213675810354,"lat":47.697778092829346,"info":"直接检索POI第一个结果成功!","tag":["行政地标","乡镇"]},{"name":"新兴镇","code":"230223105","level":4,"mergeName":"黑龙江省,齐齐哈尔市,依安县,新兴镇","lng":125.0310024464127,"lat":47.73931367191609,"info":"直接检索POI第一个结果成功!","tag":["行政地标","乡镇"]},{"name":"富饶乡","code":"230223200","level":4,"mergeName":"黑龙江省,齐齐哈尔市,依安县,富饶乡","lng":125.55580860501374,"lat":47.42188959614801,"info":"直接检索POI第一个结果成功!","tag":["行政地标","乡镇"]},{"name":"解放乡","code":"230223201","level":4,"mergeName":"黑龙江省,齐齐哈尔市,依安县,解放乡","lng":125.51145980096915,"lat":47.658351863938215,"info":"直接检索POI第一个结果成功!","tag":["行政地标","乡镇"]},{"name":"阳春乡","code":"230223202","level":4,"mergeName":"黑龙江省,齐齐哈尔市,依安县,阳春乡","lng":125.50405965000846,"lat":47.77151888327999,"info":"直接检索POI第一个结果成功!","tag":["行政地标","乡镇"]},{"name":"新发乡","code":"230223203","level":4,"mergeName":"黑龙江省,齐齐哈尔市,依安县,新发乡","lng":125.48085983224652,"lat":47.8439789384902,"info":"直接检索POI第一个结果成功!","tag":["行政地标","乡镇"]},{"name":"太东乡","code":"230223204","level":4,"mergeName":"黑龙江省,齐齐哈尔市,依安县,太东乡","lng":125.47339239820313,"lat":47.90877234082178,"info":"直接检索POI第一个结果成功!","tag":["名称标注类"]},{"name":"上游乡","code":"230223205","level":4,"mergeName":"黑龙江省,齐齐哈尔市,依安县,上游乡","lng":125.3304284237475,"lat":47.983865004008436,"info":"直接检索POI第一个结果成功!","tag":["名称标注类"]},{"name":"红星乡","code":"230223206","level":4,"mergeName":"黑龙江省,齐齐哈尔市,依安县,红星乡","lng":125.23683927266482,"lat":47.958476345095235,"info":"直接检索POI第一个结果成功!","tag":["名称标注类"]},{"name":"先锋乡","code":"230223207","level":4,"mergeName":"黑龙江省,齐齐哈尔市,依安县,先锋乡","lng":125.11070388414159,"lat":48.02054903897348,"info":"直接检索POI第一个结果成功!","tag":["名称标注类"]},{"name":"新屯乡","code":"230223208","level":4,"mergeName":"黑龙江省,齐齐哈尔市,依安县,新屯乡","lng":125.09111121215498,"lat":47.87741929171093,"info":"直接检索POI第一个结果成功!","tag":["行政地标","乡镇"]},{"name":"泰来县","code":"230224","level":3,"mergeName":"黑龙江省,齐齐哈尔市,泰来县","lng":123.42362873467033,"lat":46.39782779352805,"info":"直接检索POI第一个结果成功!","tag":""},{"name":"泰来镇","code":"230224100","level":4,"mergeName":"黑龙江省,齐齐哈尔市,泰来县,泰来镇","lng":123.42599316460317,"lat":46.404843200607715,"info":"直接检索POI第一个结果成功!","tag":["行政地标","乡镇"]},{"name":"平洋镇","code":"230224101","level":4,"mergeName":"黑龙江省,齐齐哈尔市,泰来县,平洋镇","lng":123.55079007791653,"lat":46.61039262766706,"info":"直接检索POI第一个结果成功!","tag":["行政地标","乡镇"]},{"name":"汤池镇","code":"230224102","level":4,"mergeName":"黑龙江省,齐齐哈尔市,泰来县,汤池镇","lng":123.77287725084426,"lat":46.98456114206224,"info":"直接检索POI第一个结果成功!","tag":["行政地标","乡镇"]},{"name":"江桥蒙古族镇","code":"230224103","level":4,"mergeName":"黑龙江省,齐齐哈尔市,泰来县,江桥蒙古族镇","lng":123.69368200827024,"lat":46.77804803677645,"info":"直接检索POI第一个结果成功!","tag":["行政地标","乡镇"]},{"name":"塔子城镇","code":"230224104","level":4,"mergeName":"黑龙江省,齐齐哈尔市,泰来县,塔子城镇","lng":123.05802602770385,"lat":46.61484103366755,"info":"直接检索POI第一个结果成功!","tag":["行政地标","乡镇"]},{"name":"大兴镇","code":"230224105","level":4,"mergeName":"黑龙江省,齐齐哈尔市,泰来县,大兴镇","lng":123.75168011538628,"lat":46.884155834815076,"info":"直接检索POI第一个结果成功!","tag":["行政地标","乡镇"]},{"name":"和平镇","code":"230224106","level":4,"mergeName":"黑龙江省,齐齐哈尔市,泰来县,和平镇","lng":123.15817550392595,"lat":46.52702062590404,"info":"直接检索POI第一个结果成功!","tag":["行政地标","乡镇"]},{"name":"克利镇","code":"230224107","level":4,"mergeName":"黑龙江省,齐齐哈尔市,泰来县,克利镇","lng":123.44900793143005,"lat":46.51188471426463,"info":"直接检索POI第一个结果成功!","tag":["行政地标","乡镇"]},{"name":"胜利蒙古族乡","code":"230224200","level":4,"mergeName":"黑龙江省,齐齐哈尔市,泰来县,胜利蒙古族乡","lng":123.62361840052743,"lat":46.464145439308325,"info":"直接检索POI第一个结果成功!","tag":["行政地标","乡镇"]},{"name":"宁姜蒙古族乡","code":"230224209","level":4,"mergeName":"黑龙江省,齐齐哈尔市,泰来县,宁姜蒙古族乡","lng":123.73473564804311,"lat":46.2961580312926,"info":"直接检索POI第一个结果成功!","tag":["行政地标","乡镇"]},{"name":"葡萄场","code":"230224400","level":4,"mergeName":"黑龙江省,齐齐哈尔市,泰来县,葡萄场","lng":123.10647496758766,"lat":47.14222525577555,"info":"直接检索POI第一个结果成功!","tag":""},{"name":"果树场","code":"230224401","level":4,"mergeName":"黑龙江省,齐齐哈尔市,泰来县,果树场","lng":123.42362630924546,"lat":46.39782928518008,"info":"检索POI失败,BMAP_STATUE_CODE:1 ,GetPoint结果: 直接查询获得"},{"name":"泰来县一苗圃","code":"230224402","level":4,"mergeName":"黑龙江省,齐齐哈尔市,泰来县,泰来县一苗圃","lng":123.54633807580905,"lat":46.59965583135904,"info":"直接检索POI第一个结果成功!","tag":""},{"name":"泰来县二苗圃","code":"230224403","level":4,"mergeName":"黑龙江省,齐齐哈尔市,泰来县,泰来县二苗圃","lng":123.54633807580905,"lat":46.59965583135904,"info":"直接检索POI第一个结果成功!","tag":""},{"name":"东方红机械林场","code":"230224404","level":4,"mergeName":"黑龙江省,齐齐哈尔市,泰来县,东方红机械林场","lng":123.45033131510736,"lat":46.46015746146122,"info":"直接检索POI第一个结果成功!","tag":["公司企业"]},{"name":"六三监狱","code":"230224480","level":4,"mergeName":"黑龙江省,齐齐哈尔市,泰来县,六三监狱","lng":123.38976351524946,"lat":46.614730660595555,"info":"直接检索POI第一个结果成功!","tag":""},{"name":"第一良种场","code":"230224580","level":4,"mergeName":"黑龙江省,齐齐哈尔市,泰来县,第一良种场","lng":124.94385207973393,"lat":47.89954478612108,"info":"直接检索POI第一个结果成功!","tag":""},{"name":"第二良种场","code":"230224581","level":4,"mergeName":"黑龙江省,齐齐哈尔市,泰来县,第二良种场","lng":125.16888785066763,"lat":48.33336692659915,"info":"直接检索POI第一个结果成功!","tag":""},{"name":"宏胜种畜场","code":"230224582","level":4,"mergeName":"黑龙江省,齐齐哈尔市,泰来县,宏胜种畜场","lng":132.8213595341942,"lat":46.90910706945676,"info":"直接检索POI第一个结果成功!","tag":""},{"name":"二龙涛农场","code":"230224583","level":4,"mergeName":"黑龙江省,齐齐哈尔市,泰来县,二龙涛农场","lng":123.20714914405812,"lat":46.365849032753104,"info":"直接检索POI第一个结果成功!","tag":""},{"name":"甘南县","code":"230225","level":3,"mergeName":"黑龙江省,齐齐哈尔市,甘南县","lng":123.51248911571791,"lat":47.926884914798194,"info":"直接检索POI第一个结果成功!","tag":""},{"name":"甘南镇","code":"230225100","level":4,"mergeName":"黑龙江省,齐齐哈尔市,甘南县,甘南镇","lng":123.51123939309242,"lat":47.92009843652591,"info":"直接检索POI第一个结果成功!","tag":["行政地标","乡镇"]},{"name":"兴十四镇","code":"230225101","level":4,"mergeName":"黑龙江省,齐齐哈尔市,甘南县,兴十四镇","lng":123.70725217062626,"lat":47.87479637293398,"info":"直接检索POI第一个结果成功!","tag":["行政地标","乡镇"]},{"name":"平阳镇","code":"230225102","level":4,"mergeName":"黑龙江省,齐齐哈尔市,甘南县,平阳镇","lng":124.36235170446461,"lat":48.277626707960096,"info":"直接检索POI第一个结果成功!","tag":["行政地标","乡镇"]},{"name":"东阳镇","code":"230225103","level":4,"mergeName":"黑龙江省,齐齐哈尔市,甘南县,东阳镇","lng":124.26187138232319,"lat":48.01859422174592,"info":"直接检索POI第一个结果成功!","tag":["行政地标","乡镇"]},{"name":"巨宝镇","code":"230225104","level":4,"mergeName":"黑龙江省,齐齐哈尔市,甘南县,巨宝镇","lng":124.19635068520545,"lat":47.90391893418588,"info":"直接检索POI第一个结果成功!","tag":["行政地标","乡镇"]},{"name":"长山乡","code":"230225201","level":4,"mergeName":"黑龙江省,齐齐哈尔市,甘南县,长山乡","lng":123.55523929527693,"lat":47.77682111949376,"info":"直接检索POI第一个结果成功!","tag":["行政地标","乡镇"]},{"name":"中兴乡","code":"230225202","level":4,"mergeName":"黑龙江省,齐齐哈尔市,甘南县,中兴乡","lng":123.24488471276877,"lat":47.70893847861078,"info":"直接检索POI第一个结果成功!","tag":["行政地标","乡镇"]},{"name":"兴隆乡","code":"230225203","level":4,"mergeName":"黑龙江省,齐齐哈尔市,甘南县,兴隆乡","lng":123.66929085774096,"lat":48.0394304749742,"info":"直接检索POI第一个结果成功!","tag":["行政地标","乡镇"]},{"name":"宝山乡","code":"230225204","level":4,"mergeName":"黑龙江省,齐齐哈尔市,甘南县,宝山乡","lng":123.96008304115823,"lat":48.136706590153125,"info":"直接检索POI第一个结果成功!","tag":["行政地标","乡镇"]},{"name":"查哈阳乡","code":"230225206","level":4,"mergeName":"黑龙江省,齐齐哈尔市,甘南县,查哈阳乡","lng":124.30833264160505,"lat":48.42884776953347,"info":"直接检索POI第一个结果成功!","tag":["行政地标","乡镇"]},{"name":"查哈阳农场","code":"230225500","level":4,"mergeName":"黑龙江省,齐齐哈尔市,甘南县,查哈阳农场","lng":124.30094901946573,"lat":48.24879160075159,"info":"直接检索POI第一个结果成功!","tag":""},{"name":"北京市双河农场","code":"230225580","level":4,"mergeName":"黑龙江省,齐齐哈尔市,甘南县,北京市双河农场","lng":123.76511660988241,"lat":47.86189892133587,"info":"直接检索POI第一个结果成功!","tag":""},{"name":"富裕县","code":"230227","level":3,"mergeName":"黑龙江省,齐齐哈尔市,富裕县","lng":124.48053906549661,"lat":47.78022715502924,"info":"直接检索POI第一个结果成功!","tag":""},{"name":"富裕镇","code":"230227100","level":4,"mergeName":"黑龙江省,齐齐哈尔市,富裕县,富裕镇","lng":124.48138140657332,"lat":47.80746336335453,"info":"直接检索POI第一个结果成功!","tag":["行政地标","乡镇"]},{"name":"富路镇","code":"230227101","level":4,"mergeName":"黑龙江省,齐齐哈尔市,富裕县,富路镇","lng":124.67039512655668,"lat":47.6467510912935,"info":"直接检索POI第一个结果成功!","tag":["行政地标","乡镇"]},{"name":"富海镇","code":"230227102","level":4,"mergeName":"黑龙江省,齐齐哈尔市,富裕县,富海镇","lng":124.85937956178041,"lat":47.87385780950889,"info":"直接检索POI第一个结果成功!","tag":["名称标注类"]},{"name":"二道湾镇","code":"230227103","level":4,"mergeName":"黑龙江省,齐齐哈尔市,富裕县,二道湾镇","lng":124.5447734789546,"lat":47.964833073442385,"info":"直接检索POI第一个结果成功!","tag":["行政地标","乡镇"]},{"name":"龙安桥镇","code":"230227104","level":4,"mergeName":"黑龙江省,齐齐哈尔市,富裕县,龙安桥镇","lng":124.45718078664272,"lat":47.52739634504203,"info":"直接检索POI第一个结果成功!","tag":["行政地标","乡镇"]},{"name":"塔哈镇","code":"230227105","level":4,"mergeName":"黑龙江省,齐齐哈尔市,富裕县,塔哈镇","lng":124.24816979787106,"lat":47.55658558225498,"info":"直接检索POI第一个结果成功!","tag":""},{"name":"繁荣乡","code":"230227200","level":4,"mergeName":"黑龙江省,齐齐哈尔市,富裕县,繁荣乡","lng":124.63941921697813,"lat":47.403536875946564,"info":"直接检索POI第一个结果成功!","tag":["行政地标","乡镇"]},{"name":"绍文乡","code":"230227201","level":4,"mergeName":"黑龙江省,齐齐哈尔市,富裕县,绍文乡","lng":124.9037589980429,"lat":47.5397250931893,"info":"直接检索POI第一个结果成功!","tag":["行政地标","乡镇"]},{"name":"忠厚乡","code":"230227202","level":4,"mergeName":"黑龙江省,齐齐哈尔市,富裕县,忠厚乡","lng":124.8318129911039,"lat":47.9599662531691,"info":"直接检索POI第一个结果成功!","tag":["行政地标","乡镇"]},{"name":"友谊达斡尔族满族柯尔克孜族乡","code":"230227203","level":4,"mergeName":"黑龙江省,齐齐哈尔市,富裕县,友谊达斡尔族满族柯尔克孜族乡","lng":124.49677288335083,"lat":47.79992313904966,"info":"直接检索POI第一个结果成功!","tag":["行政地标","乡镇"]},{"name":"克山县","code":"230229","level":3,"mergeName":"黑龙江省,齐齐哈尔市,克山县","lng":125.8813746438752,"lat":48.0431733848341,"info":"直接检索POI第一个结果成功!","tag":""},{"name":"克山镇","code":"230229100","level":4,"mergeName":"黑龙江省,齐齐哈尔市,克山县,克山镇","lng":125.8841649604503,"lat":48.041792883567275,"info":"直接检索POI第一个结果成功!","tag":["行政地标","乡镇"]},{"name":"北兴镇","code":"230229101","level":4,"mergeName":"黑龙江省,齐齐哈尔市,克山县,北兴镇","lng":125.67035845754415,"lat":48.490490791449,"info":"直接检索POI第一个结果成功!","tag":["行政地标","乡镇"]},{"name":"西城镇","code":"230229102","level":4,"mergeName":"黑龙江省,齐齐哈尔市,克山县,西城镇","lng":125.50244144246278,"lat":48.1799891806231,"info":"直接检索POI第一个结果成功!","tag":["行政地标","乡镇"]},{"name":"古城镇","code":"230229103","level":4,"mergeName":"黑龙江省,齐齐哈尔市,克山县,古城镇","lng":125.67982749592491,"lat":47.96897911826,"info":"直接检索POI第一个结果成功!","tag":["行政地标","乡镇"]},{"name":"北联镇","code":"230229104","level":4,"mergeName":"黑龙江省,齐齐哈尔市,克山县,北联镇","lng":125.6656820587203,"lat":48.24526157533328,"info":"直接检索POI第一个结果成功!","tag":["行政地标","乡镇"]},{"name":"西河镇","code":"230229105","level":4,"mergeName":"黑龙江省,齐齐哈尔市,克山县,西河镇","lng":125.57809583420807,"lat":48.0823155413605,"info":"直接检索POI第一个结果成功!","tag":["行政地标","乡镇"]},{"name":"双河镇","code":"230229106","level":4,"mergeName":"黑龙江省,齐齐哈尔市,克山县,双河镇","lng":125.89637365097539,"lat":47.95951733029075,"info":"直接检索POI第一个结果成功!","tag":["名称标注类"]},{"name":"河南乡","code":"230229200","level":4,"mergeName":"黑龙江省,齐齐哈尔市,克山县,河南乡","lng":126.03770064330018,"lat":47.97404993908547,"info":"直接检索POI第一个结果成功!","tag":["行政地标","乡镇"]},{"name":"河北乡","code":"230229203","level":4,"mergeName":"黑龙江省,齐齐哈尔市,克山县,河北乡","lng":125.94481450610961,"lat":48.115681291060106,"info":"直接检索POI第一个结果成功!","tag":["行政地标","乡镇"]},{"name":"古北乡","code":"230229204","level":4,"mergeName":"黑龙江省,齐齐哈尔市,克山县,古北乡","lng":125.77205373788784,"lat":48.09998439409504,"info":"直接检索POI第一个结果成功!","tag":["行政地标","乡镇"]},{"name":"西联乡","code":"230229205","level":4,"mergeName":"黑龙江省,齐齐哈尔市,克山县,西联乡","lng":125.32025951554394,"lat":48.09311042214128,"info":"直接检索POI第一个结果成功!","tag":["行政地标","乡镇"]},{"name":"发展乡","code":"230229206","level":4,"mergeName":"黑龙江省,齐齐哈尔市,克山县,发展乡","lng":125.33785489505964,"lat":48.190362112767325,"info":"直接检索POI第一个结果成功!","tag":["行政地标","乡镇"]},{"name":"西建乡","code":"230229207","level":4,"mergeName":"黑龙江省,齐齐哈尔市,克山县,西建乡","lng":125.54711857717126,"lat":48.26688398462056,"info":"直接检索POI第一个结果成功!","tag":["行政地标","乡镇"]},{"name":"向华乡","code":"230229208","level":4,"mergeName":"黑龙江省,齐齐哈尔市,克山县,向华乡","lng":125.7102176204804,"lat":48.16655631916821,"info":"直接检索POI第一个结果成功!","tag":["行政地标","乡镇"]},{"name":"曙光乡","code":"230229210","level":4,"mergeName":"黑龙江省,齐齐哈尔市,克山县,曙光乡","lng":125.65844243495422,"lat":48.42678493516372,"info":"直接检索POI第一个结果成功!","tag":["行政地标","乡镇"]},{"name":"克山县河北林场","code":"230229400","level":4,"mergeName":"黑龙江省,齐齐哈尔市,克山县,克山县河北林场","lng":126.05908866867904,"lat":48.08639743726264,"info":"直接检索POI第一个结果成功!","tag":""},{"name":"克山县涌泉林场","code":"230229401","level":4,"mergeName":"黑龙江省,齐齐哈尔市,克山县,克山县涌泉林场","lng":125.862834246963,"lat":48.2744265337374,"info":"直接检索POI第一个结果成功!","tag":""},{"name":"克山县北联林场","code":"230229402","level":4,"mergeName":"黑龙江省,齐齐哈尔市,克山县,克山县北联林场","lng":125.68034024871001,"lat":48.21398969560153,"info":"直接检索POI第一个结果成功!","tag":""},{"name":"克山县第一良种场","code":"230229580","level":4,"mergeName":"黑龙江省,齐齐哈尔市,克山县,克山县第一良种场","lng":126.43587114703946,"lat":47.6504367856573,"info":"直接检索POI第一个结果成功!","tag":""},{"name":"克山县第二良种场","code":"230229581","level":4,"mergeName":"黑龙江省,齐齐哈尔市,克山县,克山县第二良种场","lng":125.72653992142735,"lat":48.265927697042024,"info":"直接检索POI第一个结果成功!","tag":""},{"name":"克山县种猪场","code":"230229583","level":4,"mergeName":"黑龙江省,齐齐哈尔市,克山县,克山县种猪场","lng":125.97468882364129,"lat":47.639942649618924,"info":"直接检索POI第一个结果成功!","tag":""},{"name":"克山县种畜场","code":"230229584","level":4,"mergeName":"黑龙江省,齐齐哈尔市,克山县,克山县种畜场","lng":125.92169302058814,"lat":48.269283261143144,"info":"直接检索POI第一个结果成功!","tag":""},{"name":"克东县","code":"230230","level":3,"mergeName":"黑龙江省,齐齐哈尔市,克东县","lng":126.25538414295687,"lat":48.048245425418614,"info":"直接检索POI第一个结果成功!","tag":""},{"name":"克东镇","code":"230230100","level":4,"mergeName":"黑龙江省,齐齐哈尔市,克东县,克东镇","lng":126.24672384902676,"lat":48.041236419463544,"info":"直接检索POI第一个结果成功!","tag":["行政地标","乡镇"]},{"name":"宝泉镇","code":"230230101","level":4,"mergeName":"黑龙江省,齐齐哈尔市,克东县,宝泉镇","lng":126.2265087411523,"lat":48.173665804409595,"info":"直接检索POI第一个结果成功!","tag":["行政地标","乡镇"]},{"name":"乾丰镇","code":"230230102","level":4,"mergeName":"黑龙江省,齐齐哈尔市,克东县,乾丰镇","lng":126.25889364292327,"lat":47.789608062832016,"info":"直接检索POI第一个结果成功!","tag":["行政地标","乡镇"]},{"name":"玉岗镇","code":"230230103","level":4,"mergeName":"黑龙江省,齐齐哈尔市,克东县,玉岗镇","lng":126.45826778984492,"lat":48.09470955902981,"info":"直接检索POI第一个结果成功!","tag":["行政地标","乡镇"]},{"name":"蒲峪路镇","code":"230230104","level":4,"mergeName":"黑龙江省,齐齐哈尔市,克东县,蒲峪路镇","lng":126.14171687558999,"lat":48.02868084469549,"info":"直接检索POI第一个结果成功!","tag":""},{"name":"润津乡","code":"230230202","level":4,"mergeName":"黑龙江省,齐齐哈尔市,克东县,润津乡","lng":126.28274724743538,"lat":47.95509661814025,"info":"直接检索POI第一个结果成功!","tag":["行政地标","乡镇"]},{"name":"昌盛乡","code":"230230204","level":4,"mergeName":"黑龙江省,齐齐哈尔市,克东县,昌盛乡","lng":126.41750744682108,"lat":47.8365100973236,"info":"直接检索POI第一个结果成功!","tag":["行政地标","乡镇"]},{"name":"第一苗圃","code":"230230400","level":4,"mergeName":"黑龙江省,齐齐哈尔市,克东县,第一苗圃","lng":126.65698491611658,"lat":45.675269027250415,"info":"直接检索POI第一个结果成功!","tag":""},{"name":"第二苗圃","code":"230230401","level":4,"mergeName":"黑龙江省,齐齐哈尔市,克东县,第二苗圃","lng":126.210465004744,"lat":48.157128176719084,"info":"直接检索POI第一个结果成功!","tag":""},{"name":"爱华林场","code":"230230402","level":4,"mergeName":"黑龙江省,齐齐哈尔市,克东县,爱华林场","lng":126.13124757402389,"lat":48.23739867327345,"info":"直接检索POI第一个结果成功!","tag":""},{"name":"发展林场","code":"230230403","level":4,"mergeName":"黑龙江省,齐齐哈尔市,克东县,发展林场","lng":126.47955798975373,"lat":47.93214619947915,"info":"直接检索POI第一个结果成功!","tag":""},{"name":"东兴林场","code":"230230404","level":4,"mergeName":"黑龙江省,齐齐哈尔市,克东县,东兴林场","lng":126.56246125781185,"lat":47.84863651296724,"info":"直接检索POI第一个结果成功!","tag":""},{"name":"红旗奶山羊场","code":"230230580","level":4,"mergeName":"黑龙江省,齐齐哈尔市,克东县,红旗奶山羊场","lng":126.18739400399218,"lat":48.24193028769061,"info":"直接检索POI第一个结果成功!","tag":["行政地标","村庄"]},{"name":"第一良种场","code":"230230581","level":4,"mergeName":"黑龙江省,齐齐哈尔市,克东县,第一良种场","lng":124.94385207973393,"lat":47.89954478612108,"info":"直接检索POI第一个结果成功!","tag":""},{"name":"第二良种繁殖场","code":"230230582","level":4,"mergeName":"黑龙江省,齐齐哈尔市,克东县,第二良种繁殖场","lng":126.23943544727152,"lat":48.248157590652966,"info":"直接检索POI第一个结果成功!","tag":""},{"name":"果树繁殖场","code":"230230583","level":4,"mergeName":"黑龙江省,齐齐哈尔市,克东县,果树繁殖场","lng":126.49412266613984,"lat":45.66477422332074,"info":"直接检索POI第一个结果成功!","tag":""},{"name":"种猪场","code":"230230584","level":4,"mergeName":"黑龙江省,齐齐哈尔市,克东县,种猪场","lng":125.97468882364129,"lat":47.639942649618924,"info":"直接检索POI第一个结果成功!","tag":""},{"name":"黑龙江省社会救助安置中心","code":"230230585","level":4,"mergeName":"黑龙江省,齐齐哈尔市,克东县,黑龙江省社会救助安置中心","lng":126.65952173087678,"lat":45.731806195150014,"info":"直接检索POI第一个结果成功!","tag":""},{"name":"拜泉县","code":"230231","level":3,"mergeName":"黑龙江省,齐齐哈尔市,拜泉县","lng":126.10542102112021,"lat":47.6018677272679,"info":"直接检索POI第一个结果成功!","tag":""},{"name":"拜泉镇","code":"230231100","level":4,"mergeName":"黑龙江省,齐齐哈尔市,拜泉县,拜泉镇","lng":126.09430772433399,"lat":47.6134904333283,"info":"直接检索POI第一个结果成功!","tag":["行政地标","乡镇"]},{"name":"三道镇","code":"230231101","level":4,"mergeName":"黑龙江省,齐齐哈尔市,拜泉县,三道镇","lng":126.41137633205433,"lat":47.42721217908245,"info":"直接检索POI第一个结果成功!","tag":["名称标注类"]},{"name":"兴农镇","code":"230231102","level":4,"mergeName":"黑龙江省,齐齐哈尔市,拜泉县,兴农镇","lng":125.97364948416623,"lat":47.80220058612241,"info":"直接检索POI第一个结果成功!","tag":["行政地标","乡镇"]},{"name":"长春镇","code":"230231103","level":4,"mergeName":"黑龙江省,齐齐哈尔市,拜泉县,长春镇","lng":125.67164617849274,"lat":47.740497736943894,"info":"直接检索POI第一个结果成功!","tag":["行政地标","乡镇"]},{"name":"龙泉镇","code":"230231104","level":4,"mergeName":"黑龙江省,齐齐哈尔市,拜泉县,龙泉镇","lng":125.97886801036537,"lat":47.42466322294123,"info":"直接检索POI第一个结果成功!","tag":["行政地标","乡镇"]},{"name":"国富镇","code":"230231105","level":4,"mergeName":"黑龙江省,齐齐哈尔市,拜泉县,国富镇","lng":126.40443764063411,"lat":47.6571928683861,"info":"直接检索POI第一个结果成功!","tag":["名称标注类"]},{"name":"富强镇","code":"230231106","level":4,"mergeName":"黑龙江省,齐齐哈尔市,拜泉县,富强镇","lng":125.8028402846649,"lat":47.48569215340204,"info":"直接检索POI第一个结果成功!","tag":["行政地标","乡镇"]},{"name":"新生乡","code":"230231200","level":4,"mergeName":"黑龙江省,齐齐哈尔市,拜泉县,新生乡","lng":126.17340478211577,"lat":47.44753500606629,"info":"直接检索POI第一个结果成功!","tag":["行政地标","乡镇"]},{"name":"兴国乡","code":"230231201","level":4,"mergeName":"黑龙江省,齐齐哈尔市,拜泉县,兴国乡","lng":126.20048474069753,"lat":47.55032425065677,"info":"直接检索POI第一个结果成功!","tag":["名称标注类"]},{"name":"上升乡","code":"230231203","level":4,"mergeName":"黑龙江省,齐齐哈尔市,拜泉县,上升乡","lng":126.24901488739944,"lat":47.653018242728436,"info":"直接检索POI第一个结果成功!","tag":["行政地标","乡镇"]},{"name":"兴华乡","code":"230231204","level":4,"mergeName":"黑龙江省,齐齐哈尔市,拜泉县,兴华乡","lng":126.06666371972251,"lat":47.70505289432743,"info":"直接检索POI第一个结果成功!","tag":["行政地标","乡镇"]},{"name":"大众乡","code":"230231206","level":4,"mergeName":"黑龙江省,齐齐哈尔市,拜泉县,大众乡","lng":125.88407530956043,"lat":47.803092459995064,"info":"直接检索POI第一个结果成功!","tag":["行政地标","乡镇"]},{"name":"丰产乡","code":"230231209","level":4,"mergeName":"黑龙江省,齐齐哈尔市,拜泉县,丰产乡","lng":125.8616916023543,"lat":47.635569299877716,"info":"直接检索POI第一个结果成功!","tag":["行政地标","乡镇"]},{"name":"永勤乡","code":"230231210","level":4,"mergeName":"黑龙江省,齐齐哈尔市,拜泉县,永勤乡","lng":125.81395052721237,"lat":47.550950253482085,"info":"直接检索POI第一个结果成功!","tag":["行政地标","乡镇"]},{"name":"爱农乡","code":"230231212","level":4,"mergeName":"黑龙江省,齐齐哈尔市,拜泉县,爱农乡","lng":125.73236336655694,"lat":47.383372792878674,"info":"直接检索POI第一个结果成功!","tag":["行政地标","乡镇"]},{"name":"时中乡","code":"230231214","level":4,"mergeName":"黑龙江省,齐齐哈尔市,拜泉县,时中乡","lng":125.9723783818696,"lat":47.533841851405214,"info":"检索POI失败,BMAP_STATUE_CODE:1 ,GetPoint结果: 直接查询获得"},{"name":"讷河市","code":"230281","level":3,"mergeName":"黑龙江省,齐齐哈尔市,讷河市","lng":124.88916925893304,"lat":48.472527924568595,"info":"直接检索POI第一个结果成功!","tag":""},{"name":"雨亭街道","code":"230281001","level":4,"mergeName":"黑龙江省,齐齐哈尔市,讷河市,雨亭街道","lng":124.88938880479968,"lat":48.48114187141428,"info":"直接检索POI第一个结果成功!","tag":""},{"name":"通江街道","code":"230281002","level":4,"mergeName":"黑龙江省,齐齐哈尔市,讷河市,通江街道","lng":124.88326487647703,"lat":48.48723066069898,"info":"直接检索POI第一个结果成功!","tag":["行政地标","乡镇"]},{"name":"拉哈镇","code":"230281101","level":4,"mergeName":"黑龙江省,齐齐哈尔市,讷河市,拉哈镇","lng":124.61663738076999,"lat":48.21078989641413,"info":"直接检索POI第一个结果成功!","tag":["行政地标","乡镇"]},{"name":"二克浅镇","code":"230281102","level":4,"mergeName":"黑龙江省,齐齐哈尔市,讷河市,二克浅镇","lng":124.60493192099159,"lat":48.48625237134723,"info":"直接检索POI第一个结果成功!","tag":["行政地标","乡镇"]},{"name":"学田镇","code":"230281103","level":4,"mergeName":"黑龙江省,齐齐哈尔市,讷河市,学田镇","lng":124.817399319874,"lat":48.69338714302778,"info":"直接检索POI第一个结果成功!","tag":["行政地标","乡镇"]},{"name":"龙河镇","code":"230281104","level":4,"mergeName":"黑龙江省,齐齐哈尔市,讷河市,龙河镇","lng":125.44482098298313,"lat":48.556659054518576,"info":"直接检索POI第一个结果成功!","tag":["行政地标","乡镇"]},{"name":"讷南镇","code":"230281105","level":4,"mergeName":"黑龙江省,齐齐哈尔市,讷河市,讷南镇","lng":125.17118068565132,"lat":48.43669064970715,"info":"直接检索POI第一个结果成功!","tag":["名称标注类"]},{"name":"六合镇","code":"230281106","level":4,"mergeName":"黑龙江省,齐齐哈尔市,讷河市,六合镇","lng":124.70602282138815,"lat":48.35264983286201,"info":"直接检索POI第一个结果成功!","tag":["行政地标","乡镇"]},{"name":"长发镇","code":"230281107","level":4,"mergeName":"黑龙江省,齐齐哈尔市,讷河市,长发镇","lng":124.95417441851859,"lat":48.34094870919331,"info":"直接检索POI第一个结果成功!","tag":["行政地标","乡镇"]},{"name":"通南镇","code":"230281108","level":4,"mergeName":"黑龙江省,齐齐哈尔市,讷河市,通南镇","lng":125.01938618837144,"lat":48.150775333606134,"info":"直接检索POI第一个结果成功!","tag":["名称标注类"]},{"name":"同义镇","code":"230281109","level":4,"mergeName":"黑龙江省,齐齐哈尔市,讷河市,同义镇","lng":124.80656836050959,"lat":48.19369257328493,"info":"直接检索POI第一个结果成功!","tag":["行政地标","乡镇"]},{"name":"九井镇","code":"230281110","level":4,"mergeName":"黑龙江省,齐齐哈尔市,讷河市,九井镇","lng":125.36640609840565,"lat":48.46230344533322,"info":"直接检索POI第一个结果成功!","tag":["行政地标","乡镇"]},{"name":"老莱镇","code":"230281111","level":4,"mergeName":"黑龙江省,齐齐哈尔市,讷河市,老莱镇","lng":125.01785233171314,"lat":48.66314848777034,"info":"直接检索POI第一个结果成功!","tag":["行政地标","乡镇"]},{"name":"孔国乡","code":"230281201","level":4,"mergeName":"黑龙江省,齐齐哈尔市,讷河市,孔国乡","lng":125.1928951552525,"lat":48.53232570609958,"info":"直接检索POI第一个结果成功!","tag":["行政地标","乡镇"]},{"name":"和盛乡","code":"230281207","level":4,"mergeName":"黑龙江省,齐齐哈尔市,讷河市,和盛乡","lng":124.8593810888998,"lat":48.06853193478506,"info":"直接检索POI第一个结果成功!","tag":["名称标注类"]},{"name":"同心乡","code":"230281208","level":4,"mergeName":"黑龙江省,齐齐哈尔市,讷河市,同心乡","lng":124.98057903101795,"lat":48.213507454013,"info":"直接检索POI第一个结果成功!","tag":["行政地标","乡镇"]},{"name":"兴旺鄂温克族乡","code":"230281210","level":4,"mergeName":"黑龙江省,齐齐哈尔市,讷河市,兴旺鄂温克族乡","lng":124.48292882764481,"lat":48.086881724693065,"info":"直接检索POI第一个结果成功!","tag":["行政地标","乡镇"]},{"name":"龙河镇保安林场","code":"230281400","level":4,"mergeName":"黑龙江省,齐齐哈尔市,讷河市,龙河镇保安林场","lng":125.60074373306469,"lat":48.56972893317502,"info":"直接检索POI第一个结果成功!","tag":""},{"name":"龙河镇茂山林场","code":"230281401","level":4,"mergeName":"黑龙江省,齐齐哈尔市,讷河市,龙河镇茂山林场","lng":125.84080474161948,"lat":48.701895162692246,"info":"直接检索POI第一个结果成功!","tag":""},{"name":"龙河镇国庆林场","code":"230281402","level":4,"mergeName":"黑龙江省,齐齐哈尔市,讷河市,龙河镇国庆林场","lng":125.59245955965162,"lat":48.847425835183486,"info":"直接检索POI第一个结果成功!","tag":""},{"name":"学田镇富源林场","code":"230281403","level":4,"mergeName":"黑龙江省,齐齐哈尔市,讷河市,学田镇富源林场","lng":124.77924657808454,"lat":48.858993953868115,"info":"直接检索POI第一个结果成功!","tag":""},{"name":"老莱镇宽余林场","code":"230281404","level":4,"mergeName":"黑龙江省,齐齐哈尔市,讷河市,老莱镇宽余林场","lng":125.28168358202872,"lat":48.70256351178666,"info":"直接检索POI第一个结果成功!","tag":""},{"name":"新江林场","code":"230281405","level":4,"mergeName":"黑龙江省,齐齐哈尔市,讷河市,新江林场","lng":124.4612789462098,"lat":48.04287260065936,"info":"直接检索POI第一个结果成功!","tag":""},{"name":"一良苗圃","code":"230281406","level":4,"mergeName":"黑龙江省,齐齐哈尔市,讷河市,一良苗圃","lng":125.62329775899549,"lat":47.42945017856423,"info":"直接检索POI第一个结果成功!","tag":""},{"name":"黑龙江省老莱农场","code":"230281480","level":4,"mergeName":"黑龙江省,齐齐哈尔市,讷河市,黑龙江省老莱农场","lng":124.83938238282266,"lat":48.8165451120573,"info":"直接检索POI第一个结果成功!","tag":""},{"name":"六合镇黎明奶牛场","code":"230281581","level":4,"mergeName":"黑龙江省,齐齐哈尔市,讷河市,六合镇黎明奶牛场","lng":124.63517130988251,"lat":48.30494404773893,"info":"直接检索POI第一个结果成功!","tag":""},{"name":"孔国乡进化种猪场","code":"230281582","level":4,"mergeName":"黑龙江省,齐齐哈尔市,讷河市,孔国乡进化种猪场","lng":124.98261530994799,"lat":48.48782304741558,"info":"直接检索POI第一个结果成功!","tag":["公司企业"]},{"name":"二克浅镇二里种畜场","code":"230281583","level":4,"mergeName":"黑龙江省,齐齐哈尔市,讷河市,二克浅镇二里种畜场","lng":124.57823877276243,"lat":48.40670121582998,"info":"直接检索POI第一个结果成功!","tag":""},{"name":"龙河镇青色草原种畜场","code":"230281584","level":4,"mergeName":"黑龙江省,齐齐哈尔市,讷河市,龙河镇青色草原种畜场","lng":125.75313434588097,"lat":48.64562987352086,"info":"直接检索POI第一个结果成功!","tag":""},{"name":"第一良种场","code":"230281585","level":4,"mergeName":"黑龙江省,齐齐哈尔市,讷河市,第一良种场","lng":124.94385207973393,"lat":47.89954478612108,"info":"直接检索POI第一个结果成功!","tag":""},{"name":"第二良种场","code":"230281586","level":4,"mergeName":"黑龙江省,齐齐哈尔市,讷河市,第二良种场","lng":125.16888785066763,"lat":48.33336692659915,"info":"直接检索POI第一个结果成功!","tag":""},{"name":"第三良种场","code":"230281587","level":4,"mergeName":"黑龙江省,齐齐哈尔市,讷河市,第三良种场","lng":125.08571580960091,"lat":48.24178339086459,"info":"直接检索POI第一个结果成功!","tag":""},{"name":"第四良种场","code":"230281588","level":4,"mergeName":"黑龙江省,齐齐哈尔市,讷河市,第四良种场","lng":124.75452107824444,"lat":48.602076654875496,"info":"直接检索POI第一个结果成功!","tag":""},{"name":"鸡西市","code":"2303","level":2,"mergeName":"黑龙江省,鸡西市","lng":130.97562027571658,"lat":45.30087358579169,"info":"直接检索POI第一个结果成功!","tag":""},{"name":"鸡冠区","code":"230302","level":3,"mergeName":"黑龙江省,鸡西市,鸡冠区","lng":130.98763062038506,"lat":45.30980571042849,"info":"直接检索POI第一个结果成功!","tag":""},{"name":"向阳街道","code":"230302001","level":4,"mergeName":"黑龙江省,鸡西市,鸡冠区,向阳街道","lng":130.98148522256074,"lat":45.30139294300227,"info":"直接检索POI第一个结果成功!","tag":""},{"name":"南山街道","code":"230302002","level":4,"mergeName":"黑龙江省,鸡西市,鸡冠区,南山街道","lng":130.97033060372107,"lat":45.293725280798135,"info":"直接检索POI第一个结果成功!","tag":["行政地标","乡镇"]},{"name":"立新街道","code":"230302003","level":4,"mergeName":"黑龙江省,鸡西市,鸡冠区,立新街道","lng":130.93463625462076,"lat":45.24374621326524,"info":"直接检索POI第一个结果成功!","tag":""},{"name":"东风街道","code":"230302004","level":4,"mergeName":"黑龙江省,鸡西市,鸡冠区,东风街道","lng":130.99760567425957,"lat":45.30384112281149,"info":"直接检索POI第一个结果成功!","tag":["行政地标","乡镇"]},{"name":"红军路街道","code":"230302005","level":4,"mergeName":"黑龙江省,鸡西市,鸡冠区,红军路街道","lng":130.992397837896,"lat":45.30903604401974,"info":"直接检索POI第一个结果成功!","tag":["道路"]},{"name":"西鸡西街道","code":"230302006","level":4,"mergeName":"黑龙江省,鸡西市,鸡冠区,西鸡西街道","lng":130.94855495951464,"lat":45.31735405763626,"info":"直接检索POI第一个结果成功!","tag":["行政地标","乡镇"]},{"name":"西山街道","code":"230302007","level":4,"mergeName":"黑龙江省,鸡西市,鸡冠区,西山街道","lng":130.97256909122137,"lat":45.307617882971954,"info":"直接检索POI第一个结果成功!","tag":["行政地标","乡镇"]},{"name":"红星乡","code":"230302200","level":4,"mergeName":"黑龙江省,鸡西市,鸡冠区,红星乡","lng":130.97030688845558,"lat":45.28260821161705,"info":"直接检索POI第一个结果成功!","tag":["行政地标","乡镇"]},