[{"name":"湖北省","code":"42","level":1,"mergeName":"湖北省,湖北省","lng":114.34844343150371,"lat":30.55160022015935,"info":"直接检索POI第一个结果成功!","tag":""},{"name":"武汉市","code":"4201","level":2,"mergeName":"湖北省,武汉市","lng":114.31158595642933,"lat":30.598466503263325,"info":"直接检索POI第一个结果成功!","tag":""},{"name":"江岸区","code":"420102","level":3,"mergeName":"湖北省,武汉市,江岸区","lng":114.3165805350648,"lat":30.60540209819996,"info":"直接检索POI第一个结果成功!","tag":""},{"name":"大智街道","code":"420102002","level":4,"mergeName":"湖北省,武汉市,江岸区,大智街道","lng":114.29810822971037,"lat":30.589266216515064,"info":"直接检索POI第一个结果成功!","tag":["行政地标","村庄"]},{"name":"一元街道","code":"420102003","level":4,"mergeName":"湖北省,武汉市,江岸区,一元街道","lng":114.30582224861621,"lat":30.59602482136716,"info":"直接检索POI第一个结果成功!","tag":""},{"name":"车站街道","code":"420102004","level":4,"mergeName":"湖北省,武汉市,江岸区,车站街道","lng":114.30408492575991,"lat":30.599458188074514,"info":"直接检索POI第一个结果成功!","tag":""},{"name":"四唯街道","code":"420102005","level":4,"mergeName":"湖北省,武汉市,江岸区,四唯街道","lng":114.31303600118352,"lat":30.60607278443182,"info":"直接检索POI第一个结果成功!","tag":["政府机构","各级政府","乡镇级政府"]},{"name":"永清街道","code":"420102006","level":4,"mergeName":"湖北省,武汉市,江岸区,永清街道","lng":114.3155051735388,"lat":30.60892456668593,"info":"直接检索POI第一个结果成功!","tag":["行政地标","乡镇"]},{"name":"西马街道","code":"420102007","level":4,"mergeName":"湖北省,武汉市,江岸区,西马街道","lng":114.29611129656168,"lat":30.598695288757714,"info":"直接检索POI第一个结果成功!","tag":""},{"name":"球场街道","code":"420102008","level":4,"mergeName":"湖北省,武汉市,江岸区,球场街道","lng":114.30057722240454,"lat":30.59846696953866,"info":"直接检索POI第一个结果成功!","tag":["道路","乡道"]},{"name":"劳动街道","code":"420102009","level":4,"mergeName":"湖北省,武汉市,江岸区,劳动街道","lng":114.30512354659054,"lat":30.60750855472511,"info":"直接检索POI第一个结果成功!","tag":""},{"name":"二七街道","code":"420102010","level":4,"mergeName":"湖北省,武汉市,江岸区,二七街道","lng":114.31815481547103,"lat":30.63340304468531,"info":"直接检索POI第一个结果成功!","tag":""},{"name":"新村街道","code":"420102011","level":4,"mergeName":"湖北省,武汉市,江岸区,新村街道","lng":114.32625645320444,"lat":30.634386755152672,"info":"直接检索POI第一个结果成功!","tag":""},{"name":"丹水池街道","code":"420102012","level":4,"mergeName":"湖北省,武汉市,江岸区,丹水池街道","lng":114.3388630032398,"lat":30.658432897807792,"info":"直接检索POI第一个结果成功!","tag":""},{"name":"台北街道","code":"420102014","level":4,"mergeName":"湖北省,武汉市,江岸区,台北街道","lng":114.28568816789885,"lat":30.603682272839208,"info":"检索POI失败,BMAP_STATUE_CODE:1 ,GetPoint结果: 直接查询获得"},{"name":"花桥街道","code":"420102015","level":4,"mergeName":"湖北省,武汉市,江岸区,花桥街道","lng":114.29018858867329,"lat":30.614627954447528,"info":"直接检索POI第一个结果成功!","tag":""},{"name":"谌家矶街道","code":"420102016","level":4,"mergeName":"湖北省,武汉市,江岸区,谌家矶街道","lng":114.37746624524229,"lat":30.682970078118778,"info":"直接检索POI第一个结果成功!","tag":["行政地标","乡镇"]},{"name":"后湖街道","code":"420102017","level":4,"mergeName":"湖北省,武汉市,江岸区,后湖街道","lng":114.29918386072802,"lat":30.64024755843011,"info":"直接检索POI第一个结果成功!","tag":["行政地标","乡镇"]},{"name":"塔子湖街道","code":"420102018","level":4,"mergeName":"湖北省,武汉市,江岸区,塔子湖街道","lng":114.29426096687223,"lat":30.64398173318144,"info":"直接检索POI第一个结果成功!","tag":["行政地标","乡镇"]},{"name":"百步亭花园","code":"420102400","level":4,"mergeName":"湖北省,武汉市,江岸区,百步亭花园","lng":114.33102843173452,"lat":30.64879602714838,"info":"直接检索POI第一个结果成功!","tag":["地产小区"]},{"name":"江汉区","code":"420103","level":3,"mergeName":"湖北省,武汉市,江汉区","lng":114.27750424538075,"lat":30.607282587648452,"info":"直接检索POI第一个结果成功!","tag":""},{"name":"民族街街道","code":"420103001","level":4,"mergeName":"湖北省,武汉市,江汉区,民族街街道","lng":114.29193552339855,"lat":30.573350248373504,"info":"直接检索POI第一个结果成功!","tag":["地产小区"]},{"name":"花楼街街道","code":"420103002","level":4,"mergeName":"湖北省,武汉市,江汉区,花楼街街道","lng":114.2983814942465,"lat":30.582846795372284,"info":"直接检索POI第一个结果成功!","tag":["道路"]},{"name":"水塔街街道","code":"420103003","level":4,"mergeName":"湖北省,武汉市,江汉区,水塔街街道","lng":114.29345913937402,"lat":30.585853003888435,"info":"直接检索POI第一个结果成功!","tag":""},{"name":"民权街街道","code":"420103004","level":4,"mergeName":"湖北省,武汉市,江汉区,民权街街道","lng":114.27750613182234,"lat":30.6072822768268,"info":"检索POI失败,BMAP_STATUE_CODE:1 ,GetPoint结果: 直接查询获得"},{"name":"满春街街道","code":"420103005","level":4,"mergeName":"湖北省,武汉市,江汉区,满春街街道","lng":114.29012085643785,"lat":30.57925108217874,"info":"直接检索POI第一个结果成功!","tag":["行政地标","乡镇"]},{"name":"民意街街道","code":"420103006","level":4,"mergeName":"湖北省,武汉市,江汉区,民意街街道","lng":114.28302819545326,"lat":30.584377503413002,"info":"直接检索POI第一个结果成功!","tag":["地产小区","小区/楼盘"]},{"name":"新华街街道","code":"420103007","level":4,"mergeName":"湖北省,武汉市,江汉区,新华街街道","lng":114.28231179680905,"lat":30.587553096779196,"info":"直接检索POI第一个结果成功!","tag":["政府机构","各级政府"]},{"name":"万松街街道","code":"420103008","level":4,"mergeName":"湖北省,武汉市,江汉区,万松街街道","lng":114.27297624662715,"lat":30.59439933038616,"info":"直接检索POI第一个结果成功!","tag":""},{"name":"唐家墩街街道","code":"420103009","level":4,"mergeName":"湖北省,武汉市,江汉区,唐家墩街街道","lng":114.2756717021404,"lat":30.625776634766506,"info":"直接检索POI第一个结果成功!","tag":""},{"name":"北湖街街道","code":"420103010","level":4,"mergeName":"湖北省,武汉市,江汉区,北湖街街道","lng":114.27907187832622,"lat":30.607236042094375,"info":"直接检索POI第一个结果成功!","tag":["道路","乡道"]},{"name":"前进街街道","code":"420103011","level":4,"mergeName":"湖北省,武汉市,江汉区,前进街街道","lng":113.98288267540683,"lat":30.53230193110858,"info":"直接检索POI第一个结果成功!","tag":["道路","乡道"]},{"name":"常青街街道","code":"420103012","level":4,"mergeName":"湖北省,武汉市,江汉区,常青街街道","lng":114.25141763303209,"lat":30.609748925759316,"info":"直接检索POI第一个结果成功!","tag":["行政地标","乡镇"]},{"name":"汉兴街街道","code":"420103013","level":4,"mergeName":"湖北省,武汉市,江汉区,汉兴街街道","lng":114.26948426361822,"lat":30.63835536458143,"info":"直接检索POI第一个结果成功!","tag":["政府机构","各级政府"]},{"name":"江汉经济开发区","code":"420103400","level":4,"mergeName":"湖北省,武汉市,江汉区,江汉经济开发区","lng":114.23972591732809,"lat":30.629575931889754,"info":"直接检索POI第一个结果成功!","tag":["名称标注类"]},{"name":"武汉中央商务区管理委员会","code":"420103401","level":4,"mergeName":"湖北省,武汉市,江汉区,武汉中央商务区管理委员会","lng":114.26925097367729,"lat":30.602331070861602,"info":"直接检索POI第一个结果成功!","tag":""},{"name":"硚口区","code":"420104","level":3,"mergeName":"湖北省,武汉市,硚口区","lng":114.22145896461323,"lat":30.587584185332847,"info":"直接检索POI第一个结果成功!","tag":""},{"name":"古田街道","code":"420104001","level":4,"mergeName":"湖北省,武汉市,硚口区,古田街道","lng":114.2016819603361,"lat":30.597115305521985,"info":"直接检索POI第一个结果成功!","tag":""},{"name":"韩家墩街道","code":"420104002","level":4,"mergeName":"湖北省,武汉市,硚口区,韩家墩街道","lng":114.22241997184781,"lat":30.593571963862907,"info":"直接检索POI第一个结果成功!","tag":["名称标注类"]},{"name":"宗关街道","code":"420104003","level":4,"mergeName":"湖北省,武汉市,硚口区,宗关街道","lng":114.23583472735051,"lat":30.58512178524914,"info":"直接检索POI第一个结果成功!","tag":""},{"name":"汉水桥街道","code":"420104004","level":4,"mergeName":"湖北省,武汉市,硚口区,汉水桥街道","lng":114.25301464056774,"lat":30.57897413648934,"info":"直接检索POI第一个结果成功!","tag":["行政地标","乡镇"]},{"name":"宝丰街道","code":"420104005","level":4,"mergeName":"湖北省,武汉市,硚口区,宝丰街道","lng":114.26908460749684,"lat":30.583495021418138,"info":"直接检索POI第一个结果成功!","tag":""},{"name":"荣华街道","code":"420104006","level":4,"mergeName":"湖北省,武汉市,硚口区,荣华街道","lng":114.27189010543503,"lat":30.579275100164665,"info":"直接检索POI第一个结果成功!","tag":""},{"name":"汉中街道","code":"420104008","level":4,"mergeName":"湖北省,武汉市,硚口区,汉中街道","lng":114.2716078578438,"lat":30.572620955565068,"info":"直接检索POI第一个结果成功!","tag":["行政地标","村庄"]},{"name":"汉正街道","code":"420104009","level":4,"mergeName":"湖北省,武汉市,硚口区,汉正街道","lng":114.28327585828237,"lat":30.56819432010511,"info":"直接检索POI第一个结果成功!","tag":["行政地标","乡镇"]},{"name":"六角亭街道","code":"420104010","level":4,"mergeName":"湖北省,武汉市,硚口区,六角亭街道","lng":114.28252990538688,"lat":30.58131870561951,"info":"直接检索POI第一个结果成功!","tag":""},{"name":"长丰街道","code":"420104011","level":4,"mergeName":"湖北省,武汉市,硚口区,长丰街道","lng":114.2091713130339,"lat":30.612792831019597,"info":"直接检索POI第一个结果成功!","tag":["名称标注类"]},{"name":"易家街道","code":"420104012","level":4,"mergeName":"湖北省,武汉市,硚口区,易家街道","lng":114.17573198025552,"lat":30.617909379607845,"info":"直接检索POI第一个结果成功!","tag":""},{"name":"汉阳区","code":"420105","level":3,"mergeName":"湖北省,武汉市,汉阳区","lng":114.22544744107753,"lat":30.56005132775051,"info":"直接检索POI第一个结果成功!","tag":""},{"name":"建桥街道","code":"420105002","level":4,"mergeName":"湖北省,武汉市,汉阳区,建桥街道","lng":114.28396018741986,"lat":30.558024684623856,"info":"直接检索POI第一个结果成功!","tag":""},{"name":"晴川街道","code":"420105004","level":4,"mergeName":"湖北省,武汉市,汉阳区,晴川街道","lng":114.25070482760992,"lat":30.566789445491246,"info":"直接检索POI第一个结果成功!","tag":""},{"name":"鹦鹉街道","code":"420105005","level":4,"mergeName":"湖北省,武汉市,汉阳区,鹦鹉街道","lng":114.25777997163706,"lat":30.546349818812992,"info":"直接检索POI第一个结果成功!","tag":""},{"name":"洲头街道","code":"420105006","level":4,"mergeName":"湖北省,武汉市,汉阳区,洲头街道","lng":114.2611588579823,"lat":30.53012982143897,"info":"直接检索POI第一个结果成功!","tag":["行政地标","乡镇"]},{"name":"五里墩街道","code":"420105007","level":4,"mergeName":"湖北省,武汉市,汉阳区,五里墩街道","lng":114.2348965370759,"lat":30.56317019730861,"info":"直接检索POI第一个结果成功!","tag":""},{"name":"琴断口街道","code":"420105008","level":4,"mergeName":"湖北省,武汉市,汉阳区,琴断口街道","lng":114.19610303396638,"lat":30.58226688584356,"info":"直接检索POI第一个结果成功!","tag":""},{"name":"江汉二桥街道","code":"420105009","level":4,"mergeName":"湖北省,武汉市,汉阳区,江汉二桥街道","lng":114.20983902351946,"lat":30.57752285961306,"info":"直接检索POI第一个结果成功!","tag":""},{"name":"永丰街道","code":"420105010","level":4,"mergeName":"湖北省,武汉市,汉阳区,永丰街道","lng":114.22084066093072,"lat":30.57008292366408,"info":"直接检索POI第一个结果成功!","tag":["行政地标","乡镇"]},{"name":"江堤街道","code":"420105011","level":4,"mergeName":"湖北省,武汉市,汉阳区,江堤街道","lng":114.22701327741198,"lat":30.514721685114548,"info":"直接检索POI第一个结果成功!","tag":""},{"name":"四新街道","code":"420105012","level":4,"mergeName":"湖北省,武汉市,汉阳区,四新街道","lng":114.22263421771194,"lat":30.530227186754825,"info":"直接检索POI第一个结果成功!","tag":""},{"name":"龙阳街道","code":"420105013","level":4,"mergeName":"湖北省,武汉市,汉阳区,龙阳街道","lng":114.21145561411522,"lat":30.56073515855765,"info":"直接检索POI第一个结果成功!","tag":""},{"name":"武昌区","code":"420106","level":3,"mergeName":"湖北省,武汉市,武昌区","lng":114.32254528365105,"lat":30.559567372242732,"info":"直接检索POI第一个结果成功!","tag":""},{"name":"积玉桥街道","code":"420106001","level":4,"mergeName":"湖北省,武汉市,武昌区,积玉桥街道","lng":114.32006030111879,"lat":30.563601037722943,"info":"直接检索POI第一个结果成功!","tag":""},{"name":"杨园街道","code":"420106002","level":4,"mergeName":"湖北省,武汉市,武昌区,杨园街道","lng":114.35715968986703,"lat":30.61788630365519,"info":"直接检索POI第一个结果成功!","tag":""},{"name":"徐家棚街道","code":"420106003","level":4,"mergeName":"湖北省,武汉市,武昌区,徐家棚街道","lng":114.34948564555638,"lat":30.586992257541553,"info":"直接检索POI第一个结果成功!","tag":["行政地标","乡镇"]},{"name":"粮道街道","code":"420106005","level":4,"mergeName":"湖北省,武汉市,武昌区,粮道街道","lng":114.31309573849994,"lat":30.554389478827613,"info":"直接检索POI第一个结果成功!","tag":""},{"name":"中华路街道","code":"420106006","level":4,"mergeName":"湖北省,武汉市,武昌区,中华路街道","lng":114.30737784426783,"lat":30.554545052934305,"info":"直接检索POI第一个结果成功!","tag":["行政地标","乡镇"]},{"name":"黄鹤楼街道","code":"420106007","level":4,"mergeName":"湖北省,武汉市,武昌区,黄鹤楼街道","lng":114.30774291562707,"lat":30.544218071052406,"info":"直接检索POI第一个结果成功!","tag":["行政地标","乡镇"]},{"name":"紫阳街道","code":"420106008","level":4,"mergeName":"湖北省,武汉市,武昌区,紫阳街道","lng":114.31462752905556,"lat":30.536364346751675,"info":"直接检索POI第一个结果成功!","tag":["行政地标","乡镇"]},{"name":"白沙洲街道","code":"420106009","level":4,"mergeName":"湖北省,武汉市,武昌区,白沙洲街道","lng":114.29284793230504,"lat":30.518677121925162,"info":"直接检索POI第一个结果成功!","tag":["行政地标","乡镇"]},{"name":"首义路街道","code":"420106010","level":4,"mergeName":"湖北省,武汉市,武昌区,首义路街道","lng":114.31727169132417,"lat":30.54156047366749,"info":"直接检索POI第一个结果成功!","tag":["行政地标","乡镇"]},{"name":"中南路街道","code":"420106011","level":4,"mergeName":"湖北省,武汉市,武昌区,中南路街道","lng":114.33129298270723,"lat":30.53746911682248,"info":"直接检索POI第一个结果成功!","tag":""},{"name":"水果湖街道","code":"420106012","level":4,"mergeName":"湖北省,武汉市,武昌区,水果湖街道","lng":114.34861222310903,"lat":30.560430716066385,"info":"直接检索POI第一个结果成功!","tag":["行政地标","乡镇"]},{"name":"珞珈山街道","code":"420106013","level":4,"mergeName":"湖北省,武汉市,武昌区,珞珈山街道","lng":114.37229200550482,"lat":30.53671933338046,"info":"直接检索POI第一个结果成功!","tag":["行政地标","乡镇"]},{"name":"石洞街道","code":"420106014","level":4,"mergeName":"湖北省,武汉市,武昌区,石洞街道","lng":114.28686000743663,"lat":30.345298900940588,"info":"直接检索POI第一个结果成功!","tag":""},{"name":"南湖街道","code":"420106015","level":4,"mergeName":"湖北省,武汉市,武昌区,南湖街道","lng":114.32041737755901,"lat":30.519958102593147,"info":"直接检索POI第一个结果成功!","tag":["行政地标","乡镇"]},{"name":"东湖风景区街道（武昌）","code":"420106490","level":4,"mergeName":"湖北省,武汉市,武昌区,东湖风景区街道（武昌）","lng":114.42000496368398,"lat":30.557868805169253,"info":"直接检索POI第一个结果成功!","tag":["旅游景点","<font color=\"#c60a00\">风景区</font>/旅游区"]},{"name":"青山区","code":"420107","level":3,"mergeName":"湖北省,武汉市,青山区","lng":114.39149023154185,"lat":30.646593463910854,"info":"直接检索POI第一个结果成功!","tag":""},{"name":"红卫路街道","code":"420107001","level":4,"mergeName":"湖北省,武汉市,青山区,红卫路街道","lng":114.38703544468733,"lat":30.63182775073457,"info":"直接检索POI第一个结果成功!","tag":["行政地标","乡镇"]},{"name":"冶金街道","code":"420107002","level":4,"mergeName":"湖北省,武汉市,青山区,冶金街道","lng":114.40453641229382,"lat":30.63464575139559,"info":"直接检索POI第一个结果成功!","tag":""},{"name":"新沟桥街道","code":"420107003","level":4,"mergeName":"湖北省,武汉市,青山区,新沟桥街道","lng":114.40467897337825,"lat":30.63893244921617,"info":"直接检索POI第一个结果成功!","tag":""},{"name":"红钢城街道","code":"420107004","level":4,"mergeName":"湖北省,武汉市,青山区,红钢城街道","lng":114.41868696983975,"lat":30.651661139899513,"info":"直接检索POI第一个结果成功!","tag":""},{"name":"工人村街道","code":"420107005","level":4,"mergeName":"湖北省,武汉市,青山区,工人村街道","lng":114.42646153453694,"lat":30.65582917902504,"info":"直接检索POI第一个结果成功!","tag":""},{"name":"青山镇街道","code":"420107006","level":4,"mergeName":"湖北省,武汉市,青山区,青山镇街道","lng":114.42645434809288,"lat":30.655845100563205,"info":"直接检索POI第一个结果成功!","tag":["名称标注类"]},{"name":"厂前街道","code":"420107007","level":4,"mergeName":"湖北省,武汉市,青山区,厂前街道","lng":114.44127423307428,"lat":30.6183308838262,"info":"直接检索POI第一个结果成功!","tag":""},{"name":"武东街道","code":"420107008","level":4,"mergeName":"湖北省,武汉市,青山区,武东街道","lng":114.46544700553393,"lat":30.58231903975905,"info":"直接检索POI第一个结果成功!","tag":["行政地标","村庄"]},{"name":"白玉山街道","code":"420107009","level":4,"mergeName":"湖北省,武汉市,青山区,白玉山街道","lng":114.48911268453321,"lat":30.612850562806653,"info":"直接检索POI第一个结果成功!","tag":["行政地标","村庄"]},{"name":"钢花村街道","code":"420107010","level":4,"mergeName":"湖北省,武汉市,青山区,钢花村街道","lng":114.38741956012339,"lat":30.625843914649245,"info":"直接检索POI第一个结果成功!","tag":["行政地标","村庄"]},{"name":"武钢集团","code":"420107400","level":4,"mergeName":"湖北省,武汉市,青山区,武钢集团","lng":114.36030501677966,"lat":30.6050828775696,"info":"直接检索POI第一个结果成功!","tag":""},{"name":"中国一冶有限责任公司","code":"420107401","level":4,"mergeName":"湖北省,武汉市,青山区,中国一冶有限责任公司","lng":114.39469691272083,"lat":30.632439755278437,"info":"直接检索POI第一个结果成功!","tag":["商务大厦","办公大厦"]},{"name":"武汉钢铁有限公司","code":"420107402","level":4,"mergeName":"湖北省,武汉市,青山区,武汉钢铁有限公司","lng":114.46804517456044,"lat":30.601162780238795,"info":"直接检索POI第一个结果成功!","tag":""},{"name":"中国一冶集体企业管理处","code":"420107403","level":4,"mergeName":"湖北省,武汉市,青山区,中国一冶集体企业管理处","lng":114.39469745170413,"lat":30.63243905611324,"info":"直接检索POI第一个结果成功!","tag":""},{"name":"开发区","code":"420107404","level":4,"mergeName":"湖北省,武汉市,青山区,开发区","lng":114.17406409641515,"lat":30.511538395159974,"info":"直接检索POI第一个结果成功!","tag":["政府机构","机关单位"]},{"name":"钢都花园","code":"420107405","level":4,"mergeName":"湖北省,武汉市,青山区,钢都花园","lng":114.37702841113672,"lat":30.62019053053826,"info":"直接检索POI第一个结果成功!","tag":["地产小区","小区/楼盘"]},{"name":"北湖工业园管理办公室","code":"420107406","level":4,"mergeName":"湖北省,武汉市,青山区,北湖工业园管理办公室","lng":114.38932172204076,"lat":30.744697308163424,"info":"直接检索POI第一个结果成功!","tag":""},{"name":"洪山区","code":"420111","level":3,"mergeName":"湖北省,武汉市,洪山区","lng":114.35045563584606,"lat":30.506334890253214,"info":"直接检索POI第一个结果成功!","tag":""},{"name":"珞南街道","code":"420111001","level":4,"mergeName":"湖北省,武汉市,洪山区,珞南街道","lng":114.35643933867857,"lat":30.521522011427678,"info":"直接检索POI第一个结果成功!","tag":""},{"name":"关山街道","code":"420111002","level":4,"mergeName":"湖北省,武汉市,洪山区,关山街道","lng":114.42517920342145,"lat":30.499682074656686,"info":"检索POI失败,BMAP_STATUE_CODE:1 ,GetPoint结果: 直接查询获得"},{"name":"狮子山街道","code":"420111003","level":4,"mergeName":"湖北省,武汉市,洪山区,狮子山街道","lng":114.35487952099106,"lat":30.482884282262123,"info":"直接检索POI第一个结果成功!","tag":["行政地标","乡镇"]},{"name":"张家湾街道","code":"420111004","level":4,"mergeName":"湖北省,武汉市,洪山区,张家湾街道","lng":114.2864881089555,"lat":30.488630164505565,"info":"直接检索POI第一个结果成功!","tag":["行政地标","村庄"]},{"name":"梨园街道","code":"420111005","level":4,"mergeName":"湖北省,武汉市,洪山区,梨园街道","lng":114.37866970513402,"lat":30.593865654149138,"info":"直接检索POI第一个结果成功!","tag":""},{"name":"卓刀泉街道","code":"420111006","level":4,"mergeName":"湖北省,武汉市,洪山区,卓刀泉街道","lng":114.37656901769893,"lat":30.51810390283106,"info":"直接检索POI第一个结果成功!","tag":""},{"name":"洪山街街道","code":"420111007","level":4,"mergeName":"湖北省,武汉市,洪山区,洪山街街道","lng":114.3459442557444,"lat":30.50820790750457,"info":"直接检索POI第一个结果成功!","tag":["政府机构"]},{"name":"和平街道","code":"420111008","level":4,"mergeName":"湖北省,武汉市,洪山区,和平街道","lng":114.3943077667739,"lat":30.630234329854865,"info":"直接检索POI第一个结果成功!","tag":""},{"name":"青菱街道","code":"420111009","level":4,"mergeName":"湖北省,武汉市,洪山区,青菱街道","lng":114.25502343134914,"lat":30.470264561992163,"info":"直接检索POI第一个结果成功!","tag":["行政地标","乡镇"]},{"name":"八吉府街道","code":"420111061","level":4,"mergeName":"湖北省,武汉市,洪山区,八吉府街道","lng":114.46834799334785,"lat":30.664531729793314,"info":"直接检索POI第一个结果成功!","tag":["政府机构"]},{"name":"关东街道","code":"420111080","level":4,"mergeName":"湖北省,武汉市,洪山区,关东街道","lng":114.43019318545595,"lat":30.48425933852466,"info":"直接检索POI第一个结果成功!","tag":["政府机构"]},{"name":"花山街道","code":"420111081","level":4,"mergeName":"湖北省,武汉市,洪山区,花山街道","lng":114.52908063226644,"lat":30.55109880588408,"info":"直接检索POI第一个结果成功!","tag":["行政地标","乡镇"]},{"name":"左岭街道","code":"420111082","level":4,"mergeName":"湖北省,武汉市,洪山区,左岭街道","lng":114.61734687404916,"lat":30.530992807549122,"info":"直接检索POI第一个结果成功!","tag":["行政地标","乡镇"]},{"name":"九峰街道","code":"420111083","level":4,"mergeName":"湖北省,武汉市,洪山区,九峰街道","lng":114.49167016032011,"lat":30.509805376749686,"info":"直接检索POI第一个结果成功!","tag":["行政地标","乡镇"]},{"name":"天兴乡","code":"420111205","level":4,"mergeName":"湖北省,武汉市,洪山区,天兴乡","lng":114.42317795840633,"lat":30.679008753807214,"info":"直接检索POI第一个结果成功!","tag":["行政地标","乡镇"]},{"name":"清谭湖街道","code":"420111460","level":4,"mergeName":"湖北省,武汉市,洪山区,清谭湖街道","lng":114.55825633760281,"lat":30.570722762777354,"info":"直接检索POI第一个结果成功!","tag":["名称标注类"]},{"name":"东湖风景区街道（洪山）","code":"420111491","level":4,"mergeName":"湖北省,武汉市,洪山区,东湖风景区街道（洪山）","lng":114.42000496368398,"lat":30.557868805169253,"info":"直接检索POI第一个结果成功!","tag":["旅游景点","<font color=\"#c60a00\">风景区</font>/旅游区"]},{"name":"东西湖区","code":"420112","level":3,"mergeName":"湖北省,武汉市,东西湖区","lng":114.14345909718185,"lat":30.62592036194135,"info":"直接检索POI第一个结果成功!","tag":""},{"name":"吴家山街道","code":"420112001","level":4,"mergeName":"湖北省,武汉市,东西湖区,吴家山街道","lng":114.1498555713962,"lat":30.626460929569266,"info":"直接检索POI第一个结果成功!","tag":["名称标注类"]},{"name":"柏泉街道","code":"420112002","level":4,"mergeName":"湖北省,武汉市,东西湖区,柏泉街道","lng":114.12051817106803,"lat":30.76005724526333,"info":"直接检索POI第一个结果成功!","tag":["行政地标","乡镇"]},{"name":"将军路街道","code":"420112004","level":4,"mergeName":"湖北省,武汉市,东西湖区,将军路街道","lng":114.26253838575397,"lat":30.6564605242328,"info":"直接检索POI第一个结果成功!","tag":["行政地标","乡镇"]},{"name":"慈惠街道","code":"420112005","level":4,"mergeName":"湖北省,武汉市,东西湖区,慈惠街道","lng":114.13391181639125,"lat":30.602915366254376,"info":"直接检索POI第一个结果成功!","tag":["行政地标","乡镇"]},{"name":"走马岭街道","code":"420112006","level":4,"mergeName":"湖北省,武汉市,东西湖区,走马岭街道","lng":114.02842371052398,"lat":30.654141869296648,"info":"直接检索POI第一个结果成功!","tag":""},{"name":"径河街道","code":"420112007","level":4,"mergeName":"湖北省,武汉市,东西湖区,径河街道","lng":114.17124422558878,"lat":30.68439631035295,"info":"直接检索POI第一个结果成功!","tag":["行政地标","乡镇"]},{"name":"长青街道","code":"420112008","level":4,"mergeName":"湖北省,武汉市,东西湖区,长青街道","lng":114.13828009642518,"lat":30.623032492042462,"info":"直接检索POI第一个结果成功!","tag":["行政地标","乡镇"]},{"name":"辛安渡街道","code":"420112011","level":4,"mergeName":"湖北省,武汉市,东西湖区,辛安渡街道","lng":113.94019762299756,"lat":30.74542862727258,"info":"直接检索POI第一个结果成功!","tag":["行政地标","乡镇"]},{"name":"东山街道","code":"420112012","level":4,"mergeName":"湖北省,武汉市,东西湖区,东山街道","lng":114.02607383314043,"lat":30.7834605828149,"info":"直接检索POI第一个结果成功!","tag":""},{"name":"常青花园新区管理委员会街道","code":"420112013","level":4,"mergeName":"湖北省,武汉市,东西湖区,常青花园新区管理委员会街道","lng":114.24107795695114,"lat":30.644802839049355,"info":"直接检索POI第一个结果成功!","tag":["政府机构"]},{"name":"新沟镇街道","code":"420112014","level":4,"mergeName":"湖北省,武汉市,东西湖区,新沟镇街道","lng":113.95635230013626,"lat":30.70242700717126,"info":"直接检索POI第一个结果成功!","tag":["行政地标","乡镇"]},{"name":"金银湖街道","code":"420112015","level":4,"mergeName":"湖北省,武汉市,东西湖区,金银湖街道","lng":114.22796799650799,"lat":30.65582684904362,"info":"直接检索POI第一个结果成功!","tag":["行政地标","乡镇"]},{"name":"产业管理处","code":"420112400","level":4,"mergeName":"湖北省,武汉市,东西湖区,产业管理处","lng":114.13160658479154,"lat":30.617942711529654,"info":"直接检索POI第一个结果成功!","tag":""},{"name":"保税物流管理处","code":"420112401","level":4,"mergeName":"湖北省,武汉市,东西湖区,保税物流管理处","lng":114.05714729869719,"lat":30.630911445685665,"info":"直接检索POI第一个结果成功!","tag":["政府机构"]},{"name":"海峡两岸科技产业管理处","code":"420112402","level":4,"mergeName":"湖北省,武汉市,东西湖区,海峡两岸科技产业管理处","lng":114.13160658479154,"lat":30.617942711529654,"info":"直接检索POI第一个结果成功!","tag":""},{"name":"食品工业管理处","code":"420112403","level":4,"mergeName":"湖北省,武汉市,东西湖区,食品工业管理处","lng":114.0223752398642,"lat":30.66219369987527,"info":"直接检索POI第一个结果成功!","tag":""},{"name":"临空经济管理处","code":"420112404","level":4,"mergeName":"湖北省,武汉市,东西湖区,临空经济管理处","lng":114.06573420106706,"lat":30.640740273079267,"info":"直接检索POI第一个结果成功!","tag":""},{"name":"农科所管理处","code":"420112405","level":4,"mergeName":"湖北省,武汉市,东西湖区,农科所管理处","lng":116.10946985985004,"lat":29.87677344096315,"info":"直接检索POI第一个结果成功!","tag":""},{"name":"现代服务业管理处","code":"420112406","level":4,"mergeName":"湖北省,武汉市,东西湖区,现代服务业管理处","lng":113.90895615959454,"lat":22.52048259009376,"info":"直接检索POI第一个结果成功!","tag":["政府机构"]},{"name":"汉南区","code":"420113","level":3,"mergeName":"湖北省,武汉市,汉南区","lng":114.09151907259492,"lat":30.31480818484775,"info":"直接检索POI第一个结果成功!","tag":""},{"name":"纱帽街道","code":"420113001","level":4,"mergeName":"湖北省,武汉市,汉南区,纱帽街道","lng":114.09235665265243,"lat":30.319982888480055,"info":"直接检索POI第一个结果成功!","tag":["行政地标","乡镇"]},{"name":"邓南街道","code":"420113002","level":4,"mergeName":"湖北省,武汉市,汉南区,邓南街道","lng":113.98957199721744,"lat":30.306416962083286,"info":"直接检索POI第一个结果成功!","tag":["名称标注类"]},{"name":"东荆街道","code":"420113003","level":4,"mergeName":"湖北省,武汉市,汉南区,东荆街道","lng":113.92502542259514,"lat":30.349095872794546,"info":"直接检索POI第一个结果成功!","tag":""},{"name":"湘口街道","code":"420113004","level":4,"mergeName":"湖北省,武汉市,汉南区,湘口街道","lng":113.85985281886293,"lat":30.268056325199524,"info":"直接检索POI第一个结果成功!","tag":""},{"name":"蔡甸区","code":"420114","level":3,"mergeName":"湖北省,武汉市,蔡甸区","lng":114.0354827748825,"lat":30.58811268920417,"info":"直接检索POI第一个结果成功!","tag":""},{"name":"蔡甸街道","code":"420114001","level":4,"mergeName":"湖北省,武汉市,蔡甸区,蔡甸街道","lng":114.04076184687298,"lat":30.58418560274303,"info":"直接检索POI第一个结果成功!","tag":["行政地标","乡镇"]},{"name":"奓山街道","code":"420114002","level":4,"mergeName":"湖北省,武汉市,蔡甸区,奓山街道","lng":114.0173240679816,"lat":30.45373241126676,"info":"直接检索POI第一个结果成功!","tag":""},{"name":"永安街道","code":"420114003","level":4,"mergeName":"湖北省,武汉市,蔡甸区,永安街道","lng":113.9517928606898,"lat":30.462589942834356,"info":"直接检索POI第一个结果成功!","tag":["行政地标","乡镇"]},{"name":"侏儒山街道","code":"420114004","level":4,"mergeName":"湖北省,武汉市,蔡甸区,侏儒山街道","lng":113.85571684063389,"lat":30.446421681286186,"info":"直接检索POI第一个结果成功!","tag":["行政地标","乡镇"]},{"name":"大集街道","code":"420114005","level":4,"mergeName":"湖北省,武汉市,蔡甸区,大集街道","lng":114.0576951752277,"lat":30.51412541934614,"info":"直接检索POI第一个结果成功!","tag":""},{"name":"张湾街道","code":"420114006","level":4,"mergeName":"湖北省,武汉市,蔡甸区,张湾街道","lng":113.98893914098566,"lat":30.58918414415016,"info":"直接检索POI第一个结果成功!","tag":""},{"name":"索河街道","code":"420114007","level":4,"mergeName":"湖北省,武汉市,蔡甸区,索河街道","lng":113.90884020306912,"lat":30.527617264488956,"info":"直接检索POI第一个结果成功!","tag":["行政地标","乡镇"]},{"name":"玉贤街道","code":"420114008","level":4,"mergeName":"湖北省,武汉市,蔡甸区,玉贤街道","lng":113.9931975582557,"lat":30.523607598456476,"info":"直接检索POI第一个结果成功!","tag":["行政地标","乡镇"]},{"name":"沌口街道","code":"420114070","level":4,"mergeName":"湖北省,武汉市,蔡甸区,沌口街道","lng":114.15769490392067,"lat":30.495701273898817,"info":"直接检索POI第一个结果成功!","tag":["行政地标","乡镇"]},{"name":"军山街道","code":"420114071","level":4,"mergeName":"湖北省,武汉市,蔡甸区,军山街道","lng":114.09131776233014,"lat":30.41161104723722,"info":"直接检索POI第一个结果成功!","tag":["行政地标","乡镇"]},{"name":"沌阳街道","code":"420114072","level":4,"mergeName":"湖北省,武汉市,蔡甸区,沌阳街道","lng":114.15540494351464,"lat":30.50038718302421,"info":"直接检索POI第一个结果成功!","tag":""},{"name":"消泗乡","code":"420114200","level":4,"mergeName":"湖北省,武汉市,蔡甸区,消泗乡","lng":113.78202264134238,"lat":30.3234096507754,"info":"直接检索POI第一个结果成功!","tag":["行政地标","乡镇"]},{"name":"桐湖","code":"420114400","level":4,"mergeName":"湖北省,武汉市,蔡甸区,桐湖","lng":114.0153926213046,"lat":30.388902832354248,"info":"直接检索POI第一个结果成功!","tag":["名称标注类","水系名称"]},{"name":"侏儒山街道洪北片区","code":"420114401","level":4,"mergeName":"湖北省,武汉市,蔡甸区,侏儒山街道洪北片区","lng":113.85571684063389,"lat":30.446421681286186,"info":"直接检索POI第一个结果成功!","tag":["行政地标","乡镇"]},{"name":"中法武汉生态示范城","code":"420114404","level":4,"mergeName":"湖北省,武汉市,蔡甸区,中法武汉生态示范城","lng":114.09283697660862,"lat":30.54121390287306,"info":"直接检索POI第一个结果成功!","tag":""},{"name":"侏儒山街道成功片区","code":"420114406","level":4,"mergeName":"湖北省,武汉市,蔡甸区,侏儒山街道成功片区","lng":113.85571684063389,"lat":30.446421681286186,"info":"直接检索POI第一个结果成功!","tag":["行政地标","乡镇"]},{"name":"蔡甸经济开发区","code":"420114407","level":4,"mergeName":"湖北省,武汉市,蔡甸区,蔡甸经济开发区","lng":114.05352200715058,"lat":30.45540293054459,"info":"直接检索POI第一个结果成功!","tag":""},{"name":"江夏区","code":"420115","level":3,"mergeName":"湖北省,武汉市,江夏区","lng":114.3285549475128,"lat":30.38156343930482,"info":"直接检索POI第一个结果成功!","tag":""},{"name":"纸坊街道","code":"420115001","level":4,"mergeName":"湖北省,武汉市,江夏区,纸坊街道","lng":114.3307727739864,"lat":30.361567206433538,"info":"直接检索POI第一个结果成功!","tag":["行政地标","乡镇"]},{"name":"金口街道","code":"420115002","level":4,"mergeName":"湖北省,武汉市,江夏区,金口街道","lng":114.1422490796599,"lat":30.33661631000175,"info":"直接检索POI第一个结果成功!","tag":["行政地标","乡镇"]},{"name":"乌龙泉街道","code":"420115003","level":4,"mergeName":"湖北省,武汉市,江夏区,乌龙泉街道","lng":114.33225749333327,"lat":30.26727840418023,"info":"直接检索POI第一个结果成功!","tag":["行政地标","乡镇"]},{"name":"郑店街道","code":"420115005","level":4,"mergeName":"湖北省,武汉市,江夏区,郑店街道","lng":114.2658630144464,"lat":30.336135050932445,"info":"直接检索POI第一个结果成功!","tag":["行政地标","乡镇"]},{"name":"五里界街道","code":"420115007","level":4,"mergeName":"湖北省,武汉市,江夏区,五里界街道","lng":114.40257011136303,"lat":30.342598029879067,"info":"直接检索POI第一个结果成功!","tag":["行政地标","乡镇"]},{"name":"金水街道","code":"420115008","level":4,"mergeName":"湖北省,武汉市,江夏区,金水街道","lng":114.14074998742485,"lat":30.35152784499986,"info":"直接检索POI第一个结果成功!","tag":""},{"name":"安山街道","code":"420115009","level":4,"mergeName":"湖北省,武汉市,江夏区,安山街道","lng":114.29822123654353,"lat":30.15499483903911,"info":"直接检索POI第一个结果成功!","tag":["行政地标","乡镇"]},{"name":"山坡街道","code":"420115010","level":4,"mergeName":"湖北省,武汉市,江夏区,山坡街道","lng":114.35769975113963,"lat":30.09591319029202,"info":"直接检索POI第一个结果成功!","tag":["名称标注类"]},{"name":"法泗街道","code":"420115014","level":4,"mergeName":"湖北省,武汉市,江夏区,法泗街道","lng":114.17139181718406,"lat":30.160875324875967,"info":"直接检索POI第一个结果成功!","tag":["行政地标","乡镇"]},{"name":"湖泗街道","code":"420115015","level":4,"mergeName":"湖北省,武汉市,江夏区,湖泗街道","lng":114.47265779369309,"lat":30.024042045159447,"info":"直接检索POI第一个结果成功!","tag":["行政地标","乡镇"]},{"name":"舒安街道","code":"420115016","level":4,"mergeName":"湖北省,武汉市,江夏区,舒安街道","lng":114.5132175450963,"lat":30.11908681056335,"info":"直接检索POI第一个结果成功!","tag":["名称标注类"]},{"name":"佛祖岭街道","code":"420115086","level":4,"mergeName":"湖北省,武汉市,江夏区,佛祖岭街道","lng":114.45826361569284,"lat":30.463877350480416,"info":"直接检索POI第一个结果成功!","tag":""},{"name":"豹澥街道","code":"420115087","level":4,"mergeName":"湖北省,武汉市,江夏区,豹澥街道","lng":114.54865057712351,"lat":30.4851982059892,"info":"直接检索POI第一个结果成功!","tag":["行政地标","乡镇"]},{"name":"龙泉街道","code":"420115088","level":4,"mergeName":"湖北省,武汉市,江夏区,龙泉街道","lng":114.54710980351281,"lat":30.390171362983892,"info":"直接检索POI第一个结果成功!","tag":["行政地标","乡镇"]},{"name":"滨湖街道","code":"420115089","level":4,"mergeName":"湖北省,武汉市,江夏区,滨湖街道","lng":114.46875034438578,"lat":30.30726900952573,"info":"直接检索POI第一个结果成功!","tag":""},{"name":"武汉江夏经济开发区庙山高新技术产业园","code":"420115401","level":4,"mergeName":"湖北省,武汉市,江夏区,武汉江夏经济开发区庙山高新技术产业园","lng":114.38038501950531,"lat":30.38146794891243,"info":"直接检索POI第一个结果成功!","tag":""},{"name":"武汉江夏经济开发区藏龙岛高新技术产业园","code":"420115402","level":4,"mergeName":"湖北省,武汉市,江夏区,武汉江夏经济开发区藏龙岛高新技术产业园","lng":114.43634532057159,"lat":30.438421265460732,"info":"直接检索POI第一个结果成功!","tag":""},{"name":"武汉江夏经济开发区大桥现代产业园","code":"420115403","level":4,"mergeName":"湖北省,武汉市,江夏区,武汉江夏经济开发区大桥现代产业园","lng":114.32792182178936,"lat":30.393589334710168,"info":"直接检索POI第一个结果成功!","tag":""},{"name":"江夏梁子湖风景区","code":"420115404","level":4,"mergeName":"湖北省,武汉市,江夏区,江夏梁子湖风景区","lng":114.52702881265111,"lat":30.246302992058528,"info":"直接检索POI第一个结果成功!","tag":""},{"name":"武汉江夏经济开发区金港汽车产业园","code":"420115405","level":4,"mergeName":"湖北省,武汉市,江夏区,武汉江夏经济开发区金港汽车产业园","lng":114.20462983969766,"lat":30.377975630721963,"info":"直接检索POI第一个结果成功!","tag":""},{"name":"黄陂区","code":"420116","level":3,"mergeName":"湖北省,武汉市,黄陂区","lng":114.38245327811148,"lat":30.887533380447636,"info":"直接检索POI第一个结果成功!","tag":""},{"name":"前川街道","code":"420116001","level":4,"mergeName":"湖北省,武汉市,黄陂区,前川街道","lng":114.3729756159979,"lat":30.89232647522604,"info":"直接检索POI第一个结果成功!","tag":["行政地标","乡镇"]},{"name":"祁家湾街道","code":"420116002","level":4,"mergeName":"湖北省,武汉市,黄陂区,祁家湾街道","lng":114.24146584527035,"lat":30.888695146722522,"info":"直接检索POI第一个结果成功!","tag":["行政地标","乡镇"]},{"name":"横店街道","code":"420116003","level":4,"mergeName":"湖北省,武汉市,黄陂区,横店街道","lng":114.3059043537398,"lat":30.808772382610243,"info":"直接检索POI第一个结果成功!","tag":["行政地标","乡镇"]},{"name":"罗汉寺街道","code":"420116004","level":4,"mergeName":"湖北省,武汉市,黄陂区,罗汉寺街道","lng":114.31402916775536,"lat":30.958910885269106,"info":"直接检索POI第一个结果成功!","tag":""},{"name":"滠口街道","code":"420116005","level":4,"mergeName":"湖北省,武汉市,黄陂区,滠口街道","lng":114.36075650512898,"lat":30.72102662212029,"info":"直接检索POI第一个结果成功!","tag":["行政地标","乡镇"]},{"name":"六指街道","code":"420116006","level":4,"mergeName":"湖北省,武汉市,黄陂区,六指街道","lng":114.50104631391105,"lat":30.892091342955723,"info":"直接检索POI第一个结果成功!","tag":["行政地标","乡镇"]},{"name":"天河街道","code":"420116007","level":4,"mergeName":"湖北省,武汉市,黄陂区,天河街道","lng":114.23116803022617,"lat":30.808144138028798,"info":"直接检索POI第一个结果成功!","tag":["行政地标","乡镇"]},{"name":"王家河街道","code":"420116008","level":4,"mergeName":"湖北省,武汉市,黄陂区,王家河街道","lng":114.43015330069132,"lat":30.96754309816618,"info":"直接检索POI第一个结果成功!","tag":["行政地标","乡镇"]},{"name":"长轩岭街道","code":"420116009","level":4,"mergeName":"湖北省,武汉市,黄陂区,长轩岭街道","lng":114.35897157208066,"lat":31.109431935050868,"info":"直接检索POI第一个结果成功!","tag":["行政地标","乡镇"]},{"name":"李集街道","code":"420116010","level":4,"mergeName":"湖北省,武汉市,黄陂区,李集街道","lng":114.67942167123022,"lat":30.87776576843123,"info":"直接检索POI第一个结果成功!","tag":["行政地标","乡镇"]},{"name":"姚集街道","code":"420116011","level":4,"mergeName":"湖北省,武汉市,黄陂区,姚集街道","lng":114.37891188829948,"lat":31.225415841968694,"info":"直接检索POI第一个结果成功!","tag":["政府机构","各级政府"]},{"name":"蔡榨街道","code":"420116012","level":4,"mergeName":"湖北省,武汉市,黄陂区,蔡榨街道","lng":114.54522372126407,"lat":30.93190196263491,"info":"直接检索POI第一个结果成功!","tag":["行政地标","乡镇"]},{"name":"武湖街道","code":"420116013","level":4,"mergeName":"湖北省,武汉市,黄陂区,武湖街道","lng":114.43040249063978,"lat":30.703688767710826,"info":"直接检索POI第一个结果成功!","tag":["行政地标","乡镇"]},{"name":"三里桥街道","code":"420116014","level":4,"mergeName":"湖北省,武汉市,黄陂区,三里桥街道","lng":114.4207094148649,"lat":30.794560339273307,"info":"直接检索POI第一个结果成功!","tag":["行政地标","乡镇"]},{"name":"蔡店街道","code":"420116015","level":4,"mergeName":"湖北省,武汉市,黄陂区,蔡店街道","lng":114.30401404945516,"lat":31.292894781524716,"info":"直接检索POI第一个结果成功!","tag":["行政地标","乡镇"]},{"name":"木兰乡","code":"420116201","level":4,"mergeName":"湖北省,武汉市,黄陂区,木兰乡","lng":114.46906933267238,"lat":31.106085056728105,"info":"直接检索POI第一个结果成功!","tag":["行政地标","乡镇"]},{"name":"木兰山风景区管理处","code":"420116401","level":4,"mergeName":"湖北省,武汉市,黄陂区,木兰山风景区管理处","lng":114.40027422214062,"lat":31.10009656888045,"info":"直接检索POI第一个结果成功!","tag":["旅游景点"]},{"name":"大潭","code":"420116402","level":4,"mergeName":"湖北省,武汉市,黄陂区,大潭","lng":114.39746809538856,"lat":30.810873195532462,"info":"直接检索POI第一个结果成功!","tag":["名称标注类"]},{"name":"盘龙城经济开发区","code":"420116403","level":4,"mergeName":"湖北省,武汉市,黄陂区,盘龙城经济开发区","lng":114.2628442587801,"lat":30.71809745921609,"info":"直接检索POI第一个结果成功!","tag":""},{"name":"汉口北商贸物流枢纽区管委会","code":"420116404","level":4,"mergeName":"湖北省,武汉市,黄陂区,汉口北商贸物流枢纽区管委会","lng":114.32978903962241,"lat":30.710861094730188,"info":"直接检索POI第一个结果成功!","tag":""},{"name":"新洲区","code":"420117","level":3,"mergeName":"湖北省,武汉市,新洲区","lng":114.80754042848815,"lat":30.84724433558431,"info":"直接检索POI第一个结果成功!","tag":""},{"name":"邾城街道","code":"420117001","level":4,"mergeName":"湖北省,武汉市,新洲区,邾城街道","lng":114.81070497913869,"lat":30.853198256213567,"info":"直接检索POI第一个结果成功!","tag":["行政地标","乡镇"]},{"name":"阳逻街道","code":"420117002","level":4,"mergeName":"湖北省,武汉市,新洲区,阳逻街道","lng":114.56718414691373,"lat":30.663972583479595,"info":"直接检索POI第一个结果成功!","tag":""},{"name":"仓埠街道","code":"420117003","level":4,"mergeName":"湖北省,武汉市,新洲区,仓埠街道","lng":114.61466597108519,"lat":30.83592925352713,"info":"直接检索POI第一个结果成功!","tag":["行政地标","乡镇"]},{"name":"汪集街道","code":"420117004","level":4,"mergeName":"湖北省,武汉市,新洲区,汪集街道","lng":114.71647138368375,"lat":30.784738723074767,"info":"直接检索POI第一个结果成功!","tag":["行政地标","乡镇"]},{"name":"李集街道","code":"420117005","level":4,"mergeName":"湖北省,武汉市,新洲区,李集街道","lng":114.67942167123022,"lat":30.87776576843123,"info":"直接检索POI第一个结果成功!","tag":["行政地标","乡镇"]},{"name":"三店街道","code":"420117006","level":4,"mergeName":"湖北省,武汉市,新洲区,三店街道","lng":114.7942069696341,"lat":30.93044768478073,"info":"直接检索POI第一个结果成功!","tag":["行政地标","乡镇"]},{"name":"潘塘街道","code":"420117007","level":4,"mergeName":"湖北省,武汉市,新洲区,潘塘街道","lng":114.90116793721552,"lat":31.000984094535596,"info":"直接检索POI第一个结果成功!","tag":["行政地标","乡镇"]},{"name":"旧街街道","code":"420117008","level":4,"mergeName":"湖北省,武汉市,新洲区,旧街街道","lng":114.93269747247969,"lat":30.840127850135783,"info":"直接检索POI第一个结果成功!","tag":["行政地标","乡镇"]},{"name":"双柳街道","code":"420117009","level":4,"mergeName":"湖北省,武汉市,新洲区,双柳街道","lng":114.65899851579977,"lat":30.59950100724107,"info":"直接检索POI第一个结果成功!","tag":["名称标注类"]},{"name":"涨渡湖街道","code":"420117010","level":4,"mergeName":"湖北省,武汉市,新洲区,涨渡湖街道","lng":114.80592994636986,"lat":30.674625855477604,"info":"直接检索POI第一个结果成功!","tag":["行政地标","乡镇"]},{"name":"辛冲街道","code":"420117011","level":4,"mergeName":"湖北省,武汉市,新洲区,辛冲街道","lng":114.82355488013673,"lat":30.77750694867301,"info":"直接检索POI第一个结果成功!","tag":["行政地标","乡镇"]},{"name":"徐古街道","code":"420117012","level":4,"mergeName":"湖北省,武汉市,新洲区,徐古街道","lng":114.98417172565969,"lat":30.95234297017974,"info":"直接检索POI第一个结果成功!","tag":["行政地标","乡镇"]},{"name":"凤凰镇","code":"420117102","level":4,"mergeName":"湖北省,武汉市,新洲区,凤凰镇","lng":114.76153586772786,"lat":30.9302351828605,"info":"直接检索POI第一个结果成功!","tag":["行政地标","乡镇"]},{"name":"道观河风景旅游管理处","code":"420117400","level":4,"mergeName":"湖北省,武汉市,新洲区,道观河风景旅游管理处","lng":115.00978807507387,"lat":30.879195905013308,"info":"直接检索POI第一个结果成功!","tag":""},{"name":"新洲原种场","code":"420117406","level":4,"mergeName":"湖北省,武汉市,新洲区,新洲原种场","lng":114.62123483012691,"lat":30.617187495911924,"info":"直接检索POI第一个结果成功!","tag":""},{"name":"黄石市","code":"4202","level":2,"mergeName":"湖北省,黄石市","lng":115.0455285072466,"lat":30.205207536824332,"info":"直接检索POI第一个结果成功!","tag":""},{"name":"黄石港区","code":"420202","level":3,"mergeName":"湖北省,黄石市,黄石港区","lng":115.07241479116024,"lat":30.229052327951162,"info":"直接检索POI第一个结果成功!","tag":""},{"name":"沈家营街道","code":"420202005","level":4,"mergeName":"湖北省,黄石市,黄石港区,沈家营街道","lng":115.07912100111443,"lat":30.2369040514225,"info":"直接检索POI第一个结果成功!","tag":""},{"name":"黄石港街道","code":"420202006","level":4,"mergeName":"湖北省,黄石市,黄石港区,黄石港街道","lng":115.07596237928026,"lat":30.24619473301297,"info":"直接检索POI第一个结果成功!","tag":["行政地标","乡镇"]},{"name":"胜阳港街道","code":"420202007","level":4,"mergeName":"湖北省,黄石市,黄石港区,胜阳港街道","lng":115.09649243306639,"lat":30.21659322148842,"info":"直接检索POI第一个结果成功!","tag":["行政地标","乡镇"]},{"name":"花湖街道","code":"420202070","level":4,"mergeName":"湖北省,黄石市,黄石港区,花湖街道","lng":115.05924105102586,"lat":30.249980686177228,"info":"直接检索POI第一个结果成功!","tag":["行政地标","乡镇"]},{"name":"江北管理区","code":"420202400","level":4,"mergeName":"湖北省,黄石市,黄石港区,江北管理区","lng":115.15537537110939,"lat":30.240975146956757,"info":"直接检索POI第一个结果成功!","tag":""},{"name":"西塞山区","code":"420203","level":3,"mergeName":"湖北省,黄石市,西塞山区","lng":115.11648565947976,"lat":30.21069479399386,"info":"直接检索POI第一个结果成功!","tag":""},{"name":"章山街道","code":"420203007","level":4,"mergeName":"湖北省,黄石市,西塞山区,章山街道","lng":115.18638838070531,"lat":30.164699097813276,"info":"直接检索POI第一个结果成功!","tag":""},{"name":"八泉街道","code":"420203008","level":4,"mergeName":"湖北省,黄石市,西塞山区,八泉街道","lng":115.11338722411475,"lat":30.21360250536673,"info":"直接检索POI第一个结果成功!","tag":""},{"name":"澄月街道","code":"420203009","level":4,"mergeName":"湖北省,黄石市,西塞山区,澄月街道","lng":115.08096773758184,"lat":30.203717477601298,"info":"直接检索POI第一个结果成功!","tag":["行政地标","乡镇"]},{"name":"牧羊湖街道","code":"420203010","level":4,"mergeName":"湖北省,黄石市,西塞山区,牧羊湖街道","lng":115.06345904454797,"lat":30.192332083178805,"info":"直接检索POI第一个结果成功!","tag":""},{"name":"黄思湾街道","code":"420203011","level":4,"mergeName":"湖北省,黄石市,西塞山区,黄思湾街道","lng":115.13620211796551,"lat":30.186612937573575,"info":"直接检索POI第一个结果成功!","tag":["道路","乡道"]},{"name":"冶钢农场","code":"420203400","level":4,"mergeName":"湖北省,黄石市,西塞山区,冶钢农场","lng":115.28591846010688,"lat":29.860481684870138,"info":"直接检索POI第一个结果成功!","tag":""},{"name":"西塞山工业园区管委会","code":"420203402","level":4,"mergeName":"湖北省,黄石市,西塞山区,西塞山工业园区管委会","lng":115.24226540885083,"lat":30.160824036292393,"info":"直接检索POI第一个结果成功!","tag":["政府机构"]},{"name":"下陆区","code":"420204","level":3,"mergeName":"湖北省,黄石市,下陆区","lng":114.96741186009892,"lat":30.180045686976708,"info":"直接检索POI第一个结果成功!","tag":""},{"name":"团城山街道","code":"420204004","level":4,"mergeName":"湖北省,黄石市,下陆区,团城山街道","lng":115.01841710797216,"lat":30.203062019114228,"info":"直接检索POI第一个结果成功!","tag":["行政地标","乡镇"]},{"name":"新下陆街道","code":"420204005","level":4,"mergeName":"湖北省,黄石市,下陆区,新下陆街道","lng":114.95335796022587,"lat":30.183202034066888,"info":"直接检索POI第一个结果成功!","tag":""},{"name":"老下陆街道","code":"420204006","level":4,"mergeName":"湖北省,黄石市,下陆区,老下陆街道","lng":114.99712627924963,"lat":30.193953420952763,"info":"直接检索POI第一个结果成功!","tag":""},{"name":"东方山街道","code":"420204007","level":4,"mergeName":"湖北省,黄石市,下陆区,东方山街道","lng":114.93952396554165,"lat":30.194158115270774,"info":"直接检索POI第一个结果成功!","tag":""},{"name":"长乐山工业园管理委员会","code":"420204401","level":4,"mergeName":"湖北省,黄石市,下陆区,长乐山工业园管理委员会","lng":114.95332202800547,"lat":30.18312913820426,"info":"直接检索POI第一个结果成功!","tag":""},{"name":"铁山区","code":"420205","level":3,"mergeName":"湖北省,黄石市,铁山区","lng":114.90757573007929,"lat":30.212251378752264,"info":"直接检索POI第一个结果成功!","tag":""},{"name":"铁山街道","code":"420205003","level":4,"mergeName":"湖北省,黄石市,铁山区,铁山街道","lng":114.8982090086962,"lat":30.20879205966368,"info":"直接检索POI第一个结果成功!","tag":""},{"name":"阳新县","code":"420222","level":3,"mergeName":"湖北省,黄石市,阳新县","lng":115.22142569400592,"lat":29.8365417297632,"info":"直接检索POI第一个结果成功!","tag":""},{"name":"兴国镇","code":"420222100","level":4,"mergeName":"湖北省,黄石市,阳新县,兴国镇","lng":115.21439097372907,"lat":29.847131442906743,"info":"直接检索POI第一个结果成功!","tag":["行政地标","乡镇"]},{"name":"富池镇","code":"420222101","level":4,"mergeName":"湖北省,黄石市,阳新县,富池镇","lng":115.44634190040054,"lat":29.861931472346612,"info":"直接检索POI第一个结果成功!","tag":["行政地标","乡镇"]},{"name":"黄颡口镇","code":"420222102","level":4,"mergeName":"湖北省,黄石市,阳新县,黄颡口镇","lng":115.3428584683331,"lat":30.013488143616897,"info":"直接检索POI第一个结果成功!","tag":["行政地标","乡镇"]},{"name":"韦源口镇","code":"420222103","level":4,"mergeName":"湖北省,黄石市,阳新县,韦源口镇","lng":115.25110742998552,"lat":30.142935636056855,"info":"直接检索POI第一个结果成功!","tag":["行政地标","乡镇"]},{"name":"太子镇","code":"420222104","level":4,"mergeName":"湖北省,黄石市,阳新县,太子镇","lng":115.18765957283249,"lat":30.034626390854584,"info":"直接检索POI第一个结果成功!","tag":["行政地标","乡镇"]},{"name":"大王镇","code":"420222105","level":4,"mergeName":"湖北省,黄石市,阳新县,大王镇","lng":115.12674323043711,"lat":30.04439925820014,"info":"直接检索POI第一个结果成功!","tag":["行政地标","乡镇"]},{"name":"陶港镇","code":"420222106","level":4,"mergeName":"湖北省,黄石市,阳新县,陶港镇","lng":115.27399659853515,"lat":29.94229084617446,"info":"直接检索POI第一个结果成功!","tag":["行政地标","乡镇"]},{"name":"白沙镇","code":"420222107","level":4,"mergeName":"湖北省,黄石市,阳新县,白沙镇","lng":115.07541080459589,"lat":29.96133583181525,"info":"直接检索POI第一个结果成功!","tag":["行政地标","乡镇"]},{"name":"浮屠镇","code":"420222108","level":4,"mergeName":"湖北省,黄石市,阳新县,浮屠镇","lng":115.096720318066,"lat":29.90748091474425,"info":"直接检索POI第一个结果成功!","tag":["行政地标","乡镇"]},{"name":"三溪镇","code":"420222109","level":4,"mergeName":"湖北省,黄石市,阳新县,三溪镇","lng":114.9576865200939,"lat":29.82946860167239,"info":"直接检索POI第一个结果成功!","tag":["行政地标","乡镇"]},{"name":"龙港镇","code":"420222110","level":4,"mergeName":"湖北省,黄石市,阳新县,龙港镇","lng":114.96436272664185,"lat":29.62023799929196,"info":"直接检索POI第一个结果成功!","tag":["旅游景点"]},{"name":"洋港镇","code":"420222111","level":4,"mergeName":"湖北省,黄石市,阳新县,洋港镇","lng":115.15033190952818,"lat":29.58072241092623,"info":"直接检索POI第一个结果成功!","tag":["行政地标","乡镇"]},{"name":"排市镇","code":"420222112","level":4,"mergeName":"湖北省,黄石市,阳新县,排市镇","lng":115.06648892410429,"lat":29.725469145969335,"info":"直接检索POI第一个结果成功!","tag":["行政地标","乡镇"]},{"name":"木港镇","code":"420222113","level":4,"mergeName":"湖北省,黄石市,阳新县,木港镇","lng":115.26157941130536,"lat":29.725831559893386,"info":"直接检索POI第一个结果成功!","tag":["行政地标","乡镇"]},{"name":"枫林镇","code":"420222114","level":4,"mergeName":"湖北省,黄石市,阳新县,枫林镇","lng":115.41047615462101,"lat":29.764341750898737,"info":"直接检索POI第一个结果成功!","tag":["行政地标","乡镇"]},{"name":"王英镇","code":"420222115","level":4,"mergeName":"湖北省,黄石市,阳新县,王英镇","lng":114.84006158818129,"lat":29.80774962875566,"info":"直接检索POI第一个结果成功!","tag":["行政地标","乡镇"]},{"name":"率洲农场","code":"420222451","level":4,"mergeName":"湖北省,黄石市,阳新县,率洲农场","lng":115.08475327172712,"lat":29.81315706066308,"info":"直接检索POI第一个结果成功!","tag":""},{"name":"半壁山农场","code":"420222452","level":4,"mergeName":"湖北省,黄石市,阳新县,半壁山农场","lng":115.43352442823566,"lat":29.902224696339545,"info":"直接检索POI第一个结果成功!","tag":""},{"name":"荆头山农场","code":"420222453","level":4,"mergeName":"湖北省,黄石市,阳新县,荆头山农场","lng":115.12597498444703,"lat":29.811628998701988,"info":"直接检索POI第一个结果成功!","tag":["公司企业","农林园艺"]},{"name":"金海开发区","code":"420222455","level":4,"mergeName":"湖北省,黄石市,阳新县,金海开发区","lng":115.21203796742336,"lat":30.085461243018326,"info":"直接检索POI第一个结果成功!","tag":""},{"name":"城东新区","code":"420222456","level":4,"mergeName":"湖北省,黄石市,阳新县,城东新区","lng":115.21741197515811,"lat":29.88029600605699,"info":"直接检索POI第一个结果成功!","tag":""},{"name":"大冶市","code":"420281","level":3,"mergeName":"湖北省,黄石市,大冶市","lng":114.98643797080025,"lat":30.101668190663908,"info":"直接检索POI第一个结果成功!","tag":""},{"name":"东岳路街道","code":"420281001","level":4,"mergeName":"湖北省,黄石市,大冶市,东岳路街道","lng":114.98010267119113,"lat":30.094855172016914,"info":"直接检索POI第一个结果成功!","tag":["行政地标","乡镇"]},{"name":"东风路街道","code":"420281002","level":4,"mergeName":"湖北省,黄石市,大冶市,东风路街道","lng":114.98155307526756,"lat":30.11170492491185,"info":"直接检索POI第一个结果成功!","tag":""},{"name":"金湖街道","code":"420281003","level":4,"mergeName":"湖北省,黄石市,大冶市,金湖街道","lng":114.93893809068804,"lat":30.066254271847438,"info":"直接检索POI第一个结果成功!","tag":["行政地标","乡镇"]},{"name":"罗家桥街道","code":"420281004","level":4,"mergeName":"湖北省,黄石市,大冶市,罗家桥街道","lng":114.9699085206028,"lat":30.147983946505278,"info":"直接检索POI第一个结果成功!","tag":["行政地标","乡镇"]},{"name":"金山街道","code":"420281070","level":4,"mergeName":"湖北省,黄石市,大冶市,金山街道","lng":115.05584842060634,"lat":30.143452128189875,"info":"直接检索POI第一个结果成功!","tag":["行政地标","乡镇"]},{"name":"金牛镇","code":"420281100","level":4,"mergeName":"湖北省,黄石市,大冶市,金牛镇","lng":114.6290187372014,"lat":30.020144524627902,"info":"直接检索POI第一个结果成功!","tag":["行政地标","乡镇"]},{"name":"保安镇","code":"420281101","level":4,"mergeName":"湖北省,黄石市,大冶市,保安镇","lng":114.75036004887822,"lat":30.17745074210235,"info":"直接检索POI第一个结果成功!","tag":["行政地标","乡镇"]},{"name":"灵乡镇","code":"420281102","level":4,"mergeName":"湖北省,黄石市,大冶市,灵乡镇","lng":114.75590654641903,"lat":30.015533530493887,"info":"直接检索POI第一个结果成功!","tag":["行政地标","乡镇"]},{"name":"金山店镇","code":"420281103","level":4,"mergeName":"湖北省,黄石市,大冶市,金山店镇","lng":114.83382314092964,"lat":30.142435850215346,"info":"直接检索POI第一个结果成功!","tag":["行政地标","村庄"]},{"name":"还地桥镇","code":"420281104","level":4,"mergeName":"湖北省,黄石市,大冶市,还地桥镇","lng":114.84108360538349,"lat":30.213546329083538,"info":"直接检索POI第一个结果成功!","tag":["行政地标","乡镇"]},{"name":"殷祖镇","code":"420281105","level":4,"mergeName":"湖北省,黄石市,大冶市,殷祖镇","lng":114.89836574796495,"lat":29.9641524782701,"info":"直接检索POI第一个结果成功!","tag":["行政地标","乡镇"]},{"name":"刘仁八镇","code":"420281107","level":4,"mergeName":"湖北省,黄石市,大冶市,刘仁八镇","lng":114.84884665674376,"lat":29.940783168081868,"info":"直接检索POI第一个结果成功!","tag":["行政地标","乡镇"]},{"name":"陈贵镇","code":"420281108","level":4,"mergeName":"湖北省,黄石市,大冶市,陈贵镇","lng":114.82201006415121,"lat":30.060390052968142,"info":"直接检索POI第一个结果成功!","tag":["行政地标","乡镇"]},{"name":"大箕铺镇","code":"420281109","level":4,"mergeName":"湖北省,黄石市,大冶市,大箕铺镇","lng":115.02549719267961,"lat":30.044970277313894,"info":"直接检索POI第一个结果成功!","tag":["行政地标","乡镇"]},{"name":"汪仁镇","code":"420281170","level":4,"mergeName":"湖北省,黄石市,大冶市,汪仁镇","lng":115.13745902703508,"lat":30.160208493122227,"info":"直接检索POI第一个结果成功!","tag":["行政地标","乡镇"]},{"name":"茗山乡","code":"420281200","level":4,"mergeName":"湖北省,黄石市,大冶市,茗山乡","lng":114.76715943988141,"lat":30.07434638787944,"info":"直接检索POI第一个结果成功!","tag":["行政地标","乡镇"]},{"name":"东风农场管理区","code":"420281401","level":4,"mergeName":"湖北省,黄石市,大冶市,东风农场管理区","lng":114.74566478563867,"lat":30.303723972175344,"info":"直接检索POI第一个结果成功!","tag":["政府机构"]},{"name":"四顾闸管理处","code":"420281402","level":4,"mergeName":"湖北省,黄石市,大冶市,四顾闸管理处","lng":115.0702084629972,"lat":30.254710951168107,"info":"直接检索POI第一个结果成功!","tag":["政府机构"]},{"name":"十堰市","code":"4203","level":2,"mergeName":"湖北省,十堰市","lng":110.80452938103458,"lat":32.635062542526526,"info":"直接检索POI第一个结果成功!","tag":""},{"name":"茅箭区","code":"420302","level":3,"mergeName":"湖北省,十堰市,茅箭区","lng":110.81957599832673,"lat":32.59728697538165,"info":"直接检索POI第一个结果成功!","tag":""},{"name":"武当路街道","code":"420302001","level":4,"mergeName":"湖北省,十堰市,茅箭区,武当路街道","lng":110.82165261117413,"lat":32.598215267902155,"info":"直接检索POI第一个结果成功!","tag":""},{"name":"二堰街道","code":"420302002","level":4,"mergeName":"湖北省,十堰市,茅箭区,二堰街道","lng":110.7912647323826,"lat":32.61771362998089,"info":"直接检索POI第一个结果成功!","tag":""},{"name":"五堰街道","code":"420302003","level":4,"mergeName":"湖北省,十堰市,茅箭区,五堰街道","lng":110.79629425510241,"lat":32.65136534622614,"info":"直接检索POI第一个结果成功!","tag":["行政地标","乡镇"]},{"name":"白浪开发区白浪街道","code":"420302004","level":4,"mergeName":"湖北省,十堰市,茅箭区,白浪开发区白浪街道","lng":110.90680083453172,"lat":32.577803672457094,"info":"直接检索POI第一个结果成功!","tag":""},{"name":"大川镇","code":"420302100","level":4,"mergeName":"湖北省,十堰市,茅箭区,大川镇","lng":110.71478632499347,"lat":32.54794308824947,"info":"直接检索POI第一个结果成功!","tag":["行政地标","乡镇"]},{"name":"茅塔乡","code":"420302201","level":4,"mergeName":"湖北省,十堰市,茅箭区,茅塔乡","lng":110.83270895539096,"lat":32.52191341251249,"info":"直接检索POI第一个结果成功!","tag":["名称标注类"]},{"name":"鸳鸯乡","code":"420302202","level":4,"mergeName":"湖北省,十堰市,茅箭区,鸳鸯乡","lng":110.84244802440793,"lat":32.60799114144036,"info":"直接检索POI第一个结果成功!","tag":["名称标注类"]},{"name":"张湾区","code":"420303","level":3,"mergeName":"湖北省,十堰市,张湾区","lng":110.77542428251131,"lat":32.65839954547973,"info":"直接检索POI第一个结果成功!","tag":""},{"name":"花果街道","code":"420303001","level":4,"mergeName":"湖北省,十堰市,张湾区,花果街道","lng":110.69481923927043,"lat":32.645058798512295,"info":"直接检索POI第一个结果成功!","tag":["行政地标","乡镇"]},{"name":"红卫街道","code":"420303002","level":4,"mergeName":"湖北省,十堰市,张湾区,红卫街道","lng":110.74538126320505,"lat":32.651641301585826,"info":"直接检索POI第一个结果成功!","tag":""},{"name":"车城路街道","code":"420303003","level":4,"mergeName":"湖北省,十堰市,张湾区,车城路街道","lng":110.76995216466672,"lat":32.634971553806494,"info":"直接检索POI第一个结果成功!","tag":["道路","乡道"]},{"name":"汉江路街道","code":"420303004","level":4,"mergeName":"湖北省,十堰市,张湾区,汉江路街道","lng":110.77542410285021,"lat":32.65839954547973,"info":"检索POI失败,BMAP_STATUE_CODE:1 ,GetPoint结果: 直接查询获得"},{"name":"黄龙镇","code":"420303100","level":4,"mergeName":"湖北省,十堰市,张湾区,黄龙镇","lng":110.5830633863684,"lat":32.684639162761044,"info":"直接检索POI第一个结果成功!","tag":["行政地标","乡镇"]},{"name":"柏林镇","code":"420303101","level":4,"mergeName":"湖北省,十堰市,张湾区,柏林镇","lng":110.62625166952436,"lat":32.66487208973446,"info":"检索POI失败,BMAP_STATUE_CODE:1 ,GetPoint结果: 直接查询获得"},{"name":"方滩乡","code":"420303200","level":4,"mergeName":"湖北省,十堰市,张湾区,方滩乡","lng":110.61651170220188,"lat":32.741865292139,"info":"直接检索POI第一个结果成功!","tag":["行政地标","乡镇"]},{"name":"西沟乡","code":"420303201","level":4,"mergeName":"湖北省,十堰市,张湾区,西沟乡","lng":110.63394323079245,"lat":32.61890818655409,"info":"直接检索POI第一个结果成功!","tag":["名称标注类"]},{"name":"西城开发区","code":"420303400","level":4,"mergeName":"湖北省,十堰市,张湾区,西城开发区","lng":110.6576476267592,"lat":32.65469582906029,"info":"直接检索POI第一个结果成功!","tag":["名称标注类"]},{"name":"十堰工业新区","code":"420303401","level":4,"mergeName":"湖北省,十堰市,张湾区,十堰工业新区","lng":110.7431840977582,"lat":32.648259478135756,"info":"直接检索POI第一个结果成功!","tag":""},{"name":"郧阳区","code":"420304","level":3,"mergeName":"湖北省,十堰市,郧阳区","lng":110.81857887921065,"lat":32.84059309557258,"info":"直接检索POI第一个结果成功!","tag":""},{"name":"安阳镇","code":"420304101","level":4,"mergeName":"湖北省,十堰市,郧阳区,安阳镇","lng":111.01994681521045,"lat":32.85137738584344,"info":"直接检索POI第一个结果成功!","tag":["行政地标","乡镇"]},{"name":"杨溪铺镇","code":"420304102","level":4,"mergeName":"湖北省,十堰市,郧阳区,杨溪铺镇","lng":110.8799168862124,"lat":32.83727068341609,"info":"直接检索POI第一个结果成功!","tag":["行政地标","乡镇"]},{"name":"青曲镇","code":"420304103","level":4,"mergeName":"湖北省,十堰市,郧阳区,青曲镇","lng":110.63887169414238,"lat":32.878834450534384,"info":"直接检索POI第一个结果成功!","tag":["行政地标","乡镇"]},{"name":"白桑关镇","code":"420304104","level":4,"mergeName":"湖北省,十堰市,郧阳区,白桑关镇","lng":111.00441529260402,"lat":32.96593645798781,"info":"直接检索POI第一个结果成功!","tag":["名称标注类"]},{"name":"南化塘镇","code":"420304105","level":4,"mergeName":"湖北省,十堰市,郧阳区,南化塘镇","lng":110.92181044163685,"lat":33.11906718232464,"info":"直接检索POI第一个结果成功!","tag":["名称标注类"]},{"name":"白浪镇","code":"420304106","level":4,"mergeName":"湖北省,十堰市,郧阳区,白浪镇","lng":111.00201591858688,"lat":33.23900216862474,"info":"直接检索POI第一个结果成功!","tag":["行政地标","乡镇"]},{"name":"刘洞镇","code":"420304107","level":4,"mergeName":"湖北省,十堰市,郧阳区,刘洞镇","lng":111.12226201618591,"lat":33.15879132167801,"info":"直接检索POI第一个结果成功!","tag":["名称标注类"]},{"name":"谭山镇","code":"420304108","level":4,"mergeName":"湖北省,十堰市,郧阳区,谭山镇","lng":111.1357915751328,"lat":33.03269979441489,"info":"直接检索POI第一个结果成功!","tag":["行政地标","乡镇"]},{"name":"梅铺镇","code":"420304109","level":4,"mergeName":"湖北省,十堰市,郧阳区,梅铺镇","lng":111.20103253991431,"lat":33.016710632363285,"info":"直接检索POI第一个结果成功!","tag":["名称标注类"]},{"name":"青山镇","code":"420304110","level":4,"mergeName":"湖北省,十堰市,郧阳区,青山镇","lng":110.93194153117837,"lat":32.73544439534484,"info":"直接检索POI第一个结果成功!","tag":["名称标注类"]},{"name":"茶店镇","code":"420304111","level":4,"mergeName":"湖北省,十堰市,郧阳区,茶店镇","lng":110.82195435199493,"lat":32.79328317832677,"info":"直接检索POI第一个结果成功!","tag":["名称标注类"]},{"name":"柳陂镇","code":"420304112","level":4,"mergeName":"湖北省,十堰市,郧阳区,柳陂镇","lng":110.75628130226312,"lat":32.84136276336597,"info":"直接检索POI第一个结果成功!","tag":["行政地标","乡镇"]},{"name":"鲍峡镇","code":"420304113","level":4,"mergeName":"湖北省,十堰市,郧阳区,鲍峡镇","lng":110.3439769494629,"lat":32.71636906707667,"info":"直接检索POI第一个结果成功!","tag":["行政地标","乡镇"]},{"name":"胡家营镇","code":"420304114","level":4,"mergeName":"湖北省,十堰市,郧阳区,胡家营镇","lng":110.2731375650821,"lat":32.7591519912598,"info":"直接检索POI第一个结果成功!","tag":["行政地标","乡镇"]},{"name":"谭家湾镇","code":"420304115","level":4,"mergeName":"湖北省,十堰市,郧阳区,谭家湾镇","lng":110.8420405530286,"lat":32.86398589273548,"info":"直接检索POI第一个结果成功!","tag":""},{"name":"城关镇","code":"420304117","level":4,"mergeName":"湖北省,十堰市,郧阳区,城关镇","lng":110.74918612602312,"lat":32.064189986296164,"info":"直接检索POI第一个结果成功!","tag":["行政地标","乡镇"]},{"name":"大柳乡","code":"420304200","level":4,"mergeName":"湖北省,十堰市,郧阳区,大柳乡","lng":110.75135221009931,"lat":33.019047447492696,"info":"直接检索POI第一个结果成功!","tag":["行政地标","乡镇"]},{"name":"五峰乡","code":"420304201","level":4,"mergeName":"湖北省,十堰市,郧阳区,五峰乡","lng":110.382158526859,"lat":32.83289536449726,"info":"直接检索POI第一个结果成功!","tag":["名称标注类"]},{"name":"叶大乡","code":"420304202","level":4,"mergeName":"湖北省,十堰市,郧阳区,叶大乡","lng":110.46727387223493,"lat":32.545133701671396,"info":"直接检索POI第一个结果成功!","tag":["名称标注类"]},{"name":"沧浪山林场","code":"420304400","level":4,"mergeName":"湖北省,十堰市,郧阳区,沧浪山林场","lng":110.47244200349493,"lat":32.68075952342971,"info":"直接检索POI第一个结果成功!","tag":["旅游景点","风景区/旅游区"]},{"name":"郧西县","code":"420322","level":3,"mergeName":"湖北省,十堰市,郧西县","lng":110.43246920491192,"lat":32.999167386036895,"info":"直接检索POI第一个结果成功!","tag":""},{"name":"城关镇","code":"420322100","level":4,"mergeName":"湖北省,十堰市,郧西县,城关镇","lng":110.74918612602312,"lat":32.064189986296164,"info":"直接检索POI第一个结果成功!","tag":["行政地标","乡镇"]},{"name":"土门镇","code":"420322101","level":4,"mergeName":"湖北省,十堰市,郧西县,土门镇","lng":110.35113087488325,"lat":33.06135957304316,"info":"直接检索POI第一个结果成功!","tag":["行政地标","乡镇"]},{"name":"上津镇","code":"420322102","level":4,"mergeName":"湖北省,十堰市,郧西县,上津镇","lng":110.04971973220383,"lat":33.14867070146823,"info":"直接检索POI第一个结果成功!","tag":["行政地标","乡镇"]},{"name":"店子镇","code":"420322103","level":4,"mergeName":"湖北省,十堰市,郧西县,店子镇","lng":109.87014675397876,"lat":33.134988901450555,"info":"直接检索POI第一个结果成功!","tag":["名称标注类"]},{"name":"夹河镇","code":"420322104","level":4,"mergeName":"湖北省,十堰市,郧西县,夹河镇","lng":110.03919338823789,"lat":32.88119549040102,"info":"直接检索POI第一个结果成功!","tag":["名称标注类"]},{"name":"羊尾镇","code":"420322105","level":4,"mergeName":"湖北省,十堰市,郧西县,羊尾镇","lng":110.21054435579123,"lat":32.816861817349704,"info":"直接检索POI第一个结果成功!","tag":["行政地标","乡镇"]},{"name":"观音镇","code":"420322106","level":4,"mergeName":"湖北省,十堰市,郧西县,观音镇","lng":110.38061451934844,"lat":32.90434565878446,"info":"直接检索POI第一个结果成功!","tag":["行政地标","乡镇"]},{"name":"马鞍镇","code":"420322107","level":4,"mergeName":"湖北省,十堰市,郧西县,马鞍镇","lng":110.21913287511103,"lat":32.98053871526122,"info":"直接检索POI第一个结果成功!","tag":["名称标注类"]},{"name":"河夹镇","code":"420322108","level":4,"mergeName":"湖北省,十堰市,郧西县,河夹镇","lng":110.55154139687052,"lat":32.92550018319473,"info":"直接检索POI第一个结果成功!","tag":["行政地标","乡镇"]},{"name":"香口乡","code":"420322200","level":4,"mergeName":"湖北省,十堰市,郧西县,香口乡","lng":110.28152558261206,"lat":33.10240474435593,"info":"直接检索POI第一个结果成功!","tag":["行政地标","乡镇"]},{"name":"关防乡","code":"420322201","level":4,"mergeName":"湖北省,十堰市,郧西县,关防乡","lng":109.77353103197244,"lat":33.109954733896856,"info":"直接检索POI第一个结果成功!","tag":["行政地标","乡镇"]},{"name":"湖北口回族乡","code":"420322202","level":4,"mergeName":"湖北省,十堰市,郧西县,湖北口回族乡","lng":109.58518223772876,"lat":33.19953904115111,"info":"直接检索POI第一个结果成功!","tag":["行政地标","乡镇"]},{"name":"景阳乡","code":"420322203","level":4,"mergeName":"湖北省,十堰市,郧西县,景阳乡","lng":109.80901005724178,"lat":32.94833590932626,"info":"直接检索POI第一个结果成功!","tag":["行政地标","乡镇"]},{"name":"六郎乡","code":"420322204","level":4,"mergeName":"湖北省,十堰市,郧西县,六郎乡","lng":110.08369113133575,"lat":33.00060764389426,"info":"直接检索POI第一个结果成功!","tag":""},{"name":"涧池乡","code":"420322205","level":4,"mergeName":"湖北省,十堰市,郧西县,涧池乡","lng":110.34317485247303,"lat":32.87251071708951,"info":"直接检索POI第一个结果成功!","tag":["行政地标","乡镇"]},{"name":"安家乡","code":"420322206","level":4,"mergeName":"湖北省,十堰市,郧西县,安家乡","lng":110.51851968632373,"lat":33.017316866157806,"info":"直接检索POI第一个结果成功!","tag":["名称标注类"]},{"name":"槐树林特场管委会","code":"420322400","level":4,"mergeName":"湖北省,十堰市,郧西县,槐树林特场管委会","lng":109.98066051985214,"lat":33.17193229039247,"info":"直接检索POI第一个结果成功!","tag":""},{"name":"三官洞林区","code":"420322401","level":4,"mergeName":"湖北省,十堰市,郧西县,三官洞林区","lng":110.57533032338576,"lat":33.17056557844157,"info":"直接检索POI第一个结果成功!","tag":""},{"name":"工业园区","code":"420322402","level":4,"mergeName":"湖北省,十堰市,郧西县,工业园区","lng":110.7431840977582,"lat":32.648259478135756,"info":"直接检索POI第一个结果成功!","tag":""},{"name":"竹山县","code":"420323","level":3,"mergeName":"湖北省,十堰市,竹山县","lng":110.23557860323496,"lat":32.23030322042473,"info":"直接检索POI第一个结果成功!","tag":""},{"name":"城关镇","code":"420323100","level":4,"mergeName":"湖北省,十堰市,竹山县,城关镇","lng":110.74918612602312,"lat":32.064189986296164,"info":"直接检索POI第一个结果成功!","tag":["行政地标","乡镇"]},{"name":"溢水镇","code":"420323101","level":4,"mergeName":"湖北省,十堰市,竹山县,溢水镇","lng":110.10025875951739,"lat":32.27183396713603,"info":"直接检索POI第一个结果成功!","tag":["行政地标","乡镇"]},{"name":"麻家渡镇","code":"420323102","level":4,"mergeName":"湖北省,十堰市,竹山县,麻家渡镇","lng":110.046063269456,"lat":32.29708304378099,"info":"直接检索POI第一个结果成功!","tag":["名称标注类"]},{"name":"宝丰镇","code":"420323103","level":4,"mergeName":"湖北省,十堰市,竹山县,宝丰镇","lng":110.01757144410438,"lat":32.30637331019956,"info":"直接检索POI第一个结果成功!","tag":["行政地标","乡镇"]},{"name":"擂鼓镇","code":"420323104","level":4,"mergeName":"湖北省,十堰市,竹山县,擂鼓镇","lng":109.94757916181949,"lat":32.33219181419475,"info":"直接检索POI第一个结果成功!","tag":["名称标注类"]},{"name":"秦古镇","code":"420323105","level":4,"mergeName":"湖北省,十堰市,竹山县,秦古镇","lng":109.83858910175213,"lat":32.43105012648442,"info":"直接检索POI第一个结果成功!","tag":["名称标注类"]},{"name":"得胜镇","code":"420323106","level":4,"mergeName":"湖北省,十堰市,竹山县,得胜镇","lng":109.8613724650795,"lat":32.456535485372555,"info":"直接检索POI第一个结果成功!","tag":["名称标注类"]},{"name":"上庸镇","code":"420323107","level":4,"mergeName":"湖北省,十堰市,竹山县,上庸镇","lng":110.17476035580127,"lat":32.17446182157902,"info":"直接检索POI第一个结果成功!","tag":["行政地标","乡镇"]},{"name":"官渡镇","code":"420323108","level":4,"mergeName":"湖北省,十堰市,竹山县,官渡镇","lng":110.09708890886434,"lat":32.003635139905455,"info":"直接检索POI第一个结果成功!","tag":["行政地标","乡镇"]},{"name":"潘口乡","code":"420323200","level":4,"mergeName":"湖北省,十堰市,竹山县,潘口乡","lng":110.2169426266166,"lat":32.23841709140734,"info":"直接检索POI第一个结果成功!","tag":["行政地标","乡镇"]},{"name":"竹坪乡","code":"420323201","level":4,"mergeName":"湖北省,十堰市,竹山县,竹坪乡","lng":109.72788480528008,"lat":32.46561614997741,"info":"直接检索POI第一个结果成功!","tag":["名称标注类"]},{"name":"大庙乡","code":"420323202","level":4,"mergeName":"湖北省,十堰市,竹山县,大庙乡","lng":109.74320890914424,"lat":32.53990990285081,"info":"直接检索POI第一个结果成功!","tag":["名称标注类"]},{"name":"双台乡","code":"420323203","level":4,"mergeName":"湖北省,十堰市,竹山县,双台乡","lng":110.24468787025889,"lat":32.46450787813706,"info":"直接检索POI第一个结果成功!","tag":["行政地标","乡镇"]},{"name":"楼台乡","code":"420323204","level":4,"mergeName":"湖北省,十堰市,竹山县,楼台乡","lng":110.22937634267187,"lat":32.29656586382411,"info":"直接检索POI第一个结果成功!","tag":["行政地标","乡镇"]},{"name":"文峰乡","code":"420323205","level":4,"mergeName":"湖北省,十堰市,竹山县,文峰乡","lng":110.29855970084502,"lat":32.204781571970095,"info":"直接检索POI第一个结果成功!","tag":["行政地标","乡镇"]},{"name":"深河乡","code":"420323206","level":4,"mergeName":"湖北省,十堰市,竹山县,深河乡","lng":110.23388493802645,"lat":32.11017192018241,"info":"直接检索POI第一个结果成功!","tag":["行政地标","乡镇"]},{"name":"柳林乡","code":"420323207","level":4,"mergeName":"湖北省,十堰市,竹山县,柳林乡","lng":110.06496325806374,"lat":31.72524191089549,"info":"直接检索POI第一个结果成功!","tag":["行政地标","乡镇"]},{"name":"竹溪县","code":"420324","level":3,"mergeName":"湖北省,十堰市,竹溪县","lng":109.72154124126027,"lat":32.324120735369085,"info":"直接检索POI第一个结果成功!","tag":""},{"name":"城关镇","code":"420324100","level":4,"mergeName":"湖北省,十堰市,竹溪县,城关镇","lng":110.74918612602312,"lat":32.064189986296164,"info":"直接检索POI第一个结果成功!","tag":["行政地标","乡镇"]},{"name":"蒋家堰镇","code":"420324101","level":4,"mergeName":"湖北省,十堰市,竹溪县,蒋家堰镇","lng":109.59495589150787,"lat":32.33077076694751,"info":"直接检索POI第一个结果成功!","tag":["行政地标","乡镇"]},{"name":"中峰镇","code":"420324102","level":4,"mergeName":"湖北省,十堰市,竹溪县,中峰镇","lng":109.65976809506947,"lat":32.32924047119413,"info":"直接检索POI第一个结果成功!","tag":["行政地标","乡镇"]},{"name":"水坪镇","code":"420324103","level":4,"mergeName":"湖北省,十堰市,竹溪县,水坪镇","lng":109.82303458252467,"lat":32.30759805938908,"info":"直接检索POI第一个结果成功!","tag":["行政地标","乡镇"]},{"name":"县河镇","code":"420324104","level":4,"mergeName":"湖北省,十堰市,竹溪县,县河镇","lng":109.90661005259538,"lat":32.31618258375248,"info":"直接检索POI第一个结果成功!","tag":["行政地标","乡镇"]},{"name":"泉溪镇","code":"420324105","level":4,"mergeName":"湖北省,十堰市,竹溪县,泉溪镇","lng":109.70504853175817,"lat":32.038562742698765,"info":"直接检索POI第一个结果成功!","tag":["名称标注类"]},{"name":"丰溪镇","code":"420324106","level":4,"mergeName":"湖北省,十堰市,竹溪县,丰溪镇","lng":109.71584499619095,"lat":31.87858753788796,"info":"直接检索POI第一个结果成功!","tag":["行政地标","乡镇"]},{"name":"龙坝镇","code":"420324107","level":4,"mergeName":"湖北省,十堰市,竹溪县,龙坝镇","lng":109.65927959653315,"lat":32.365283462989005,"info":"直接检索POI第一个结果成功!","tag":["行政地标","乡镇"]},{"name":"兵营镇","code":"420324108","level":4,"mergeName":"湖北省,十堰市,竹溪县,兵营镇","lng":109.94963834754002,"lat":32.12892998054722,"info":"直接检索POI第一个结果成功!","tag":["行政地标","乡镇"]},{"name":"汇湾镇","code":"420324109","level":4,"mergeName":"湖北省,十堰市,竹溪县,汇湾镇","lng":109.82288878754039,"lat":32.14689470643569,"info":"直接检索POI第一个结果成功!","tag":["名称标注类"]},{"name":"新洲镇","code":"420324110","level":4,"mergeName":"湖北省,十堰市,竹溪县,新洲镇","lng":109.98358127038729,"lat":32.18452897076172,"info":"直接检索POI第一个结果成功!","tag":["行政地标","乡镇"]},{"name":"鄂坪乡","code":"420324203","level":4,"mergeName":"湖北省,十堰市,竹溪县,鄂坪乡","lng":109.71677411357992,"lat":32.212169361509275,"info":"直接检索POI第一个结果成功!","tag":""},{"name":"天宝乡","code":"420324205","level":4,"mergeName":"湖北省,十堰市,竹溪县,天宝乡","lng":109.85707515118087,"lat":32.015864782236726,"info":"直接检索POI第一个结果成功!","tag":["行政地标","乡镇"]},{"name":"桃源乡","code":"420324206","level":4,"mergeName":"湖北省,十堰市,竹溪县,桃源乡","lng":109.8320536596754,"lat":31.739370599623705,"info":"直接检索POI第一个结果成功!","tag":["行政地标","乡镇"]},{"name":"向坝乡","code":"420324207","level":4,"mergeName":"湖北省,十堰市,竹溪县,向坝乡","lng":109.93590469358126,"lat":31.710625383994767,"info":"直接检索POI第一个结果成功!","tag":["行政地标","乡镇"]},{"name":"龙王垭茶场","code":"420324500","level":4,"mergeName":"湖北省,十堰市,竹溪县,龙王垭茶场","lng":109.72468153766205,"lat":32.2507392099405,"info":"直接检索POI第一个结果成功!","tag":["名称标注类"]},{"name":"国营竹溪综合农场","code":"420324501","level":4,"mergeName":"湖北省,十堰市,竹溪县,国营竹溪综合农场","lng":109.72252937732125,"lat":32.317253407875654,"info":"直接检索POI第一个结果成功!","tag":""},{"name":"原种场","code":"420324502","level":4,"mergeName":"湖北省,十堰市,竹溪县,原种场","lng":110.84083529652585,"lat":32.86493124932035,"info":"直接检索POI第一个结果成功!","tag":""},{"name":"渔种场","code":"420324503","level":4,"mergeName":"湖北省,十堰市,竹溪县,渔种场","lng":109.72154249888798,"lat":32.32412004885334,"info":"检索POI失败,BMAP_STATUE_CODE:2 ,GetPoint结果: 直接查询获得"},{"name":"种畜场","code":"420324504","level":4,"mergeName":"湖北省,十堰市,竹溪县,种畜场","lng":111.17056740684892,"lat":32.714345361192805,"info":"直接检索POI第一个结果成功!","tag":""},{"name":"王家山茶场","code":"420324505","level":4,"mergeName":"湖北省,十堰市,竹溪县,王家山茶场","lng":110.83791140192143,"lat":32.697403711708986,"info":"直接检索POI第一个结果成功!","tag":["自然山"]},{"name":"标湖林场","code":"420324506","level":4,"mergeName":"湖北省,十堰市,竹溪县,标湖林场","lng":109.69114258280261,"lat":32.27174527863789,"info":"直接检索POI第一个结果成功!","tag":""},{"name":"双竹林场","code":"420324507","level":4,"mergeName":"湖北省,十堰市,竹溪县,双竹林场","lng":109.72154249888798,"lat":32.32412004885334,"info":"检索POI失败,BMAP_STATUE_CODE:1 ,GetPoint结果: 直接查询获得"},{"name":"房县","code":"420325","level":3,"mergeName":"湖北省,十堰市,房县","lng":110.73359019491163,"lat":32.04666531571944,"info":"直接检索POI第一个结果成功!","tag":""},{"name":"城关镇","code":"420325100","level":4,"mergeName":"湖北省,十堰市,房县,城关镇","lng":110.74918612602312,"lat":32.064189986296164,"info":"直接检索POI第一个结果成功!","tag":["行政地标","乡镇"]},{"name":"军店镇","code":"420325101","level":4,"mergeName":"湖北省,十堰市,房县,军店镇","lng":110.63019100867727,"lat":32.06207282860539,"info":"直接检索POI第一个结果成功!","tag":["行政地标","乡镇"]},{"name":"化龙堰镇","code":"420325102","level":4,"mergeName":"湖北省,十堰市,房县,化龙堰镇","lng":110.55720063175282,"lat":32.06704315572666,"info":"直接检索POI第一个结果成功!","tag":["行政地标","乡镇"]},{"name":"土城镇","code":"420325103","level":4,"mergeName":"湖北省,十堰市,房县,土城镇","lng":110.70161824418379,"lat":32.26790457055105,"info":"直接检索POI第一个结果成功!","tag":["行政地标","乡镇"]},{"name":"大木厂镇","code":"420325104","level":4,"mergeName":"湖北省,十堰市,房县,大木厂镇","lng":110.54898401091417,"lat":32.37603069966885,"info":"直接检索POI第一个结果成功!","tag":["行政地标","乡镇"]},{"name":"青峰镇","code":"420325105","level":4,"mergeName":"湖北省,十堰市,房县,青峰镇","lng":110.97744663407512,"lat":32.047276895111935,"info":"直接检索POI第一个结果成功!","tag":["行政地标","乡镇"]},{"name":"门古寺镇","code":"420325106","level":4,"mergeName":"湖北省,十堰市,房县,门古寺镇","lng":110.45826791034463,"lat":32.01334388187554,"info":"直接检索POI第一个结果成功!","tag":["行政地标","乡镇"]},{"name":"白鹤镇","code":"420325107","level":4,"mergeName":"湖北省,十堰市,房县,白鹤镇","lng":110.78991287242064,"lat":32.110830399722694,"info":"直接检索POI第一个结果成功!","tag":["行政地标","乡镇"]},{"name":"野人谷镇","code":"420325108","level":4,"mergeName":"湖北省,十堰市,房县,野人谷镇","lng":110.74368741833543,"lat":31.940016042756778,"info":"直接检索POI第一个结果成功!","tag":["行政地标","乡镇"]},{"name":"红塔镇","code":"420325109","level":4,"mergeName":"湖北省,十堰市,房县,红塔镇","lng":110.71972943072322,"lat":32.06330786239694,"info":"直接检索POI第一个结果成功!","tag":["行政地标","乡镇"]},{"name":"窑淮镇","code":"420325110","level":4,"mergeName":"湖北省,十堰市,房县,窑淮镇","lng":110.44556533145023,"lat":32.14114363125044,"info":"直接检索POI第一个结果成功!","tag":["行政地标","乡镇"]},{"name":"尹吉甫镇","code":"420325111","level":4,"mergeName":"湖北省,十堰市,房县,尹吉甫镇","lng":111.04728629425387,"lat":32.04072100510451,"info":"直接检索POI第一个结果成功!","tag":["行政地标","乡镇"]},{"name":"姚坪乡","code":"420325203","level":4,"mergeName":"湖北省,十堰市,房县,姚坪乡","lng":110.42900497954324,"lat":32.35447370446574,"info":"直接检索POI第一个结果成功!","tag":["名称标注类"]},{"name":"沙河乡","code":"420325205","level":4,"mergeName":"湖北省,十堰市,房县,沙河乡","lng":111.10345742762335,"lat":32.142584491726055,"info":"直接检索POI第一个结果成功!","tag":["行政地标","乡镇"]},{"name":"万峪河乡","code":"420325206","level":4,"mergeName":"湖北省,十堰市,房县,万峪河乡","lng":111.02241095705487,"lat":32.184667938682615,"info":"直接检索POI第一个结果成功!","tag":["行政地标","乡镇"]},{"name":"上龛乡","code":"420325208","level":4,"mergeName":"湖北省,十堰市,房县,上龛乡","lng":110.35625615697043,"lat":31.819544110112112,"info":"直接检索POI第一个结果成功!","tag":["名称标注类"]},{"name":"中坝乡","code":"420325209","level":4,"mergeName":"湖北省,十堰市,房县,中坝乡","lng":110.25144609210211,"lat":32.01475776848479,"info":"直接检索POI第一个结果成功!","tag":""},{"name":"九道乡","code":"420325210","level":4,"mergeName":"湖北省,十堰市,房县,九道乡","lng":110.16380345400441,"lat":31.664617392520142,"info":"直接检索POI第一个结果成功!","tag":["名称标注类"]},{"name":"回龙乡","code":"420325211","level":4,"mergeName":"湖北省,十堰市,房县,回龙乡","lng":110.65907305794242,"lat":31.987520427601694,"info":"直接检索POI第一个结果成功!","tag":["名称标注类"]},{"name":"五台乡","code":"420325212","level":4,"mergeName":"湖北省,十堰市,房县,五台乡","lng":110.89649834829889,"lat":31.995333806849352,"info":"直接检索POI第一个结果成功!","tag":""},{"name":"丹江口市","code":"420381","level":3,"mergeName":"湖北省,十堰市,丹江口市","lng":111.51953565170155,"lat":32.546252840681284,"info":"直接检索POI第一个结果成功!","tag":""},{"name":"均州路街道","code":"420381001","level":4,"mergeName":"湖北省,十堰市,丹江口市,均州路街道","lng":111.51857015293942,"lat":32.546424271323886,"info":"直接检索POI第一个结果成功!","tag":""},{"name":"大坝路街道","code":"420381002","level":4,"mergeName":"湖北省,十堰市,丹江口市,大坝路街道","lng":111.5144090221561,"lat":32.54879459136338,"info":"直接检索POI第一个结果成功!","tag":""},{"name":"丹赵路街道","code":"420381003","level":4,"mergeName":"湖北省,十堰市,丹江口市,丹赵路街道","lng":111.5273295299672,"lat":32.54754164404581,"info":"直接检索POI第一个结果成功!","tag":["道路"]},{"name":"三官殿街道","code":"420381005","level":4,"mergeName":"湖北省,十堰市,丹江口市,三官殿街道","lng":111.49846598579556,"lat":32.51774373482265,"info":"直接检索POI第一个结果成功!","tag":""},{"name":"土关垭镇","code":"420381100","level":4,"mergeName":"湖北省,十堰市,丹江口市,土关垭镇","lng":111.37684467229128,"lat":32.42945099290291,"info":"直接检索POI第一个结果成功!","tag":["行政地标","乡镇"]},{"name":"浪河镇","code":"420381101","level":4,"mergeName":"湖北省,十堰市,丹江口市,浪河镇","lng":111.27364994039101,"lat":32.422373974553366,"info":"直接检索POI第一个结果成功!","tag":["行政地标","乡镇"]},{"name":"丁家营镇","code":"420381102","level":4,"mergeName":"湖北省,十堰市,丹江口市,丁家营镇","lng":111.22703246578125,"lat":32.47271388113295,"info":"直接检索POI第一个结果成功!","tag":["行政地标","乡镇"]},{"name":"六里坪镇","code":"420381103","level":4,"mergeName":"湖北省,十堰市,丹江口市,六里坪镇","lng":110.98504405292576,"lat":32.54545921826437,"info":"直接检索POI第一个结果成功!","tag":["行政地标","乡镇"]},{"name":"盐池河镇","code":"420381104","level":4,"mergeName":"湖北省,十堰市,丹江口市,盐池河镇","lng":111.06356655450284,"lat":32.334294169227775,"info":"直接检索POI第一个结果成功!","tag":["名称标注类"]},{"name":"均县镇","code":"420381105","level":4,"mergeName":"湖北省,十堰市,丹江口市,均县镇","lng":111.08711841819401,"lat":32.658920634153425,"info":"直接检索POI第一个结果成功!","tag":["名称标注类"]},{"name":"习家店镇","code":"420381106","level":4,"mergeName":"湖北省,十堰市,丹江口市,习家店镇","lng":111.1900352143695,"lat":32.7536786766247,"info":"直接检索POI第一个结果成功!","tag":["行政地标","乡镇"]},{"name":"蒿坪镇","code":"420381107","level":4,"mergeName":"湖北省,十堰市,丹江口市,蒿坪镇","lng":111.2696517622272,"lat":32.750402252962225,"info":"直接检索POI第一个结果成功!","tag":["行政地标","乡镇"]},{"name":"石鼓镇","code":"420381108","level":4,"mergeName":"湖北省,十堰市,丹江口市,石鼓镇","lng":111.41060721539216,"lat":32.7406201595243,"info":"直接检索POI第一个结果成功!","tag":["行政地标","乡镇"]},{"name":"凉水河镇","code":"420381109","level":4,"mergeName":"湖北省,十堰市,丹江口市,凉水河镇","lng":111.47843592885627,"lat":32.65184733654708,"info":"直接检索POI第一个结果成功!","tag":["行政地标","乡镇"]},{"name":"官山镇","code":"420381110","level":4,"mergeName":"湖北省,十堰市,丹江口市,官山镇","lng":110.88292611984028,"lat":32.381581832799974,"info":"直接检索POI第一个结果成功!","tag":["行政地标","乡镇"]},{"name":"龙山镇","code":"420381111","level":4,"mergeName":"湖北省,十堰市,丹江口市,龙山镇","lng":111.26641894035788,"lat":32.58802694085236,"info":"直接检索POI第一个结果成功!","tag":["行政地标","乡镇"]},{"name":"新港经济开发管理处","code":"420381400","level":4,"mergeName":"湖北省,十堰市,丹江口市,新港经济开发管理处","lng":111.52642529564088,"lat":32.52293481409386,"info":"直接检索POI第一个结果成功!","tag":""},{"name":"牛河林业开发管理区","code":"420381401","level":4,"mergeName":"湖北省,十堰市,丹江口市,牛河林业开发管理区","lng":111.38589420199881,"lat":32.509569966636114,"info":"直接检索POI第一个结果成功!","tag":["名称标注类"]},{"name":"白杨坪林业开发管理区","code":"420381402","level":4,"mergeName":"湖北省,十堰市,丹江口市,白杨坪林业开发管理区","lng":111.15182354373881,"lat":32.374049626089345,"info":"直接检索POI第一个结果成功!","tag":["名称标注类"]},{"name":"大沟林业开发管理区","code":"420381403","level":4,"mergeName":"湖北省,十堰市,丹江口市,大沟林业开发管理区","lng":111.2176420291327,"lat":32.90499510904801,"info":"直接检索POI第一个结果成功!","tag":""},{"name":"武当山特区","code":"420381450","level":4,"mergeName":"湖北省,十堰市,丹江口市,武当山特区","lng":111.10065902629866,"lat":32.51014110360539,"info":"直接检索POI第一个结果成功!","tag":["生活服务","售票处"]},{"name":"宜昌市","code":"4205","level":2,"mergeName":"湖北省,宜昌市","lng":111.29255181544032,"lat":30.697446406860127,"info":"直接检索POI第一个结果成功!","tag":""},{"name":"西陵区","code":"420502","level":3,"mergeName":"湖北省,宜昌市,西陵区","lng":111.29256079849542,"lat":30.716749657064607,"info":"直接检索POI第一个结果成功!","tag":""},{"name":"西陵街道","code":"420502001","level":4,"mergeName":"湖北省,宜昌市,西陵区,西陵街道","lng":111.30864909085692,"lat":30.712354517872754,"info":"直接检索POI第一个结果成功!","tag":["行政地标","乡镇"]},{"name":"学院街道","code":"420502002","level":4,"mergeName":"湖北省,宜昌市,西陵区,学院街道","lng":111.28542519850745,"lat":30.706835411308717,"info":"直接检索POI第一个结果成功!","tag":""},{"name":"云集街道","code":"420502003","level":4,"mergeName":"湖北省,宜昌市,西陵区,云集街道","lng":111.30408291411915,"lat":30.701733784769928,"info":"直接检索POI第一个结果成功!","tag":["行政地标","乡镇"]},{"name":"西坝街道","code":"420502004","level":4,"mergeName":"湖北省,宜昌市,西陵区,西坝街道","lng":111.28150840682285,"lat":30.720272142303802,"info":"直接检索POI第一个结果成功!","tag":["行政地标","乡镇"]},{"name":"葛洲坝街道","code":"420502005","level":4,"mergeName":"湖北省,宜昌市,西陵区,葛洲坝街道","lng":111.29437043494525,"lat":30.72213089475882,"info":"直接检索POI第一个结果成功!","tag":""},{"name":"夜明珠街道","code":"420502006","level":4,"mergeName":"湖北省,宜昌市,西陵区,夜明珠街道","lng":111.31556002463682,"lat":30.748426938192747,"info":"直接检索POI第一个结果成功!","tag":["行政地标","乡镇"]},{"name":"东苑街道","code":"420502007","level":4,"mergeName":"湖北省,宜昌市,西陵区,东苑街道","lng":111.33726048067192,"lat":30.716608006726986,"info":"直接检索POI第一个结果成功!","tag":""},{"name":"南苑街道","code":"420502008","level":4,"mergeName":"湖北省,宜昌市,西陵区,南苑街道","lng":111.32979816696997,"lat":30.71089998301981,"info":"直接检索POI第一个结果成功!","tag":["政府机构"]},{"name":"北苑街道","code":"420502009","level":4,"mergeName":"湖北省,宜昌市,西陵区,北苑街道","lng":111.33620003101738,"lat":30.726588834897697,"info":"直接检索POI第一个结果成功!","tag":""},{"name":"窑湾街道","code":"420502010","level":4,"mergeName":"湖北省,宜昌市,西陵区,窑湾街道","lng":111.31550280257584,"lat":30.73655441852754,"info":"直接检索POI第一个结果成功!","tag":["行政地标","乡镇"]},{"name":"伍家岗区","code":"420503","level":3,"mergeName":"湖北省,宜昌市,伍家岗区","lng":111.36742557969697,"lat":30.65073725759022,"info":"直接检索POI第一个结果成功!","tag":""},{"name":"大公桥街道","code":"420503001","level":4,"mergeName":"湖北省,宜昌市,伍家岗区,大公桥街道","lng":111.31025256619223,"lat":30.688127209637102,"info":"直接检索POI第一个结果成功!","tag":["行政地标","乡镇"]},{"name":"万寿桥街道","code":"420503002","level":4,"mergeName":"湖北省,宜昌市,伍家岗区,万寿桥街道","lng":111.32452565260971,"lat":30.68086597986057,"info":"直接检索POI第一个结果成功!","tag":["交通设施","公交车站","公交车站主点"]},{"name":"宝塔河街道","code":"420503003","level":4,"mergeName":"湖北省,宜昌市,伍家岗区,宝塔河街道","lng":111.33745271805105,"lat":30.679433405564225,"info":"直接检索POI第一个结果成功!","tag":["行政地标","乡镇"]},{"name":"伍家岗街道","code":"420503004","level":4,"mergeName":"湖北省,宜昌市,伍家岗区,伍家岗街道","lng":111.36840590050002,"lat":30.658794267407085,"info":"直接检索POI第一个结果成功!","tag":["行政地标","乡镇"]},{"name":"伍家乡","code":"420503201","level":4,"mergeName":"湖北省,宜昌市,伍家岗区,伍家乡","lng":111.36001572703682,"lat":30.65293871580157,"info":"直接检索POI第一个结果成功!","tag":["行政地标","乡镇"]},{"name":"点军区","code":"420504","level":3,"mergeName":"湖北省,宜昌市,点军区","lng":111.27446892552446,"lat":30.699328970465302,"info":"直接检索POI第一个结果成功!","tag":""},{"name":"点军街道","code":"420504001","level":4,"mergeName":"湖北省,宜昌市,点军区,点军街道","lng":111.2697111402214,"lat":30.70547045016295,"info":"直接检索POI第一个结果成功!","tag":["行政地标","乡镇"]},{"name":"艾家镇","code":"420504101","level":4,"mergeName":"湖北省,宜昌市,点军区,艾家镇","lng":111.35742591225156,"lat":30.62814220125702,"info":"直接检索POI第一个结果成功!","tag":["行政地标","乡镇"]},{"name":"桥边镇","code":"420504102","level":4,"mergeName":"湖北省,宜昌市,点军区,桥边镇","lng":111.1949168760024,"lat":30.68525317305584,"info":"直接检索POI第一个结果成功!","tag":["行政地标","乡镇"]},{"name":"联棚乡","code":"420504201","level":4,"mergeName":"湖北省,宜昌市,点军区,联棚乡","lng":111.27720381664957,"lat":30.65516062736371,"info":"直接检索POI第一个结果成功!","tag":["行政地标","乡镇"]},{"name":"土城乡","code":"420504202","level":4,"mergeName":"湖北省,宜昌市,点军区,土城乡","lng":111.12005955073654,"lat":30.659946711221902,"info":"直接检索POI第一个结果成功!","tag":["行政地标","乡镇"]},{"name":"猇亭区","code":"420505","level":3,"mergeName":"湖北省,宜昌市,猇亭区","lng":111.44157171649056,"lat":30.536466838096917,"info":"直接检索POI第一个结果成功!","tag":""},{"name":"古老背街道","code":"420505001","level":4,"mergeName":"湖北省,宜昌市,猇亭区,古老背街道","lng":111.43550303395679,"lat":30.533914475590656,"info":"直接检索POI第一个结果成功!","tag":["行政地标","乡镇"]},{"name":"虎牙街道","code":"420505002","level":4,"mergeName":"湖北省,宜昌市,猇亭区,虎牙街道","lng":111.46278780619465,"lat":30.559455342997786,"info":"直接检索POI第一个结果成功!","tag":["行政地标","乡镇"]},{"name":"云池街道","code":"420505003","level":4,"mergeName":"湖北省,宜昌市,猇亭区,云池街道","lng":111.45766719529614,"lat":30.532493624372,"info":"直接检索POI第一个结果成功!","tag":["行政地标","乡镇"]},{"name":"夷陵区","code":"420506","level":3,"mergeName":"湖北省,宜昌市,夷陵区","lng":111.33252641063433,"lat":30.77483379271399,"info":"直接检索POI第一个结果成功!","tag":""},{"name":"小溪塔街道","code":"420506001","level":4,"mergeName":"湖北省,宜昌市,夷陵区,小溪塔街道","lng":111.32661672817585,"lat":30.774346733788303,"info":"直接检索POI第一个结果成功!","tag":["名称标注类"]},{"name":"樟村坪镇","code":"420506101","level":4,"mergeName":"湖北省,宜昌市,夷陵区,樟村坪镇","lng":111.21352563396378,"lat":31.298932900602967,"info":"直接检索POI第一个结果成功!","tag":["行政地标","乡镇"]},{"name":"雾渡河镇","code":"420506102","level":4,"mergeName":"湖北省,宜昌市,夷陵区,雾渡河镇","lng":111.2172059018076,"lat":31.11399720682878,"info":"直接检索POI第一个结果成功!","tag":["名称标注类"]},{"name":"分乡镇","code":"420506103","level":4,"mergeName":"湖北省,宜昌市,夷陵区,分乡镇","lng":111.43814728605597,"lat":30.91499257957145,"info":"直接检索POI第一个结果成功!","tag":["行政地标","乡镇"]},{"name":"太平溪镇","code":"420506104","level":4,"mergeName":"湖北省,宜昌市,夷陵区,太平溪镇","lng":111.021747109283,"lat":30.847751871547846,"info":"直接检索POI第一个结果成功!","tag":["行政地标","乡镇"]},{"name":"三斗坪镇","code":"420506105","level":4,"mergeName":"湖北省,宜昌市,夷陵区,三斗坪镇","lng":111.07980468422342,"lat":30.839321756922395,"info":"直接检索POI第一个结果成功!","tag":["行政地标","乡镇"]},{"name":"乐天溪镇","code":"420506106","level":4,"mergeName":"湖北省,宜昌市,夷陵区,乐天溪镇","lng":111.07526653461757,"lat":30.849001322382062,"info":"直接检索POI第一个结果成功!","tag":["行政地标","乡镇"]},{"name":"龙泉镇","code":"420506107","level":4,"mergeName":"湖北省,宜昌市,夷陵区,龙泉镇","lng":111.50136032614871,"lat":30.732028962708455,"info":"直接检索POI第一个结果成功!","tag":["行政地标","乡镇"]},{"name":"鸦鹊岭镇","code":"420506108","level":4,"mergeName":"湖北省,宜昌市,夷陵区,鸦鹊岭镇","lng":111.60525492787183,"lat":30.64641869828636,"info":"直接检索POI第一个结果成功!","tag":["行政地标","乡镇"]},{"name":"黄花镇","code":"420506109","level":4,"mergeName":"湖北省,宜昌市,夷陵区,黄花镇","lng":111.39424485001956,"lat":30.86454367459309,"info":"直接检索POI第一个结果成功!","tag":["行政地标","村庄"]},{"name":"下堡坪乡","code":"420506201","level":4,"mergeName":"湖北省,宜昌市,夷陵区,下堡坪乡","lng":111.17415128651153,"lat":31.039740762955017,"info":"直接检索POI第一个结果成功!","tag":["行政地标","乡镇"]},{"name":"邓村乡","code":"420506202","level":4,"mergeName":"湖北省,宜昌市,夷陵区,邓村乡","lng":110.98161324452205,"lat":30.988683096868733,"info":"直接检索POI第一个结果成功!","tag":["行政地标","乡镇"]},{"name":"三峡坝区","code":"420506401","level":4,"mergeName":"湖北省,宜昌市,夷陵区,三峡坝区","lng":111.0691793469903,"lat":30.814776398727574,"info":"直接检索POI第一个结果成功!","tag":""},{"name":"东城城乡统筹发展试验区","code":"420506402","level":4,"mergeName":"湖北省,宜昌市,夷陵区,东城城乡统筹发展试验区","lng":111.35495700938793,"lat":30.794900874937582,"info":"直接检索POI第一个结果成功!","tag":""},{"name":"远安县","code":"420525","level":3,"mergeName":"湖北省,宜昌市,远安县","lng":111.64652910164713,"lat":31.06662706827149,"info":"直接检索POI第一个结果成功!","tag":""},{"name":"鸣凤镇","code":"420525101","level":4,"mergeName":"湖北省,宜昌市,远安县,鸣凤镇","lng":111.65662264201833,"lat":31.062154232092073,"info":"直接检索POI第一个结果成功!","tag":["行政地标","乡镇"]},{"name":"花林寺镇","code":"420525102","level":4,"mergeName":"湖北省,宜昌市,远安县,花林寺镇","lng":111.64207467411481,"lat":30.918660464840894,"info":"直接检索POI第一个结果成功!","tag":["行政地标","乡镇"]},{"name":"旧县镇","code":"420525103","level":4,"mergeName":"湖北省,宜昌市,远安县,旧县镇","lng":111.6205052808536,"lat":31.129862012342073,"info":"直接检索POI第一个结果成功!","tag":["行政地标","乡镇"]},{"name":"洋坪镇","code":"420525104","level":4,"mergeName":"湖北省,宜昌市,远安县,洋坪镇","lng":111.56036723035209,"lat":31.22607327486629,"info":"直接检索POI第一个结果成功!","tag":["行政地标","乡镇"]},{"name":"茅坪场镇","code":"420525105","level":4,"mergeName":"湖北省,宜昌市,远安县,茅坪场镇","lng":111.68950933724697,"lat":31.15004821229133,"info":"直接检索POI第一个结果成功!","tag":["行政地标","乡镇"]},{"name":"嫘祖镇","code":"420525106","level":4,"mergeName":"湖北省,宜昌市,远安县,嫘祖镇","lng":111.42201452757173,"lat":31.18633051169551,"info":"直接检索POI第一个结果成功!","tag":["行政地标","乡镇"]},{"name":"河口乡","code":"420525201","level":4,"mergeName":"湖北省,宜昌市,远安县,河口乡","lng":111.64864676705635,"lat":31.27463919386448,"info":"直接检索POI第一个结果成功!","tag":["行政地标","乡镇"]},{"name":"兴山县","code":"420526","level":3,"mergeName":"湖北省,宜昌市,兴山县","lng":110.75344274668214,"lat":31.354464211555804,"info":"直接检索POI第一个结果成功!","tag":""},{"name":"古夫镇","code":"420526101","level":4,"mergeName":"湖北省,宜昌市,兴山县,古夫镇","lng":110.76257518998824,"lat":31.34746032569902,"info":"直接检索POI第一个结果成功!","tag":["行政地标","乡镇"]},{"name":"昭君镇","code":"420526102","level":4,"mergeName":"湖北省,宜昌市,兴山县,昭君镇","lng":110.76731572782549,"lat":31.236467218635106,"info":"直接检索POI第一个结果成功!","tag":["行政地标","乡镇"]},{"name":"峡口镇","code":"420526103","level":4,"mergeName":"湖北省,宜昌市,兴山县,峡口镇","lng":110.78963529601806,"lat":31.12327160664785,"info":"直接检索POI第一个结果成功!","tag":["行政地标","乡镇"]},{"name":"南阳镇","code":"420526104","level":4,"mergeName":"湖北省,宜昌市,兴山县,南阳镇","lng":110.68385470187674,"lat":31.314722440164232,"info":"直接检索POI第一个结果成功!","tag":["行政地标","乡镇"]},{"name":"黄粮镇","code":"420526105","level":4,"mergeName":"湖北省,宜昌市,兴山县,黄粮镇","lng":110.84585511754617,"lat":31.270452046981923,"info":"直接检索POI第一个结果成功!","tag":["行政地标","乡镇"]},{"name":"水月寺镇","code":"420526106","level":4,"mergeName":"湖北省,宜昌市,兴山县,水月寺镇","lng":111.02691317444032,"lat":31.24322472755672,"info":"直接检索POI第一个结果成功!","tag":["行政地标","乡镇"]},{"name":"高桥乡","code":"420526201","level":4,"mergeName":"湖北省,宜昌市,兴山县,高桥乡","lng":110.55571312765885,"lat":31.22650852440095,"info":"直接检索POI第一个结果成功!","tag":["行政地标","乡镇"]},{"name":"榛子乡","code":"420526202","level":4,"mergeName":"湖北省,宜昌市,兴山县,榛子乡","lng":110.99108309137769,"lat":31.455083339982412,"info":"直接检索POI第一个结果成功!","tag":["行政地标","乡镇"]},{"name":"秭归县","code":"420527","level":3,"mergeName":"湖北省,宜昌市,秭归县","lng":110.98445099162808,"lat":30.831930945511093,"info":"直接检索POI第一个结果成功!","tag":""},{"name":"茅坪镇","code":"420527101","level":4,"mergeName":"湖北省,宜昌市,秭归县,茅坪镇","lng":110.97972940803709,"lat":30.829062171960402,"info":"直接检索POI第一个结果成功!","tag":["行政地标","乡镇"]},{"name":"归州镇","code":"420527102","level":4,"mergeName":"湖北省,宜昌市,秭归县,归州镇","lng":110.72328627139,"lat":30.9858816019618,"info":"直接检索POI第一个结果成功!","tag":["行政地标","乡镇"]},{"name":"屈原镇","code":"420527103","level":4,"mergeName":"湖北省,宜昌市,秭归县,屈原镇","lng":110.83621180789656,"lat":30.935663435145823,"info":"直接检索POI第一个结果成功!","tag":["行政地标","乡镇"]},{"name":"沙镇溪镇","code":"420527104","level":4,"mergeName":"湖北省,宜昌市,秭归县,沙镇溪镇","lng":110.62182670641276,"lat":30.96866231343134,"info":"直接检索POI第一个结果成功!","tag":["行政地标","乡镇"]},{"name":"两河口镇","code":"420527105","level":4,"mergeName":"湖北省,宜昌市,秭归县,两河口镇","lng":110.5853915247586,"lat":30.87755415566641,"info":"直接检索POI第一个结果成功!","tag":["行政地标","乡镇"]},{"name":"郭家坝镇","code":"420527106","level":4,"mergeName":"湖北省,宜昌市,秭归县,郭家坝镇","lng":110.76295140033581,"lat":30.958974601094468,"info":"直接检索POI第一个结果成功!","tag":["行政地标","乡镇"]},{"name":"杨林桥镇","code":"420527107","level":4,"mergeName":"湖北省,宜昌市,秭归县,杨林桥镇","lng":110.7725014658735,"lat":30.754220777736773,"info":"直接检索POI第一个结果成功!","tag":["行政地标","乡镇"]},{"name":"九畹溪镇","code":"420527108","level":4,"mergeName":"湖北省,宜昌市,秭归县,九畹溪镇","lng":110.79365620131126,"lat":30.846766173457766,"info":"直接检索POI第一个结果成功!","tag":""},{"name":"水田坝乡","code":"420527201","level":4,"mergeName":"湖北省,宜昌市,秭归县,水田坝乡","lng":110.68812937847652,"lat":31.0704866413997,"info":"直接检索POI第一个结果成功!","tag":["行政地标","乡镇"]},{"name":"泄滩乡","code":"420527202","level":4,"mergeName":"湖北省,宜昌市,秭归县,泄滩乡","lng":110.61861445573963,"lat":31.009600548071283,"info":"直接检索POI第一个结果成功!","tag":["行政地标","乡镇"]},{"name":"梅家河乡","code":"420527203","level":4,"mergeName":"湖北省,宜昌市,秭归县,梅家河乡","lng":110.50091244917542,"lat":30.92535176661236,"info":"直接检索POI第一个结果成功!","tag":["名称标注类"]},{"name":"磨坪乡","code":"420527204","level":4,"mergeName":"湖北省,宜昌市,秭归县,磨坪乡","lng":110.44139404981465,"lat":30.817000514764363,"info":"直接检索POI第一个结果成功!","tag":["行政地标","乡镇"]},{"name":"长阳土家族自治县","code":"420528","level":3,"mergeName":"湖北省,宜昌市,长阳土家族自治县","lng":111.21350991361736,"lat":30.478646483340842,"info":"直接检索POI第一个结果成功!","tag":""},{"name":"龙舟坪镇","code":"420528101","level":4,"mergeName":"湖北省,宜昌市,长阳土家族自治县,龙舟坪镇","lng":111.17342195226799,"lat":30.49789563180442,"info":"直接检索POI第一个结果成功!","tag":["行政地标","乡镇"]},{"name":"高家堰镇","code":"420528102","level":4,"mergeName":"湖北省,宜昌市,长阳土家族自治县,高家堰镇","lng":111.06105731772182,"lat":30.605000430199077,"info":"直接检索POI第一个结果成功!","tag":["行政地标","乡镇"]},{"name":"磨市镇","code":"420528103","level":4,"mergeName":"湖北省,宜昌市,长阳土家族自治县,磨市镇","lng":111.24135504883235,"lat":30.412235432799616,"info":"直接检索POI第一个结果成功!","tag":["行政地标","乡镇"]},{"name":"都镇湾镇","code":"420528104","level":4,"mergeName":"湖北省,宜昌市,长阳土家族自治县,都镇湾镇","lng":110.96945387096955,"lat":30.41472211202631,"info":"直接检索POI第一个结果成功!","tag":["行政地标","乡镇"]},{"name":"资丘镇","code":"420528105","level":4,"mergeName":"湖北省,宜昌市,长阳土家族自治县,资丘镇","lng":110.69163106318497,"lat":30.44103033540334,"info":"直接检索POI第一个结果成功!","tag":["行政地标","乡镇"]},{"name":"渔峡口镇","code":"420528106","level":4,"mergeName":"湖北省,宜昌市,长阳土家族自治县,渔峡口镇","lng":110.51455645224425,"lat":30.425559757416178,"info":"直接检索POI第一个结果成功!","tag":["行政地标","乡镇"]},{"name":"榔坪镇","code":"420528107","level":4,"mergeName":"湖北省,宜昌市,长阳土家族自治县,榔坪镇","lng":110.51078761147716,"lat":30.61713893503331,"info":"直接检索POI第一个结果成功!","tag":["行政地标","乡镇"]},{"name":"贺家坪镇","code":"420528108","level":4,"mergeName":"湖北省,宜昌市,长阳土家族自治县,贺家坪镇","lng":110.83815214779811,"lat":30.612618469933526,"info":"直接检索POI第一个结果成功!","tag":["行政地标","乡镇"]},{"name":"大堰乡","code":"420528201","level":4,"mergeName":"湖北省,宜昌市,长阳土家族自治县,大堰乡","lng":111.09504892872775,"lat":30.342629898773197,"info":"直接检索POI第一个结果成功!","tag":["行政地标","乡镇"]},{"name":"鸭子口乡","code":"420528202","level":4,"mergeName":"湖北省,宜昌市,长阳土家族自治县,鸭子口乡","lng":110.94122120675756,"lat":30.445355485265477,"info":"直接检索POI第一个结果成功!","tag":["行政地标","乡镇"]},{"name":"火烧坪乡","code":"420528203","level":4,"mergeName":"湖北省,宜昌市,长阳土家族自治县,火烧坪乡","lng":110.73827988865703,"lat":30.510105779214,"info":"直接检索POI第一个结果成功!","tag":["行政地标","乡镇"]},{"name":"五峰土家族自治县","code":"420529","level":3,"mergeName":"湖北省,宜昌市,五峰土家族自治县","lng":111.05257848150481,"lat":30.1711554485173,"info":"直接检索POI第一个结果成功!","tag":""},{"name":"渔洋关镇","code":"420529111","level":4,"mergeName":"湖北省,宜昌市,五峰土家族自治县,渔洋关镇","lng":111.08306589254686,"lat":30.178555555326653,"info":"直接检索POI第一个结果成功!","tag":["行政地标","乡镇"]},{"name":"仁和坪镇","code":"420529112","level":4,"mergeName":"湖北省,宜昌市,五峰土家族自治县,仁和坪镇","lng":111.25263857451263,"lat":30.107912038661677,"info":"直接检索POI第一个结果成功!","tag":["行政地标","乡镇"]},{"name":"长乐坪镇","code":"420529113","level":4,"mergeName":"湖北省,宜昌市,五峰土家族自治县,长乐坪镇","lng":110.87909493667077,"lat":30.177141033118964,"info":"直接检索POI第一个结果成功!","tag":["行政地标","乡镇"]},{"name":"五峰镇","code":"420529114","level":4,"mergeName":"湖北省,宜昌市,五峰土家族自治县,五峰镇","lng":110.68095425304612,"lat":30.205628972251986,"info":"直接检索POI第一个结果成功!","tag":["行政地标","乡镇"]},{"name":"湾潭镇","code":"420529115","level":4,"mergeName":"湖北省,宜昌市,五峰土家族自治县,湾潭镇","lng":110.43714416644694,"lat":30.05403243539621,"info":"直接检索POI第一个结果成功!","tag":["行政地标","乡镇"]},{"name":"付家堰乡","code":"420529201","level":4,"mergeName":"湖北省,宜昌市,五峰土家族自治县,付家堰乡","lng":110.49046308999169,"lat":30.31102522499632,"info":"直接检索POI第一个结果成功!","tag":["行政地标","乡镇"]},{"name":"牛庄乡","code":"420529202","level":4,"mergeName":"湖北省,宜昌市,五峰土家族自治县,牛庄乡","lng":110.37228120862403,"lat":30.23707503586924,"info":"直接检索POI第一个结果成功!","tag":["行政地标","乡镇"]},{"name":"采花乡","code":"420529203","level":4,"mergeName":"湖北省,宜昌市,五峰土家族自治县,采花乡","lng":110.46230929700347,"lat":30.21734158834638,"info":"直接检索POI第一个结果成功!","tag":["行政地标","乡镇"]},{"name":"宜都市","code":"420581","level":3,"mergeName":"湖北省,宜昌市,宜都市","lng":111.45651952017658,"lat":30.384404352198956,"info":"直接检索POI第一个结果成功!","tag":""},{"name":"陆城街道","code":"420581001","level":4,"mergeName":"湖北省,宜昌市,宜都市,陆城街道","lng":111.4643221120057,"lat":30.391218542420553,"info":"直接检索POI第一个结果成功!","tag":["行政地标","乡镇"]},{"name":"红花套镇","code":"420581100","level":4,"mergeName":"湖北省,宜昌市,宜都市,红花套镇","lng":111.40922517236507,"lat":30.520169497763554,"info":"直接检索POI第一个结果成功!","tag":["行政地标","乡镇"]},{"name":"高坝洲镇","code":"420581101","level":4,"mergeName":"湖北省,宜昌市,宜都市,高坝洲镇","lng":111.4374834382841,"lat":30.428917935012716,"info":"直接检索POI第一个结果成功!","tag":["行政地标","乡镇"]},{"name":"聂家河镇","code":"420581102","level":4,"mergeName":"湖北省,宜昌市,宜都市,聂家河镇","lng":111.30873263326934,"lat":30.3033488745643,"info":"直接检索POI第一个结果成功!","tag":["行政地标","乡镇"]},{"name":"松木坪镇","code":"420581103","level":4,"mergeName":"湖北省,宜昌市,宜都市,松木坪镇","lng":111.49091141611774,"lat":30.125395066780708,"info":"直接检索POI第一个结果成功!","tag":["行政地标","乡镇"]},{"name":"枝城镇","code":"420581104","level":4,"mergeName":"湖北省,宜昌市,宜都市,枝城镇","lng":111.50728024929002,"lat":30.303975205695632,"info":"直接检索POI第一个结果成功!","tag":["行政地标","乡镇"]},{"name":"姚家店镇","code":"420581105","level":4,"mergeName":"湖北省,宜昌市,宜都市,姚家店镇","lng":111.4570245475343,"lat":30.373191003931773,"info":"直接检索POI第一个结果成功!","tag":["行政地标","乡镇"]},{"name":"五眼泉镇","code":"420581106","level":4,"mergeName":"湖北省,宜昌市,宜都市,五眼泉镇","lng":111.3349395287258,"lat":30.357980604292695,"info":"直接检索POI第一个结果成功!","tag":["行政地标","乡镇"]},{"name":"王家畈镇","code":"420581107","level":4,"mergeName":"湖北省,宜昌市,宜都市,王家畈镇","lng":111.37247387700195,"lat":30.186237622278394,"info":"直接检索POI第一个结果成功!","tag":["行政地标","乡镇"]},{"name":"潘家湾土家族乡","code":"420581200","level":4,"mergeName":"湖北省,宜昌市,宜都市,潘家湾土家族乡","lng":111.2232996470651,"lat":30.224442439191566,"info":"直接检索POI第一个结果成功!","tag":""},{"name":"松宜矿区管理委员会","code":"420581400","level":4,"mergeName":"湖北省,宜昌市,宜都市,松宜矿区管理委员会","lng":111.48926994245937,"lat":30.134981702785804,"info":"直接检索POI第一个结果成功!","tag":""},{"name":"当阳市","code":"420582","level":3,"mergeName":"湖北省,宜昌市,当阳市","lng":111.7945698496915,"lat":30.82698874017354,"info":"直接检索POI第一个结果成功!","tag":""},{"name":"当阳市玉阳街道","code":"420582001","level":4,"mergeName":"湖北省,宜昌市,当阳市,当阳市玉阳街道","lng":111.82393437884606,"lat":30.8137778750535,"info":"直接检索POI第一个结果成功!","tag":""},{"name":"当阳市坝陵街道","code":"420582002","level":4,"mergeName":"湖北省,宜昌市,当阳市,当阳市坝陵街道","lng":111.80449729337391,"lat":30.845359731918435,"info":"直接检索POI第一个结果成功!","tag":["行政地标","村庄"]},{"name":"当阳市玉泉街道","code":"420582003","level":4,"mergeName":"湖北省,宜昌市,当阳市,当阳市玉泉街道","lng":111.78280222717189,"lat":30.844235803897675,"info":"直接检索POI第一个结果成功!","tag":["行政地标","乡镇"]},{"name":"当阳市两河镇","code":"420582101","level":4,"mergeName":"湖北省,宜昌市,当阳市,当阳市两河镇","lng":111.93856202463294,"lat":30.703701653822076,"info":"直接检索POI第一个结果成功!","tag":["行政地标","乡镇"]},{"name":"当阳市河溶镇","code":"420582102","level":4,"mergeName":"湖北省,宜昌市,当阳市,当阳市河溶镇","lng":111.99019428975215,"lat":30.707633621984588,"info":"直接检索POI第一个结果成功!","tag":["行政地标","乡镇"]},{"name":"当阳市淯溪镇","code":"420582103","level":4,"mergeName":"湖北省,宜昌市,当阳市,当阳市淯溪镇","lng":111.94128362083651,"lat":30.920480103332416,"info":"直接检索POI第一个结果成功!","tag":""},{"name":"当阳市庙前镇","code":"420582104","level":4,"mergeName":"湖北省,宜昌市,当阳市,当阳市庙前镇","lng":111.8867158729718,"lat":30.896602062107128,"info":"直接检索POI第一个结果成功!","tag":["行政地标","乡镇"]},{"name":"当阳市王店镇","code":"420582105","level":4,"mergeName":"湖北省,宜昌市,当阳市,当阳市王店镇","lng":111.6838536955867,"lat":30.71156961980644,"info":"直接检索POI第一个结果成功!","tag":["行政地标","乡镇"]},{"name":"当阳市半月镇","code":"420582106","level":4,"mergeName":"湖北省,宜昌市,当阳市,当阳市半月镇","lng":111.84170546691941,"lat":30.62236907222608,"info":"直接检索POI第一个结果成功!","tag":["行政地标","乡镇"]},{"name":"当阳市草埠湖镇","code":"420582107","level":4,"mergeName":"湖北省,宜昌市,当阳市,当阳市草埠湖镇","lng":111.98252051493317,"lat":30.570938244021846,"info":"直接检索POI第一个结果成功!","tag":["行政地标","乡镇"]},{"name":"枝江市","code":"420583","level":3,"mergeName":"湖北省,宜昌市,枝江市","lng":111.76654271778018,"lat":30.431731533318352,"info":"直接检索POI第一个结果成功!","tag":""},{"name":"马家店街道","code":"420583001","level":4,"mergeName":"湖北省,宜昌市,枝江市,马家店街道","lng":111.76732586052378,"lat":30.42859984113059,"info":"直接检索POI第一个结果成功!","tag":["行政地标","村庄"]},{"name":"安福寺镇","code":"420583101","level":4,"mergeName":"湖北省,宜昌市,枝江市,安福寺镇","lng":111.5870403463682,"lat":30.537258381764133,"info":"直接检索POI第一个结果成功!","tag":["行政地标","乡镇"]},{"name":"白洋镇","code":"420583102","level":4,"mergeName":"湖北省,宜昌市,枝江市,白洋镇","lng":111.52037017752032,"lat":30.424033451393978,"info":"直接检索POI第一个结果成功!","tag":["行政地标","乡镇"]},{"name":"顾家店镇","code":"420583103","level":4,"mergeName":"湖北省,宜昌市,枝江市,顾家店镇","lng":111.5726000852953,"lat":30.341957221333917,"info":"直接检索POI第一个结果成功!","tag":["行政地标","乡镇"]},{"name":"董市镇","code":"420583104","level":4,"mergeName":"湖北省,宜昌市,枝江市,董市镇","lng":111.71030978099162,"lat":30.415475102966955,"info":"直接检索POI第一个结果成功!","tag":["行政地标","乡镇"]},{"name":"仙女镇","code":"420583105","level":4,"mergeName":"湖北省,宜昌市,枝江市,仙女镇","lng":111.75508545981427,"lat":30.53260817355151,"info":"直接检索POI第一个结果成功!","tag":["行政地标","乡镇"]},{"name":"问安镇","code":"420583106","level":4,"mergeName":"湖北省,宜昌市,枝江市,问安镇","lng":111.83630692029608,"lat":30.52787359372104,"info":"直接检索POI第一个结果成功!","tag":["行政地标","乡镇"]},{"name":"七星台镇","code":"420583107","level":4,"mergeName":"湖北省,宜昌市,枝江市,七星台镇","lng":111.89939329931192,"lat":30.4169102153513,"info":"直接检索POI第一个结果成功!","tag":["行政地标","乡镇"]},{"name":"百里洲镇","code":"420583108","level":4,"mergeName":"湖北省,宜昌市,枝江市,百里洲镇","lng":111.81747960460412,"lat":30.410360784583986,"info":"直接检索POI第一个结果成功!","tag":["名称标注类"]},{"name":"襄阳市","code":"4206","level":2,"mergeName":"湖北省,襄阳市","lng":112.128532889136,"lat":32.01479711083531,"info":"直接检索POI第一个结果成功!","tag":""},{"name":"襄城区","code":"420602","level":3,"mergeName":"湖北省,襄阳市,襄城区","lng":112.1405701829697,"lat":32.01617484776233,"info":"直接检索POI第一个结果成功!","tag":""},{"name":"真武山街道","code":"420602001","level":4,"mergeName":"湖北省,襄阳市,襄城区,真武山街道","lng":112.14094199162028,"lat":32.01023297823985,"info":"直接检索POI第一个结果成功!","tag":["旅游景点","风景区/旅游区"]},{"name":"古城街道","code":"420602002","level":4,"mergeName":"湖北省,襄阳市,襄城区,古城街道","lng":112.15243796655368,"lat":32.02609653825315,"info":"直接检索POI第一个结果成功!","tag":""},{"name":"庞公街道","code":"420602003","level":4,"mergeName":"湖北省,襄阳市,襄城区,庞公街道","lng":112.16754468048443,"lat":32.011882209809194,"info":"直接检索POI第一个结果成功!","tag":["行政地标","乡镇"]},{"name":"檀溪街道","code":"420602004","level":4,"mergeName":"湖北省,襄阳市,襄城区,檀溪街道","lng":112.12170118590207,"lat":32.00204562240229,"info":"直接检索POI第一个结果成功!","tag":["行政地标","乡镇"]},{"name":"隆中街道","code":"420602005","level":4,"mergeName":"湖北省,襄阳市,襄城区,隆中街道","lng":112.10125359656175,"lat":32.00972456246529,"info":"直接检索POI第一个结果成功!","tag":["行政地标","乡镇"]},{"name":"余家湖街道","code":"420602006","level":4,"mergeName":"湖北省,襄阳市,襄城区,余家湖街道","lng":112.14822599167849,"lat":31.89596935755241,"info":"直接检索POI第一个结果成功!","tag":""},{"name":"欧庙镇","code":"420602100","level":4,"mergeName":"湖北省,襄阳市,襄城区,欧庙镇","lng":112.17411291071228,"lat":31.86512801923897,"info":"直接检索POI第一个结果成功!","tag":["行政地标","乡镇"]},{"name":"卧龙镇","code":"420602101","level":4,"mergeName":"湖北省,襄阳市,襄城区,卧龙镇","lng":112.02313605110855,"lat":32.021214048563166,"info":"直接检索POI第一个结果成功!","tag":["行政地标","乡镇"]},{"name":"尹集乡","code":"420602200","level":4,"mergeName":"湖北省,襄阳市,襄城区,尹集乡","lng":112.10222340719032,"lat":31.962123261618363,"info":"直接检索POI第一个结果成功!","tag":["行政地标","乡镇"]},{"name":"樊城区","code":"420606","level":3,"mergeName":"湖北省,襄阳市,樊城区","lng":112.14260035342225,"lat":32.05057321631623,"info":"直接检索POI第一个结果成功!","tag":""},{"name":"汉江街道","code":"420606001","level":4,"mergeName":"湖北省,襄阳市,樊城区,汉江街道","lng":112.14413861177754,"lat":32.03883447003559,"info":"直接检索POI第一个结果成功!","tag":["行政地标","乡镇"]},{"name":"王寨街道","code":"420606002","level":4,"mergeName":"湖北省,襄阳市,樊城区,王寨街道","lng":112.13286514711896,"lat":32.059550458460386,"info":"直接检索POI第一个结果成功!","tag":["行政地标","乡镇"]},{"name":"中原街道","code":"420606003","level":4,"mergeName":"湖北省,襄阳市,樊城区,中原街道","lng":112.16157732681218,"lat":32.076807449226266,"info":"直接检索POI第一个结果成功!","tag":""},{"name":"定中门街道","code":"420606004","level":4,"mergeName":"湖北省,襄阳市,樊城区,定中门街道","lng":112.16014417020158,"lat":32.042139056161524,"info":"直接检索POI第一个结果成功!","tag":["行政地标","乡镇"]},{"name":"清河口街道","code":"420606005","level":4,"mergeName":"湖北省,襄阳市,樊城区,清河口街道","lng":112.17346199853974,"lat":32.06623090241664,"info":"直接检索POI第一个结果成功!","tag":""},{"name":"屏襄门街道","code":"420606006","level":4,"mergeName":"湖北省,襄阳市,樊城区,屏襄门街道","lng":112.1678719331817,"lat":32.04549233881743,"info":"直接检索POI第一个结果成功!","tag":["行政地标","乡镇"]},{"name":"米公街道","code":"420606007","level":4,"mergeName":"湖北省,襄阳市,樊城区,米公街道","lng":112.14725115053906,"lat":32.04059229896248,"info":"直接检索POI第一个结果成功!","tag":""},{"name":"柿铺街道","code":"420606008","level":4,"mergeName":"湖北省,襄阳市,樊城区,柿铺街道","lng":112.08486850405974,"lat":32.06252923614172,"info":"直接检索POI第一个结果成功!","tag":""},{"name":"高新区紫贞街道","code":"420606070","level":4,"mergeName":"湖北省,襄阳市,樊城区,高新区紫贞街道","lng":112.14256172628532,"lat":32.06802621881139,"info":"直接检索POI第一个结果成功!","tag":["政府机构","各级政府"]},{"name":"高新区七里河街道","code":"420606071","level":4,"mergeName":"湖北省,襄阳市,樊城区,高新区七里河街道","lng":112.14689973342355,"lat":32.06090754838097,"info":"直接检索POI第一个结果成功!","tag":["行政地标","乡镇"]},{"name":"高新区东风街道","code":"420606072","level":4,"mergeName":"湖北省,襄阳市,樊城区,高新区东风街道","lng":112.19878900374917,"lat":32.13481804983098,"info":"直接检索POI第一个结果成功!","tag":""},{"name":"牛首镇","code":"420606100","level":4,"mergeName":"湖北省,襄阳市,樊城区,牛首镇","lng":111.98519027890882,"lat":32.1023478651254,"info":"直接检索POI第一个结果成功!","tag":["行政地标","乡镇"]},{"name":"太平店镇","code":"420606101","level":4,"mergeName":"湖北省,襄阳市,樊城区,太平店镇","lng":111.82556668978825,"lat":32.13967897618916,"info":"直接检索POI第一个结果成功!","tag":["行政地标","乡镇"]},{"name":"高新区团山镇","code":"420606170","level":4,"mergeName":"湖北省,襄阳市,樊城区,高新区团山镇","lng":112.11329583107576,"lat":32.12721568266193,"info":"直接检索POI第一个结果成功!","tag":["行政地标","乡镇"]},{"name":"高新区米庄镇","code":"420606171","level":4,"mergeName":"湖北省,襄阳市,樊城区,高新区米庄镇","lng":112.17128800937505,"lat":32.14280408506811,"info":"直接检索POI第一个结果成功!","tag":["行政地标","乡镇"]},{"name":"经济开发区","code":"420606400","level":4,"mergeName":"湖北省,襄阳市,樊城区,经济开发区","lng":112.75277284395541,"lat":32.134074207868984,"info":"直接检索POI第一个结果成功!","tag":""},{"name":"鱼梁洲开发区","code":"420606480","level":4,"mergeName":"湖北省,襄阳市,樊城区,鱼梁洲开发区","lng":112.19439494234712,"lat":32.05092226034664,"info":"直接检索POI第一个结果成功!","tag":""},{"name":"高新区汽车工业园","code":"420606570","level":4,"mergeName":"湖北省,襄阳市,樊城区,高新区汽车工业园","lng":112.18595787733629,"lat":32.14733731095218,"info":"直接检索POI第一个结果成功!","tag":["名称标注类"]},{"name":"高新区高新技术产业园","code":"420606571","level":4,"mergeName":"湖北省,襄阳市,樊城区,高新区高新技术产业园","lng":112.1283079534363,"lat":32.08608985290785,"info":"直接检索POI第一个结果成功!","tag":""},{"name":"高新区高新技术创业服务中心","code":"420606572","level":4,"mergeName":"湖北省,襄阳市,樊城区,高新区高新技术创业服务中心","lng":112.13870170750894,"lat":32.083050280664914,"info":"直接检索POI第一个结果成功!","tag":""},{"name":"襄州区","code":"420607","level":3,"mergeName":"湖北省,襄阳市,襄州区","lng":112.21843530457458,"lat":32.09337501864752,"info":"直接检索POI第一个结果成功!","tag":""},{"name":"张湾街道","code":"420607001","level":4,"mergeName":"湖北省,襄阳市,襄州区,张湾街道","lng":112.20140127617218,"lat":32.090399091116986,"info":"直接检索POI第一个结果成功!","tag":""},{"name":"刘集街道","code":"420607002","level":4,"mergeName":"湖北省,襄阳市,襄州区,刘集街道","lng":112.26735971756453,"lat":32.12563880567436,"info":"直接检索POI第一个结果成功!","tag":""},{"name":"肖湾街道","code":"420607003","level":4,"mergeName":"湖北省,襄阳市,襄州区,肖湾街道","lng":112.23782163578542,"lat":32.1019061107628,"info":"直接检索POI第一个结果成功!","tag":["名称标注类"]},{"name":"六两河街道","code":"420607004","level":4,"mergeName":"湖北省,襄阳市,襄州区,六两河街道","lng":112.23170201932925,"lat":32.0880620555973,"info":"直接检索POI第一个结果成功!","tag":["交通设施","公交车站","公交车站主点"]},{"name":"龙王镇","code":"420607100","level":4,"mergeName":"湖北省,襄阳市,襄州区,龙王镇","lng":111.98104810237176,"lat":32.21818465376432,"info":"直接检索POI第一个结果成功!","tag":["行政地标","乡镇"]},{"name":"石桥镇","code":"420607101","level":4,"mergeName":"湖北省,襄阳市,襄州区,石桥镇","lng":111.97852054015833,"lat":32.358227519235584,"info":"直接检索POI第一个结果成功!","tag":["行政地标","乡镇"]},{"name":"黄集镇","code":"420607102","level":4,"mergeName":"湖北省,襄阳市,襄州区,黄集镇","lng":112.14700600296538,"lat":32.31455919702251,"info":"直接检索POI第一个结果成功!","tag":["行政地标","乡镇"]},{"name":"伙牌镇","code":"420607103","level":4,"mergeName":"湖北省,襄阳市,襄州区,伙牌镇","lng":112.14065704911252,"lat":32.18324417583185,"info":"直接检索POI第一个结果成功!","tag":["行政地标","乡镇"]},{"name":"古驿镇","code":"420607104","level":4,"mergeName":"湖北省,襄阳市,襄州区,古驿镇","lng":112.24684188073331,"lat":32.26262180229183,"info":"直接检索POI第一个结果成功!","tag":["行政地标","乡镇"]},{"name":"朱集镇","code":"420607105","level":4,"mergeName":"湖北省,襄阳市,襄州区,朱集镇","lng":112.37747544426644,"lat":32.31604618377988,"info":"直接检索POI第一个结果成功!","tag":["行政地标","乡镇"]},{"name":"程河镇","code":"420607106","level":4,"mergeName":"湖北省,襄阳市,襄州区,程河镇","lng":112.44516375257933,"lat":32.29719971025522,"info":"直接检索POI第一个结果成功!","tag":["行政地标","乡镇"]},{"name":"双沟镇","code":"420607107","level":4,"mergeName":"湖北省,襄阳市,襄州区,双沟镇","lng":112.38527309541524,"lat":32.185728564746995,"info":"直接检索POI第一个结果成功!","tag":["行政地标","乡镇"]},{"name":"张家集镇","code":"420607108","level":4,"mergeName":"湖北省,襄阳市,襄州区,张家集镇","lng":112.45272550870122,"lat":32.10968815028386,"info":"直接检索POI第一个结果成功!","tag":["行政地标","乡镇"]},{"name":"黄龙镇","code":"420607109","level":4,"mergeName":"湖北省,襄阳市,襄州区,黄龙镇","lng":112.46900540962801,"lat":31.973442031713322,"info":"直接检索POI第一个结果成功!","tag":["行政地标","乡镇"]},{"name":"峪山镇","code":"420607110","level":4,"mergeName":"湖北省,襄阳市,襄州区,峪山镇","lng":112.38221625159535,"lat":31.993029613538813,"info":"直接检索POI第一个结果成功!","tag":["行政地标","乡镇"]},